run,hr,min,sec,AoA,AoS,dPb,pBar,temp,B1,B2,B3,B4,B5,B6,rpmWT,rho,q,V,Re,rpsM1,rpsM2,iM1,iM2,dPtQ,tM1,tM2,vM1,vM2,pInf,nu,J_M1,J_M2,FX,FY,FZ,MX,MY,MZ,CFX,CFY,CFZ,CMX,CMY,CMZ,CN,CT,CY,CL,CD,CYaw,CMroll,CMpitch,CMpitch25c,CMyaw,B1_zeroed,B2_zeroed,B3_zeroed,B4_zeroed,B5_zeroed,B6_zeroed,B1_zero,B2_zero,B3_zero,B4_zero,B5_zero,B6_zero,config,source_file,dR,dE,V_round,AoA_round,AoS_round,J,J_round,CD_modeloff,CY_modeloff,CL_modeloff,CMroll_modeloff,CMpitch_modeloff,CMyaw_modeloff,modeloff_correction_found,CD_uncorrected,CY_uncorrected,CL_uncorrected,CMroll_uncorrected,CMpitch_uncorrected,CMyaw_uncorrected,CMpitch25c_uncorrected,CT_off,CD_off,CT_prop,Tc_star,dCD_net_pre_corr,dCD_from_dCT_pre_corr,matched_fit_velocity,velocity_match_error,fit_found,fit_match_type,matched_fit_AoS,matched_fit_dR,matched_fit_source_row,CD0_fit,k_fit,esb,CL2_fit,CDi_fit,CDsep_fit,ewb,ess,e_total_blockage,V_blockage_corr,CL_blockage_corr,CD_blockage_corr,CYaw_blockage_corr,CMroll_blockage_corr,CMpitch_blockage_corr,CMyaw_blockage_corr,CL_alpha_per_deg_tailoff,CL_alpha_per_rad_tailoff,delta_alpha_sc_rad,delta_alpha_sc_deg,AoA_streamline_curvature_corr,delta_CL_sc,delta_CMpitch_sc,CL_blockage_corr_sc_corr,CMpitch_blockage_corr_sc_corr,streamline_curvature_data_found,delta_alpha_dw_deg,delta_alpha_dw_rad,delta_CD_dw,AoA_downwash_corr,CD_blockage_corr_dw_corr,downwash_data_found,CLw_tailoff,delta_alpha_tail_rad,delta_alpha_tail_deg,delta_CMpitch_tail,AoA_tail_corr,CMpitch_blockage_corr_sc_corr_tail_corr,tail_correction_data_found
4.0,17.0,20.0,16.0,2.496,0.0,413.22,101106.0,290.81,788.1,1844.2,1294.7,283.5,422.4,-1323.6,0.0,1.2111837665772662,968.376508682172,39.98822250188802,443397.0123409999,98.44,98.43,6.44,7.87,0.0,21.129,21.653,28.525,28.589,101106.0,1.4878860687823469e-05,1.9991104588813853,1.9993135585927413,7.352540167190499,13.14918597295706,107.13484671210308,-2.542902906018317,-2.537051679296379,8.644608059925003,0.0349618126538645,0.0625252451647622,0.5094332508597899,-0.0086579981384831,-0.0731232540013728,0.0294328974628212,0.5104725077494743,0.0127430081841154,-0.061044888021905094,0.496628535097516,0.026911812653864498,-0.0625252451647622,0.0081079636878203,-0.07608984467534341,-0.07608984467534341,0.0263892008170431,800.3666666666667,1849.4333333333332,1299.8666666666668,285.2333333333333,401.5,-1326.6999999999998,-12.266666666666666,-5.233333333333333,-5.166666666666667,-1.7333333333333336,20.9,3.1,rudder_m20_elevator_0,raw_rudder_m20_elevator_0.txt,-20.0,0.0,40.0,2.5,0.0,1.9991104588813853,2.0,0.00805,-0.0014803571428571,0.0128047157622739,-0.0004333333333333,-0.0068874999999999,0.00335,True,0.0349618126538645,-0.0625252451647622,0.5094332508597899,0.007674630354487,-0.0829773446753433,0.0297392008170431,-0.0829773446753433,0.039386221383069374,0.061365674098088775,0.026643213198953974,0.17844695119756043,0.03445386144422428,0.02661793583289331,40.0,0.0,True,exact_AoS_exact_dR,0.0,-20.0,328.0,0.04019709559015745,0.06095841114194795,0.007229438,0.24663990187310467,0.015034776542390414,0.0,0.0010544455509881884,-0.0011999775868850465,0.007083905964103142,39.706942256818635,0.489666460470984,0.0265345446662434,-0.06164872399830565,0.007994300770217845,-0.0750231657805293,0.026019259155542082,0.08495316197178375,4.867457637274492,0.00025217766135683385,0.014448715683225893,2.510448715683226,-0.0012274640837213414,0.00030686602093033536,0.4884389963872627,-0.07471629975959897,True,0.32110622212770173,0.005604360824768667,0.0028102769086716514,2.8315549378109277,0.029344821574915053,True,0.5014816150240948,0.008152718308879524,0.4671163506578306,-0.0012780201220999542,3.2986712884687583,-0.07599431988169893,True
1.0,17.0,17.0,7.0,2.496,4.0,413.81,101101.0,290.5,809.5,-428.2,696.7,860.7,460.6,-25.3,0.0,1.2124162911880931,969.769728920426,39.99663253237486,444308.8042373147,98.44,98.42,6.9,6.8,0.0,20.503,20.594,28.612,28.743,101101.0,1.4851449705370646e-05,1.9995308971718089,1.9999372233041337,7.603355027514802,-7.216187417281273,106.82648115503552,-5.022943558004886,-2.312526063937661,0.1588977406771972,0.0361025125137948,-0.0342641499169136,0.5072371813163812,-0.0170773952470912,-0.066556190140589,0.0005402329311643,0.5083281987643795,0.0139782638606351,0.028144507059770802,0.4982324655541073,0.0309547148818611,0.0316623002035607,-0.020599676921507,-0.072744290456031,-0.072744290456031,0.006525507405891,827.2,-431.7,703.5,860.6,438.8,-26.9,-17.7,3.5,-6.8,0.1,21.8,1.6,rudder_m20_elevator_0,raw_rudder_m20_elevator_0.txt,-20.0,0.0,40.0,2.5,4.0,1.9995308971718089,2.0,0.00745,0.0061196428571428,0.0090047157622739,-0.0061333333333333,-0.0039875,-0.00715,True,0.0384047148818611,0.0342641499169136,0.5072371813163812,-0.0267330102548403,-0.076731790456031,-0.000624492594109,-0.076731790456031,0.03764120995407842,0.06711414858171212,0.02366294609344332,0.15848616137985055,0.03615943369985102,0.02358290915240971,40.0,0.0,True,exact_AoS_exact_dR,4.0,-20.0,346.0,0.0441704734172974,0.05868081153313677,0.007229438,0.2482355897321247,0.014566665856887871,0.0,0.0011586747374682362,-0.0010817825462658597,0.0073063301912023775,39.70652356049711,0.4910309841038681,0.030507293606791747,0.031204651448507655,-0.020301927976009906,-0.07169284019024531,0.006431187336875307,0.08379019089720198,4.800824303005162,0.0002540541553094911,0.014556230866994976,2.510556230866995,-0.0012196693630892527,0.0003049173407723132,0.4898113147407788,-0.071387922849473,True,0.3234956244274186,0.0056460637620534505,0.0028522559479743363,2.8340518552944136,0.03335954955476608,True,0.505213219214959,0.008213383978162113,0.47059223746905937,-0.001287530072416693,3.304644092763473,-0.07267545292188969,True
2.0,17.0,18.0,4.0,2.496,8.0,413.45,101104.0,290.63,508.3,-2894.0,101.3,1653.4,181.6,1226.0,0.0,1.211909932667162,968.9196246045556,39.98744921210356,443867.2703991036,98.42,98.43,7.98,6.06,0.0,20.618,20.945,28.89,28.665,101104.0,1.4862809760720225e-05,1.9994780330453228,1.999274895990253,4.792262915720875,-31.173048377339043,112.0740194845113,-7.826694062111748,-3.01456195211257,-8.001160292735243,0.0227747524649654,-0.1481468093170123,0.5326206212810651,-0.0266331516102841,-0.0868374181123607,-0.0272268359339839,0.5331071373955024,-0.0004422913531882,0.08982716645986949,0.5234159055187912,0.040321160989536704,0.1435354218284363,-0.0473048344472705,-0.1144690496971241,-0.1144690496971241,-0.009574847937301002,521.1,-2897.3,110.3,1651.4,156.0,1220.2,-12.8,3.3,-9.0,2.0,25.6,5.8,rudder_m20_elevator_0,raw_rudder_m20_elevator_0.txt,-20.0,0.0,40.0,2.5,8.0,1.9994780330453228,2.0,0.00285,0.0583196428571428,0.0092047157622739,-0.0198333333333333,0.0212125,-0.02055,True,0.0431711609895367,0.1481468093170123,0.5326206212810651,-0.0671381677806038,-0.0932565496971241,-0.030124847937301,-0.0932565496971241,0.02362584847567535,0.07613668134237066,0.02406813982886355,0.1612000077237641,0.03581552035283395,0.02381129826622396,40.0,0.0,True,exact_AoS_exact_dR,8.0,-20.0,371.0,0.05594063441392008,0.0527568252102957,0.007229438,0.27396421015005623,0.014453481948763235,0.0,0.001467428236075295,-0.001098046123153708,0.007598820112921588,39.68588332370434,0.5155509782540209,0.03971528907187023,0.14137863667785922,-0.04659402478658389,-0.11274902028945272,-0.009430974811161534,0.08577037217243956,4.914280332747109,0.0002613901896294061,0.01497655467188923,2.510976554671889,-0.0012845446680688278,0.00032113616701720695,0.514266433585952,-0.11242788412243551,True,0.33283684146144377,0.005809098755440569,0.0030193569379592467,2.843813396133333,0.04273464600982948,True,0.5198016895768025,0.008450552571893777,0.4841809969229366,-0.0013247086211700687,3.3279943930562697,-0.11375259274360558,True
3.0,17.0,18.0,49.0,2.496,10.0,413.27,101103.0,290.71,330.1,-3931.4,-197.7,2031.0,31.8,1709.0,0.0,1.211564445727421,968.4945769444824,39.98437706931307,443611.97787620977,98.43,98.43,7.14,7.02,0.0,20.79,21.22,28.855,28.611,101103.0,1.4870220568739444e-05,1.999121296346392,1.999121296346392,3.065151877192533,-41.8584898958199,113.32130386928944,-8.123402393455388,-3.16332361165506,-11.18160035468108,0.014573222189432,-0.1990156110386959,0.5387845712871872,-0.0276549405316352,-0.0911626352509436,-0.0380661301607249,0.5389080657471974,-0.0089044783516518,0.1370959681815531,0.5297798555249134,0.0426605203826623,0.1934615032454396,-0.06307752683451259,-0.1122826411828681,-0.1122826411828681,-0.021451558946504096,333.1,-3942.1,-187.5,2029.8,4.100000000000001,1705.3,-3.0,10.7,-10.2,1.2,27.7,3.7,rudder_m20_elevator_0,raw_rudder_m20_elevator_0.txt,-20.0,0.0,40.0,2.5,10.0,1.999121296346392,2.0,0.00625,0.0619196428571428,0.0090047157622739,-0.0189333333333333,0.0170125,-0.0201499999999999,True,0.0489105203826623,0.1990156110386959,0.5387845712871873,-0.0820108601678459,-0.0952701411828681,-0.041601558946504,-0.0952701411828681,0.02171194951914673,0.08593994956374244,0.030616427870798532,0.20505815756181056,0.043279429181080145,0.030122689927881165,40.0,0.0,True,exact_AoS_exact_dR,10.0,-20.0,389.0,0.05903268874274865,0.05113703453127525,0.007229438,0.28066669531999805,0.01435246249035765,0.0,0.0015485386467300733,-0.0013526534037504713,0.007425323242979603,39.689668451652864,0.5219990515053106,0.04203397117545834,0.19062016070213159,-0.062151115856023634,-0.11063356144392324,-0.021136502844734565,0.0863014362817341,4.94470806486056,0.0002643975229934394,0.015148862181237217,2.511148862181237,-0.0013073685642748152,0.0003268421410687038,0.5206916829410357,-0.11030671930285453,True,0.3366661792783128,0.005875933308516066,0.003089232915143319,2.84781504145955,0.04512320409060166,True,0.5257820860330027,0.008547777447586336,0.48975157196380426,-0.001339949592683634,3.337566613423354,-0.11164666889553816,True
1.0,12.0,48.0,53.0,-4.996,0.0,414.34,101170.0,290.45,-619.2,925.6,-346.6,-912.5,45.0,-701.9,0.0,1.2134526039979827,971.0212932130448,40.00533998428826,444844.7576862209,123.02,123.03,17.46,17.61,0.0,19.691,20.772,34.09,33.511,101170.0,1.48367858629074e-05,1.6003631373030802,1.6002330582055182,-5.863858106526021,6.0197828451074695,-75.94717092998704,-2.828415237606084,6.252893085297141,4.53287020069566,-0.0278070860169263,0.0285464989664102,-0.3601501735592838,-0.0096038721582797,0.1797308758151738,0.0153913418859964,-0.3563602706027733,-0.0590655490404786,-0.0323964989664102,-0.3838001735592838,-0.0337070860169263,-0.0285464989664102,0.0013883357312066999,0.18611838554908058,0.18611838554908058,0.0126512998322206,-638.1,914.8,-337.0,-902.8,7.600000000000001,-695.6999999999999,18.9,10.8,-9.6,-9.7,37.4,-6.2,rudder_m10_elevator_0,raw_rudder_m10_elevator_0.txt,-10.0,0.0,40.0,-5.0,0.0,1.6003631373030802,1.6,0.0059,0.00385,0.02365,-0.0015999999999999,0.00145,0.0026999999999999,True,-0.0278070860169263,-0.0285464989664102,-0.3601501735592838,-0.0002116642687932,0.1875683855490806,0.0153512998322205,0.1875683855490806,0.03135325211501952,0.0611259415776579,0.09041880115549812,0.6055936000155777,0.0948330275945842,0.09007528026333952,40.0,0.0,True,exact_AoS_exact_dR,0.0,-10.0,329.0,0.03769917476265525,0.06134922519473465,0.007229438,0.14730257322413637,0.009036898736491434,0.0,0.0009889203814551597,-0.00319010860432385,0.005028249777131309,39.80518954881079,-0.37996940453310546,-0.03337065036636653,-0.02826157193515792,0.0013744785370639208,0.18426070909221048,0.012525025247483654,0.08495316197178375,4.867457637274492,-0.00010047634064900437,-0.005756870260106705,-5.001756870260107,0.0004890643316573898,-0.00012226608291434745,-0.37948034020144805,0.18413844300929613,True,-0.1279398737597322,-0.0022329720416932237,0.00044613213689464456,-5.1296967440198395,-0.032924518229471886,True,-0.19980769632515413,-0.0032483261903965446,-0.1861153811915311,0.0005092076136065624,-5.31581212521137,0.1846476506229027,True
8.0,12.0,53.0,8.0,-4.995,0.0,413.7,101161.0,290.67999999999995,1533.2,1283.8,-582.9,-1291.7,1682.5,-929.6,0.0,1.2123845995887763,969.5099735513668,39.991798252437086,444030.19039940194,82.02,82.03,1.03,0.87,0.0,23.786,23.813,31.732,30.434,101161.0,1.485897230570449e-05,2.39953707351704,2.399244554063971,13.93759241652099,8.934983625828313,-73.44884085980564,-2.124256591667887,6.653740646990737,6.014379200644172,0.0661966878525451,0.0424367641390819,-0.3488457580209146,-0.0072241482378736,0.1915508258418861,0.0204536340264445,-0.3532846132175095,0.0355717083591513,-0.0462867641390819,-0.3724957580209146,0.06029668785254509,-0.0424367641390819,0.008099664366782,0.1714430928783923,0.1714430928783923,0.0171100392329712,1514.3,1273.0,-573.3,-1282.0,1645.1,-923.4,18.9,10.8,-9.6,-9.7,37.4,-6.2,rudder_m10_elevator_0,raw_rudder_m10_elevator_0.txt,-10.0,0.0,40.0,-5.0,0.0,2.39953707351704,2.4,0.0059,0.00385,0.02365,-0.0015999999999999,0.00145,0.0026999999999999,True,0.0661966878525451,-0.0424367641390819,-0.3488457580209146,0.0064996643667821,0.1728930928783923,0.0198100392329711,0.1728930928783923,0.03135325211501952,0.0611259415776579,-0.00421845624413178,-0.02825374889674275,0.0008292537251128052,-0.0042024358131566315,40.0,0.0,True,exact_AoS_exact_dR,0.0,-10.0,329.0,0.03769917476265525,0.06134922519473465,0.007229438,0.13875308974357578,0.008512394549143858,0.01408511854074598,0.002836316363973292,0.00022784725560940142,0.010293601619582694,39.58433289919582,-0.36494391466597215,0.05907425475987423,-0.04157641663614203,0.007935454720877488,0.16796731804384565,0.016763156528129593,0.08495316197178375,4.867457637274492,-0.00010047634064900437,-0.005756870260106705,-5.000756870260107,0.0004890643316573898,-0.00012226608291434745,-0.36445485033431474,0.1678450519609313,True,-0.1279398737597322,-0.0022329720416932237,0.00044613213689464456,-5.128696744019839,0.059520386896768876,True,-0.19980769632515413,-0.0032483261903965446,-0.1861153811915311,0.0005092076136065624,-5.31481212521137,0.16835425957453787,True
14.0,12.0,58.0,17.0,2.496,0.0,103.96,101160.0,290.57,268.1,288.8,271.3,103.3,158.7,-204.0,0.0,1.2128315782593753,242.52716310066285,19.99838583806929,222189.75821228168,49.21,49.21,0.66,0.72,0.0,22.505,22.863,33.762,32.572,101160.0,1.4849138116813831e-05,1.999944180859678,1.999944180859678,2.5767467469310907,2.137724556013921,26.801435904178973,-0.5173985545754108,-0.9250226123674568,1.3495768238307124,0.0489228930172394,0.0405874849279441,0.5088601675776615,-0.0070339095593826,-0.1064541027068845,0.0183471740272914,0.5105079682031981,0.0267158007438398,-0.039107127785086994,0.49605545181538774,0.0408728930172394,-0.0405874849279441,0.0040359341099927,-0.11335566532207911,-0.11335566532207911,0.015136659378122698,280.3666666666667,294.03333333333336,276.4666666666667,105.03333333333332,137.79999999999998,-207.1,-12.266666666666666,-5.233333333333333,-5.166666666666667,-1.7333333333333336,20.9,3.1,rudder_m10_elevator_0,raw_rudder_m10_elevator_0.txt,-10.0,0.0,20.0,2.5,0.0,1.999944180859678,2.0,0.00805,-0.0014803571428571,0.0128047157622739,-0.0004333333333333,-0.0068874999999999,0.00335,True,0.0489228930172394,-0.0405874849279441,0.5088601675776616,0.0036026007766594,-0.120243165322079,0.0184866593781227,-0.120243165322079,0.047580845359863164,0.06912148928129735,0.020865044616023364,0.13974679294600326,0.028248596264057957,0.020845249204460466,20.0,0.0,True,exact_AoS_flipped_dR,0.0,10.0,67.0,0.04373272517726485,0.06222869757779773,0.007229438,0.24607101127576847,0.015312678543342652,0.0,0.0011471917763891215,-0.0009677423367203861,0.007408887439668735,19.851309718832457,0.4887859021071461,0.040273912547573995,-0.03999268703158713,0.003976788658563011,-0.11169447071015831,0.014914835996556606,0.0902710426982978,5.172149758857711,0.0002557716313040428,0.014654634992897821,2.510654634992898,-0.0013228891811718484,0.0003307222952929621,0.48746301292597427,-0.11136374841486535,True,0.3256825438604811,0.005684232706636239,0.0028909503698869906,2.836337178853379,0.04316486291746099,True,0.508628599589568,0.008268908713820716,0.47377357048087687,-0.0012962341299785356,3.310110749334256,-0.11265998254484388,True
2.0,12.0,49.0,35.0,2.496,0.0,413.86,101166.0,290.54,-771.0,962.8,1381.8,789.4,-903.6,-719.9,0.0,1.213028753275484,969.8877999129204,39.98896818151591,444400.6220198101,123.03,123.03,17.58,17.93,0.0,21.089,22.581,34.074,33.579,101166.0,1.4845535922040316e-05,1.5995781781312823,1.5995781781312823,-6.990728382745571,6.523632102842962,110.93256468921332,-2.7001902292649187,-4.624381133196843,4.712499290059566,-0.0331895766717983,0.0309719640074008,0.5266697058691712,-0.0091791997468383,-0.1330768662458155,0.0160199721565789,0.5247246414124537,-0.0560943649090021,-0.0294916068645437,0.5138649901068972,-0.041239576671798304,-0.0309719640074008,-0.0007135638442168002,-0.11683478554393521,-0.11683478554393521,0.012604826478147499,-758.7333333333333,968.0333333333332,1386.9666666666667,791.1333333333333,-924.5,-723.0,-12.266666666666666,-5.233333333333333,-5.166666666666667,-1.7333333333333336,20.9,3.1,rudder_m10_elevator_0,raw_rudder_m10_elevator_0.txt,-10.0,0.0,40.0,2.5,0.0,1.5995781781312823,1.6,0.00805,-0.0014803571428571,0.0128047157622739,-0.0004333333333333,-0.0068874999999999,0.00335,True,-0.0331895766717983,-0.0309719640074008,0.5266697058691712,-0.0011468971775501,-0.1237222855439351,0.0159548264781475,-0.1237222855439351,0.039386221383069374,0.061365674098088775,0.09548058629207147,0.6394956717549618,0.10260525076988708,0.09539000045644537,40.0,0.0,True,exact_AoS_exact_dR,0.0,-10.0,329.0,0.03769917476265525,0.06134922519473465,0.007229438,0.2640572280575616,0.01619970634840075,0.0,0.0009889203814551597,-0.0033182050436443822,0.004900153337810777,39.79397161866396,0.508865731253006,-0.04083836755505283,-0.03067064582408929,-0.0007066217671446195,-0.11569813029923467,0.012482197399331423,0.08495316197178375,4.867457637274492,0.00025217766135683385,0.014448715683225893,2.510448715683226,-0.0012274640837213414,0.00030686602093033536,0.5076382671692847,-0.11539126427830435,True,0.32110622212770173,0.005604360824768667,0.0028102769086716514,2.8315549378109277,-0.03802809064638118,True,0.5014816150240948,0.008152718308879524,0.4671163506578306,-0.0012780201220999542,3.2986712884687583,-0.1166692844004043,True
6.0,12.0,51.0,49.0,2.5,0.0,413.69,101165.0,290.56,1463.3,1116.6,1019.6,387.3,894.7,-788.7,0.0,1.2129332677003728,969.4863594824362,39.98226519445301,444267.4437195616,82.02,82.02,0.56,1.3,0.0,24.587,25.399,31.31,30.092,101165.0,1.4847497008520386e-05,2.398965083082591,2.398965083082591,13.564576907358653,8.13735951383032,108.25829926690729,-1.7090309731480768,-2.950725960654127,5.158883014585127,0.064426617431768,0.0386493844874657,0.5141860360494673,-0.0058121951293063,-0.084948871870768,0.0175446994239085,0.51650689445984,0.0419368176834542,-0.0371690273446086,0.5013813202871935,0.056376617431768,-0.0386493844874657,0.0047444566820065,-0.0962202052320491,-0.0962202052320491,0.0143660493169695,1475.5666666666666,1121.8333333333333,1024.7666666666669,389.03333333333336,873.8000000000001,-791.8000000000001,-12.266666666666666,-5.233333333333333,-5.166666666666667,-1.7333333333333336,20.9,3.1,rudder_m10_elevator_0,raw_rudder_m10_elevator_0.txt,-10.0,0.0,40.0,2.5,0.0,2.398965083082591,2.4,0.00805,-0.0014803571428571,0.0128047157622739,-0.0004333333333333,-0.0068874999999999,0.00335,True,0.064426617431768,-0.0386493844874657,0.5141860360494674,0.0043111233486732,-0.103107705232049,0.0177160493169695,-0.103107705232049,0.039386221383069374,0.061365674098088775,-0.0025505963003848234,-0.017083004596356945,0.004989056666320775,-0.0025481686978727235,40.0,0.0,True,exact_AoS_exact_dR,0.0,-10.0,329.0,0.03769917476265525,0.06134922519473465,0.007229438,0.2513832283329293,0.015422166285176281,0.0032552763839364656,0.0014158805448555222,0.00013616013158114528,0.008781478676436668,39.6342181528862,0.4926902293061847,0.05539936859644968,-0.037979424711644484,0.004662214877195834,-0.09455229595013954,0.014117024001108265,0.08495316197178375,4.867457637274492,0.00025217766135683385,0.014448715683225893,2.514448715683226,-0.0012274640837213414,0.00030686602093033536,0.4914627652224634,-0.09424542992920922,True,0.32110622212770173,0.005604360824768667,0.0028102769086716514,2.8355549378109277,0.05820964550512133,True,0.5014816150240948,0.008152718308879524,0.4671163506578306,-0.0012780201220999542,3.3026712884687583,-0.09552345005130917,True
9.0,12.0,53.0,59.0,2.496,0.0,413.54,101159.0,290.77,1865.9,1091.5,919.7,346.8,1221.5,-810.7,0.0,1.211985376693565,969.1321495590578,39.99058970785869,443764.0522338207,70.31,70.3,-1.01,-1.26,0.0,23.067,22.935,28.808,27.539,101159.0,1.4867434357483653e-05,2.7990909288574315,2.7994890925741966,17.268846134261,7.467939246343539,107.68374833889236,-1.4638838402521142,-2.612897888347991,5.299999175943435,0.0820504751084512,0.0354828549909804,0.5116440695557287,-0.0049803007687443,-0.075250584589141,0.0180312052394468,0.514731923286115,0.0596907155866557,-0.0340024978481233,0.49883935379345484,0.0740004751084512,-0.0354828549909804,0.0046639647942947,-0.0914892545496585,-0.0914892545496585,0.014848340871676599,1878.1666666666667,1096.7333333333331,924.8666666666668,348.53333333333336,1200.6,-813.8000000000001,-12.266666666666666,-5.233333333333333,-5.166666666666667,-1.7333333333333336,20.9,3.1,rudder_m10_elevator_0,raw_rudder_m10_elevator_0.txt,-10.0,0.0,40.0,2.5,0.0,2.7990909288574315,2.8,0.00805,-0.0014803571428571,0.0128047157622739,-0.0004333333333333,-0.0068874999999999,0.00335,True,0.0820504751084512,-0.0354828549909804,0.5116440695557287,0.0042306314609614,-0.0983767545496584,0.0181983408716766,-0.0983767545496584,0.039386221383069374,0.061365674098088775,-0.020304494203586328,-0.13599242175417378,-0.012634801010362427,-0.02028523060618056,40.0,0.0,True,exact_AoS_exact_dR,0.0,-10.0,329.0,0.03769917476265525,0.06134922519473465,0.007229438,0.24884070089307161,0.015266184196704658,0.02103511614909129,0.0037478740212997423,0.0012484795837079288,0.012225791605007672,39.50757828888031,0.4868620349746643,0.07222369611863061,-0.034630898416993156,0.004551981261167095,-0.08929256344679805,0.014491826672871456,0.08495316197178375,4.867457637274492,0.00025217766135683385,0.014448715683225893,2.510448715683226,-0.0012274640837213414,0.00030686602093033536,0.485634570890943,-0.08898569742586772,True,0.32110622212770173,0.005604360824768667,0.0028102769086716514,2.8315549378109277,0.07503397302730226,True,0.5014816150240948,0.008152718308879524,0.4671163506578306,-0.0012780201220999542,3.2986712884687583,-0.09026371754796768,True
10.0,12.0,54.0,31.0,2.496,0.0,413.52,101160.0,290.76,666.6,1017.6,1128.5,547.2,255.6,-757.8,0.0,1.2120390414597149,969.0849217266068,39.98872997496133,443774.89473037096,98.43,98.43,7.41,6.7,0.0,22.707,22.598,30.171,28.596,101160.0,1.4866379727834744e-05,1.9993389310082328,1.9993389310082328,6.235263793043559,6.93631427386736,109.03741205687894,-2.125878060142752,-3.5196654680835637,4.957148835961805,0.0296274160721898,0.0329585204123379,0.518101059019845,-0.0072328335232335,-0.1013701273480528,0.0168656109457166,0.5188997813973568,0.0070361926050199,-0.031478163269480795,0.5052963432575711,0.021577416072189798,-0.0329585204123379,0.0017535141334841,-0.1028332025113387,-0.1028332025113387,0.013557103338725498,678.8666666666667,1022.8333333333334,1133.6666666666667,548.9333333333334,234.7,-760.9,-12.266666666666666,-5.233333333333333,-5.166666666666667,-1.7333333333333336,20.9,3.1,rudder_m10_elevator_0,raw_rudder_m10_elevator_0.txt,-10.0,0.0,40.0,2.5,0.0,1.9993389310082328,2.0,0.00805,-0.0014803571428571,0.0128047157622739,-0.0004333333333333,-0.0068874999999999,0.00335,True,0.0296274160721898,-0.0329585204123379,0.518101059019845,0.0013201808001508,-0.1097207025113386,0.0169071033387255,-0.1097207025113386,0.039386221383069374,0.061365674098088775,0.032350028778049475,0.21666921191108107,0.03978825802589898,0.03231933715262916,40.0,0.0,True,exact_AoS_exact_dR,0.0,-10.0,329.0,0.03769917476265525,0.06134922519473465,0.007229438,0.25532439450947314,0.01566395377647094,0.0,0.0009889203814551597,-0.001417619829723128,0.006800738551732031,39.718614065067655,0.4984930461780022,0.0212868982924604,-0.0325147677340133,0.001729904863908931,-0.10144865889517506,0.01337457084510571,0.08495316197178375,4.867457637274492,0.00025217766135683385,0.014448715683225893,2.510448715683226,-0.0012274640837213414,0.00030686602093033536,0.4972655820942809,-0.10114179287424473,True,0.32110622212770173,0.005604360824768667,0.0028102769086716514,2.8315549378109277,0.024097175201132054,True,0.5014816150240948,0.008152718308879524,0.4671163506578306,-0.0012780201220999542,3.2986712884687583,-0.10241981299634469,True
3.0,12.0,50.0,6.0,5.0,0.0,413.63,101164.0,290.54,-491.3,1047.4,1891.8,1217.9,-920.9,-726.5,0.0,1.2130047723183783,969.3446752632036,39.97816513643388,444271.7837110666,123.03,123.04,18.03,17.84,0.0,22.172,23.819,34.14,33.543,101164.0,1.484582941648344e-05,1.5991460510733362,1.5990160814658043,-4.364830890246677,7.858146113947765,168.10040129620748,-2.60576746799696,-8.232339981058223,4.798590615121405,-0.0207343284701183,0.0373286816350332,0.7985301204274832,-0.0088631762239995,-0.2370366549851055,0.0163217765096072,0.7936843564382348,-0.0902519138426588,-0.0355786816350332,0.7916801204274834,-0.028534328470118303,-0.0373286816350332,0.0008291776632762,-0.22654262295989952,-0.22654262295989952,0.012979641371773099,-472.7,1061.8000000000002,1906.8,1228.9,-990.0,-735.9,-18.6,-14.4,-15.0,-11.0,69.1,9.4,rudder_m10_elevator_0,raw_rudder_m10_elevator_0.txt,-10.0,0.0,40.0,5.0,0.0,1.5991460510733362,1.6,0.0078,-0.00175,0.0068499999999999,-0.0006,-0.00465,0.0033,True,-0.0207343284701183,-0.0373286816350332,0.7985301204274833,0.0002291776632762,-0.2311926229598995,0.0162796413717731,-0.2311926229598995,0.005328005998186114,0.07218181088828785,0.09557991984084492,0.6401609732258426,0.10071613935840615,0.09521620938948375,40.0,0.0,True,exact_AoS_exact_dR,0.0,-10.0,329.0,0.03769917476265525,0.06134922519473465,0.007229438,0.6267574130800746,0.038451081677518824,0.0,0.0009889203814551597,-0.003320687888968258,0.004897670492486902,39.78331954619929,0.7839819444425257,-0.02825686503948808,-0.03696570326397372,0.0008211148669396575,-0.22433975726371716,0.012853429331173174,0.08495316197178375,4.867457637274492,0.00036482848616436927,0.020903132503365306,5.020903132503365,-0.0017757872012760505,0.00044394680031901263,0.7822061572412496,-0.22389581046339815,True,0.46454827238263013,0.008107896887528339,0.005881842234097482,5.485451404885995,-0.022375022805390596,True,0.7254995445041451,0.011794636617492965,0.6757828990728041,-0.0018489272361581974,6.1612343039588,-0.22574473769955636,True
7.0,12.0,52.0,23.0,5.0,0.0,414.28,101164.0,290.61,1713.7,1084.2,1474.8,845.3,887.8,-748.0,0.0,1.2127125926478155,970.879605384417,40.01462427267264,444486.8103838272,82.03,82.03,0.92,1.24,0.0,24.354,24.736,31.294,30.089,101164.0,1.4852180033961034e-05,2.4006139649715625,2.4006139649715625,15.921340567297715,8.188957535811644,164.133727791848,-1.6021323411107302,-6.145487512571767,4.93542251791976,0.0755118369157709,0.0388386407124846,0.7784545046949632,-0.005440827596385,-0.176669428196451,0.0167606522546704,0.7820735405153924,0.0073777110267096,-0.0370886407124846,0.7716045046949634,0.0677118369157709,-0.0388386407124846,0.0046242196426752,-0.1933026635736599,-0.1933026635736599,0.013747606764599199,1732.3,1098.6,1489.8,856.3,818.6999999999999,-757.4,-18.6,-14.4,-15.0,-11.0,69.1,9.4,rudder_m10_elevator_0,raw_rudder_m10_elevator_0.txt,-10.0,0.0,40.0,5.0,0.0,2.4006139649715625,2.4,0.0078,-0.00175,0.0068499999999999,-0.0006,-0.00465,0.0033,True,0.0755118369157709,-0.0388386407124846,0.7784545046949634,0.0040242196426752,-0.1979526635736599,0.0170476067645992,-0.1979526635736599,0.005328005998186114,0.07218181088828785,-0.0020497050285234863,-0.013728209524243301,0.004469973972516944,-0.0020419052820670872,40.0,0.0,True,exact_AoS_exact_dR,0.0,-10.0,329.0,0.03769917476265525,0.06134922519473465,0.007229438,0.5953735116655599,0.03652570364215041,0.0,0.0009889203814551597,0.00010904262818947669,0.008327401009644636,39.68415837217728,0.7589123426407893,0.06659804143908363,-0.03819978192033489,0.004548155616711366,-0.19012301815084023,0.013521471676154721,0.08495316197178375,4.867457637274492,0.00036482848616436927,0.020903132503365306,5.020903132503365,-0.0017757872012760505,0.00044394680031901263,0.7571365554395133,-0.18967907135052123,True,0.46454827238263013,0.008107896887528339,0.005881842234097482,5.485451404885995,0.0724798836731811,True,0.7254995445041451,0.011794636617492965,0.6757828990728041,-0.0018489272361581974,6.1612343039588,-0.19152799858667943,True
4.0,12.0,50.0,33.0,7.0,0.0,414.06,101163.0,290.53,-141.4,1127.5,2249.5,1517.9,-865.5,-747.6,0.0,1.213034532873517,970.3600861966114,39.998608010003394,444521.7309905815,123.03,123.02,17.53,17.67,0.0,23.143,24.81,33.986,33.596,101163.0,1.4845069010817224e-05,1.5999637759596514,1.600093833167907,-1.046251206337523,8.943031340698054,209.65657465396708,-2.436251313562471,-11.60317390775628,4.965696098499293,-0.0049648236664727,0.04243777534626,0.9948929256840732,-0.0082779179511931,-0.333744654313394,0.0168724895683398,0.9868720848825472,-0.1261747642352794,-0.037987775346259994,0.9879429256840729,-0.0109648236664727,-0.04243777534626,0.0009996010509159999,-0.3302953040258658,-0.3302953040258658,0.0133416669194494,-111.55,1149.55,2273.85,1535.2,-980.85,-761.35,-29.85,-22.05,-24.35,-17.3,115.35,13.75,rudder_m10_elevator_0,raw_rudder_m10_elevator_0.txt,-10.0,0.0,40.0,7.0,0.0,1.5999637759596514,1.6,0.006,-0.00445,0.00695,0.0006,-0.0020499999999999,0.0036,True,-0.0049648236664727,-0.04243777534626,0.994892925684073,0.001599601050916,-0.3323453040258657,0.0169416669194494,-0.3323453040258657,-0.030130775789551954,0.08607358265590724,0.09604398844572745,0.6432691429150393,0.09703840632237994,0.09532809112009037,40.0,0.0,True,exact_AoS_exact_dR,0.0,-10.0,329.0,0.03769917476265525,0.06134922519473465,0.007229438,0.9760312244092056,0.05987875938337295,0.0,0.0009889203814551597,-0.003332271876625577,0.004886086504829582,39.80412162847789,0.978358876294805,-0.010858453744858733,-0.042026085840403585,0.0009899039058760579,-0.3270911042441474,0.013212239205188856,0.08495316197178375,4.867457637274492,0.0004180253598610561,0.023951088849475964,7.023951088849476,-0.002034720730430115,0.0005086801826075288,0.9763241555643749,-0.32658242406153987,True,0.5322856248897446,0.009290136715361523,0.00772220182548162,7.55623671373922,-0.0031362519193771123,True,0.8312870833056043,0.01351445241651587,0.7743210858967359,-0.002118525560813028,8.330557799635956,-0.3287009496223529,True
5.0,12.0,51.0,18.0,7.0,0.0,413.96,101166.0,290.53,2015.5,1043.1,1781.3,1170.6,937.9,-713.9,0.0,1.2130705055473072,970.1239425920228,39.99314775350808,444474.2293538968,82.02,82.03,1.08,1.11,0.0,24.435,25.753,31.534,30.336,101166.0,1.4844628791701782e-05,2.3996180445659068,2.3993255152419315,18.797838346099773,8.021141840044894,203.97392290823905,-1.5138079582111554,-9.123164580056397,4.741668226266762,0.0892239546702947,0.0380723561275151,0.9681623874195604,-0.0051448831613968,-0.2624754733317163,0.0161152072704637,0.9718195165688388,-0.029430421622161,-0.033622356127515095,0.9612123874195604,0.0832239546702947,-0.0380723561275151,0.0029803370686450003,-0.28557350979984664,-0.28557350979984664,0.0128314202869259,2045.35,1065.15,1805.65,1187.9,822.55,-727.65,-29.85,-22.05,-24.35,-17.3,115.35,13.75,rudder_m10_elevator_0,raw_rudder_m10_elevator_0.txt,-10.0,0.0,40.0,7.0,0.0,2.3996180445659068,2.4,0.006,-0.00445,0.00695,0.0006,-0.0020499999999999,0.0036,True,0.0892239546702947,-0.0380723561275151,0.9681623874195604,0.003580337068645,-0.2876235097998465,0.0164314202869259,-0.2876235097998465,-0.030130775789551954,0.08607358265590724,-0.000700354167390952,-0.00469072799125925,0.0028496279856125434,-0.0006951338336298517,40.0,0.0,True,exact_AoS_exact_dR,0.0,-10.0,329.0,0.03769917476265525,0.06134922519473465,0.007229438,0.9239292537288111,0.05668234385101196,0.0,0.0009889203814551597,3.6916793327967254e-05,0.008255275174783127,39.66569651378733,0.945536619542889,0.08186671103479345,-0.037451459617041404,0.002931732751124979,-0.2809162830412877,0.012622161263032292,0.08495316197178375,4.867457637274492,0.0004180253598610561,0.023951088849475964,7.023951088849476,-0.002034720730430115,0.0005086801826075288,0.9435018988124589,-0.28040760285868016,True,0.5322856248897446,0.009290136715361523,0.00772220182548162,7.55623671373922,0.08958891286027508,True,0.8312870833056043,0.01351445241651587,0.7743210858967359,-0.002118525560813028,8.330557799635956,-0.2825261284194932,True
16.0,12.0,59.0,28.0,2.496,4.0,104.27,101161.0,290.38,251.5,-323.8,109.2,268.3,155.2,140.9,0.0,1.2136371492818565,243.25031736688445,20.02153057898999,222707.5819986702,49.21,49.21,0.53,0.55,0.0,22.222,22.274,33.817,32.539,101161.0,1.4831757361445155e-05,2.0022587771624334,2.0022587771624334,2.475133974909163,-3.503507577049044,26.876405087964507,-1.2189768256855698,-0.8734758533057256,-0.9127058359163172,0.0468539356873264,-0.0663209023669683,0.5087665428471353,-0.0165224326108418,-0.1002231224954376,-0.0123711299096832,0.5103243299497895,0.0246528836308535,0.0602012595098255,0.4997618270848614,0.043916114139510805,0.0628909826474973,-0.0285096743174806,-0.1094415433458905,-0.1094415433458905,-0.006718083508036101,269.2,-327.3,116.0,268.2,133.39999999999998,139.3,-17.7,3.5,-6.8,0.1,21.8,1.6,rudder_m10_elevator_0,raw_rudder_m10_elevator_0.txt,-10.0,0.0,20.0,2.5,4.0,2.0022587771624334,2.0,0.00745,0.0061196428571428,0.0090047157622739,-0.0061333333333333,-0.0039875,-0.00715,True,0.0513661141395108,0.0663209023669683,0.5087665428471353,-0.0346430076508139,-0.1134290433458905,-0.0138680835080361,-0.1134290433458905,0.044810393253658876,0.07396779130381458,0.020157509622805377,0.13500797028739492,0.03005167716430377,0.020089329380045498,20.0,0.0,True,exact_AoS_flipped_dR,4.0,10.0,84.0,0.049698849396538625,0.06067723443210956,0.007229438,0.2497618838111989,0.015154860376217426,0.0,0.001303694455184564,-0.0009384081470631376,0.0075947243081214266,19.870618708070396,0.4922563315654059,0.04325657557525382,0.061946476759105806,-0.028081511898395615,-0.10779793439316951,-0.006617190356666356,0.08926116955176178,5.1142882897176,0.00025614152382606655,0.014675828273283231,2.5106758282732833,-0.0013099815958140739,0.00032749539895351846,0.4909463499695918,-0.10747043899421599,True,0.32615354033852473,0.005692453145943397,0.0028993181012816538,2.836829368611808,0.04615589367653548,True,0.5093641694982258,0.008280867066992822,0.4744587336475654,-0.0012981087214217948,3.3112881022593736,-0.10876854771563778,True
11.0,12.0,55.0,43.0,2.496,3.995,413.52,101162.0,290.77,672.2,-1333.6,511.3,1154.4,265.1,596.1,0.0,1.212021319675703,969.0849217266068,39.98902232503535,443759.81931502215,98.43,98.44,7.72,6.66,0.0,22.373,22.495,30.201,28.654,101162.0,1.4866993457708316e-05,1.9993535477986348,1.9991504440249863,6.340779573675689,-14.00086109713548,108.68821264708312,-4.408266726533726,-3.5150867360559093,-3.8941736768773074,0.0301287837831209,-0.0665263493032253,0.5164418066530524,-0.0149981600341117,-0.1012382549718441,-0.0132490712630621,0.517263937606016,0.0076093444946642,0.0604067064460825,0.5074370908907785,0.027240427015209304,0.0642656443005688,-0.027006464733616,-0.1057426421126703,-0.1057426421126703,-0.007529727690131801,689.9000000000001,-1337.1,518.1,1154.3000000000002,243.3,594.5,-17.7,3.5,-6.8,0.1,21.8,1.6,rudder_m10_elevator_0,raw_rudder_m10_elevator_0.txt,-10.0,0.0,40.0,2.5,4.0,1.9993535477986348,2.0,0.00745,0.0061196428571428,0.0090047157622739,-0.0061333333333333,-0.0039875,-0.00715,True,0.0346904270152093,0.0665263493032253,0.5164418066530524,-0.0331397980669493,-0.1097301421126703,-0.0146797276901318,-0.1097301421126703,0.03764120995407842,0.06711414858171212,0.030031865459414223,0.2011429623743052,0.03987372156650282,0.02993046897770499,40.0,0.0,True,exact_AoS_exact_dR,4.0,-10.0,347.0,0.0412956424338357,0.05945782119361942,0.007229438,0.2574924012116962,0.015309937149960744,0.0,0.001083262504423806,-0.001330526418020805,0.006982174086403001,39.71174798731258,0.5004245915830322,0.026863979414085908,0.06337752872080601,-0.02663325036153156,-0.10428133741515073,-0.007425671027419432,0.08379019089720198,4.800824303005162,0.0002540541553094911,0.014556230866994976,2.510556230866995,-0.0012196693630892527,0.0003049173407723132,0.49920492221994295,-0.10397642007437842,True,0.3234956244274186,0.0056460637620534505,0.0028522559479743363,2.8340518552944136,0.029716235362060243,True,0.505213219214959,0.008213383978162113,0.47059223746905937,-0.001287530072416693,3.304644092763473,-0.10526395014679511,True
15.0,12.0,59.0,1.0,2.496,8.0,103.89,101163.0,290.42,170.3,-953.6,-43.8,475.5,76.0,466.9,0.0,1.2134939840084806,242.363871432735,19.986195193269104,222264.5655347002,49.21,49.21,0.94,0.89,0.0,22.399,22.546,33.945,32.565,101163.0,1.4835091647499656e-05,1.9987250520096569,1.9987250520096569,1.684274144551488,-9.579769714061449,28.199184847037422,-1.8496369835160125,-1.114657255373969,-3.016480855092828,0.031999683419864,-0.182006948854992,0.5357589741091229,-0.0251623138482347,-0.1283641966584538,-0.0410359647160353,0.5366442551834179,0.0086372134433541,0.12368730599784919,0.526554258346849,0.0541687361689597,0.1757821745688958,-0.0547685360276957,-0.1585959024153051,-0.1585959024153051,-0.0236959170275428,183.1,-956.9,-34.8,473.5,50.4,461.1,-12.8,3.3,-9.0,2.0,25.6,5.8,rudder_m10_elevator_0,raw_rudder_m10_elevator_0.txt,-10.0,0.0,20.0,2.5,8.0,1.9987250520096569,2.0,0.00285,0.0583196428571428,0.0092047157622739,-0.0198333333333333,0.0212125,-0.02055,True,0.0570187361689597,0.182006948854992,0.5357589741091229,-0.074601869361029,-0.1373834024153051,-0.0442459170275428,-0.1373834024153051,0.028272722208494746,0.0820058468176113,0.019635508765140648,0.13151179057073673,0.027837110648651603,0.019425969731782778,20.0,0.0,True,exact_AoS_flipped_dR,8.0,10.0,108.0,0.06289204795950465,0.0605110845783555,0.007229438,0.2772593869832002,0.016777266215883425,0.0,0.0016497769102420787,-0.000916633887338749,0.00796258102290333,19.828310663067132,0.5182678984978332,0.05331628528978225,0.17301589867152967,-0.05390664612606598,-0.15610008608268522,-0.023323015484482252,0.08862961749710023,5.0781030224426775,0.0002636617625088808,0.015106706210739508,2.5111067062107395,-0.001338901593098911,0.0003347253982747277,0.5169289969047343,-0.1557653606844105,True,0.33572931092797487,0.005859581871144941,0.003072063518549562,2.846836017138714,0.056388348808331816,True,0.5243189494725233,0.008523990852290239,0.4883887004443522,-0.0013362208060050179,3.3352247175830665,-0.1571015814904155,True
12.0,12.0,56.0,44.0,2.496,8.0,413.7,101158.0,290.82,371.0,-3870.9,-104.7,1968.5,-14.2,1896.0,0.0,1.2117650239582876,969.5099735513668,40.002020851990096,443751.0461959339,98.41,98.43,6.55,6.35,0.0,22.319,22.624,30.385,28.659,101158.0,1.48721200307355e-05,2.0004099058889744,2.000003442431514,3.529735491688512,-38.499242528611845,113.97959030959562,-7.09915120807301,-4.222219297459297,-12.37521527562076,0.01676450218679,-0.1828524083689695,0.5413468220193964,-0.02414271462843,-0.1215511148123358,-0.0420854947454765,0.5415633150370034,-0.0068268623980856,0.12453276551182668,0.5321421062571225,0.0391994878946521,0.178739733544897,-0.053942266676880804,-0.1474887395159128,-0.1474887395159128,-0.0247084675972208,383.8,-3874.2,-95.7,1966.5,-39.8,1890.2,-12.8,3.3,-9.0,2.0,25.6,5.8,rudder_m10_elevator_0,raw_rudder_m10_elevator_0.txt,-10.0,0.0,40.0,2.5,8.0,2.0004099058889744,2.0,0.00285,0.0583196428571428,0.0092047157622739,-0.0198333333333333,0.0212125,-0.02055,True,0.0420494878946521,0.1828524083689695,0.5413468220193964,-0.0737756000102141,-0.1262762395159128,-0.0452584675972208,-0.1262762395159128,0.02362584847567535,0.07613668134237066,0.03045271087376095,0.20396163820573968,0.03693719344771856,0.03012773678340568,40.0,0.0,True,exact_AoS_exact_dR,8.0,-10.0,372.0,0.053095900892464104,0.05384965327530762,0.007229438,0.2831752212517667,0.015248887480566159,0.0,0.0013928055161646382,-0.0013464677149310354,0.007275775801233604,39.713077404418506,0.5244823103783686,0.038635239976109,0.17616690598947846,-0.053165807255377,-0.14536574713131703,-0.024352807302637624,0.08577037217243956,4.914280332747109,0.0002613901896294061,0.01497655467188923,2.510976554671889,-0.0012845446680688278,0.00032113616701720695,0.5231977657102997,-0.14504461096429982,True,0.33283684146144377,0.005809098755440569,0.0030193569379592467,2.843813396133333,0.04165459691406825,True,0.5198016895768025,0.008450552571893777,0.4841809969229366,-0.0013247086211700687,3.3279943930562697,-0.1463693195854699,True
17.0,13.0,0.0,17.0,2.496,9.995,103.97,101163.0,290.31,312.0,-599.3,-14.8,428.2,136.3,244.5,0.0,1.2139537833203915,242.55049051881485,19.990101533520384,222457.5841877914,49.21,49.21,0.64,0.94,0.0,21.864,21.785,34.037,32.643,101163.0,1.4825116789482283e-05,1.9991157066613503,1.9991157066613503,2.897264657653516,-6.760642079788343,28.62581442528408,-0.1279650639005697,-1.6349854652786002,-1.579016739304423,0.0550030525480862,-0.1283472500833133,0.5434460986870463,-0.0017394871153176,-0.1881404507115604,-0.0214642902458533,0.5453258751688899,0.0312839869432064,0.0664276072261705,0.5344413829247724,0.07019450162969919,0.1168528586049268,-0.018010474191698104,-0.22065572433831898,-0.22065572433831898,-0.0029028158463359002,315.0,-610.0,-4.600000000000001,427.0,108.6,240.8,-3.0,10.7,-10.2,1.2,27.7,3.7,rudder_m10_elevator_0,raw_rudder_m10_elevator_0.txt,-10.0,0.0,20.0,2.5,10.0,1.9991157066613503,2.0,0.00625,0.0619196428571428,0.0090047157622739,-0.0189333333333333,0.0170125,-0.0201499999999999,True,0.0764445016296992,0.1283472500833133,0.5434460986870463,-0.0369438075250314,-0.203643224338319,-0.0230528158463358,-0.203643224338319,0.05154037286932841,0.10246258980281212,0.020256385926122007,0.13567020928765297,0.03226808817311293,0.01993002650792898,20.0,0.0,True,exact_AoS_flipped_dR,10.0,10.0,125.0,0.08253790761420027,0.05688423438706542,0.007229438,0.2856275917825432,0.01624770687837123,0.0,0.002165124822923225,-0.0009425198712465475,0.008452042951676677,19.822560401593908,0.5255203993339046,0.06902280344685875,0.1149023314424236,-0.01770984039001044,-0.2169725026437702,-0.0028543615661101515,0.08811737951673519,5.0487539480614565,0.00026590963736967634,0.01523549995313665,2.5112354999531368,-0.0013425123314977437,0.0003356280828744359,0.5241778870024069,-0.21663687456089575,True,0.3385916049173878,0.00590953832542024,0.0031246691868330816,2.8498271048705246,0.07214747263369184,True,0.5287890833832694,0.008596662993173272,0.4925525074051301,-0.0013476128908098423,3.342379612275655,-0.2179844874517056,True
13.0,12.0,57.0,10.0,2.496,10.0,413.36,101159.0,290.83,187.5,-4911.8,-404.0,2351.7,-173.6,2382.8,0.0,1.211735336730007,968.7071003996972,39.98594394612135,443550.0120281531,98.44,98.43,7.75,7.42,0.0,22.321,22.69,30.477,28.669,101159.0,1.4872880806731036e-05,1.9989965482252148,1.999199636363813,1.7538493366361534,-49.19371136392037,115.31625675164946,-7.308366752168292,-4.444354183717343,-15.582024057900789,0.0083368229974088,-0.2338395069973475,0.5481492629840952,-0.0248748119232505,-0.1280520748943163,-0.0530350940186262,0.5479922798842379,-0.0155427898065926,0.17191986414020471,0.5391445472218214,0.0425659721799614,0.2288392853305085,-0.06945404923447669,-0.14741433320240638,-0.14741433320240638,-0.036684016473210096,190.5,-4922.5,-393.8,2350.5,-201.3,2379.1000000000004,-3.0,10.7,-10.2,1.2,27.7,3.7,rudder_m10_elevator_0,raw_rudder_m10_elevator_0.txt,-10.0,0.0,40.0,2.5,10.0,1.9989965482252148,2.0,0.00625,0.0619196428571428,0.0090047157622739,-0.0189333333333333,0.0170125,-0.0201499999999999,True,0.0488159721799614,0.2338395069973475,0.5481492629840953,-0.08838738256781,-0.1304018332024064,-0.05683401647321,-0.1304018332024064,0.02171194951914673,0.08593994956374244,0.03725473932573933,0.24951925282792264,0.04337397738378104,0.03665394819372888,40.0,0.0,True,exact_AoS_exact_dR,10.0,-10.0,390.0,0.05658549432100171,0.05163809646033119,0.007229438,0.2906768427990228,0.015009998847240464,0.0,0.0014843441263914943,-0.0015963738844270488,0.007117408241964445,39.703358932024884,0.5315510879832633,0.0419664613876077,0.22561625025709056,-0.06847583941202287,-0.14533810942138178,-0.03616734875352099,0.0863014362817341,4.94470806486056,0.0002643975229934394,0.015148862181237217,2.511148862181237,-0.0013073685642748152,0.0003268421410687038,0.5302437194189885,-0.14501126728031308,True,0.3366661792783128,0.005875933308516066,0.003089232915143319,2.84781504145955,0.04505569430275102,True,0.5257820860330027,0.008547777447586336,0.48975157196380426,-0.001339949592683634,3.337566613423354,-0.1463512168729967,True
7.0,17.0,28.0,49.0,2.496,0.0,413.42,101102.0,290.77,633.9,505.2,985.7,680.5,249.8,-408.5,0.0,1.2113024600329465,968.8487831196423,39.99601266937408,443574.14790770254,98.43,98.43,6.58,6.93,0.0,20.695,20.891,28.512,28.858,101102.0,1.4875816424686836e-05,1.9997030479599631,1.9997030479599631,5.934854788693804,3.067854914387187,108.32557596267218,-1.7334155781907177,-3.277768489029369,2.6799739045648447,0.0282068689168418,0.0145807411481846,0.5148441588396436,-0.0058990034843988,-0.0944262448156166,0.0091202453699113,0.5155841068364693,0.0057588300055021,-0.0131003840053275,0.5020394430773697,0.0201568689168418,-0.0145807411481846,-0.0017515307387681,-0.09548893454654411,-0.09548893454654411,0.005666442623077899,646.1666666666666,510.4333333333333,990.8666666666668,682.2333333333333,228.9,-411.6,-12.266666666666666,-5.233333333333333,-5.166666666666667,-1.7333333333333336,20.9,3.1,rudder_m5_elevator_0,raw_rudder_m5_elevator_0.txt,-5.0,0.0,40.0,2.5,0.0,1.9997030479599631,2.0,0.00805,-0.0014803571428571,0.0128047157622739,-0.0004333333333333,-0.0068874999999999,0.00335,True,0.0282068689168418,-0.0145807411481846,0.5148441588396436,-0.0021848640721014,-0.102376434546544,0.0090164426230779,-0.102376434546544,0.039386221383069374,0.061365674098088775,0.033627391377567276,0.22522454117094268,0.04120880518124698,0.03359548787271714,40.0,0.0,True,exact_AoS_zero_dR,0.0,0.0,330.0,0.034608752698998047,0.06898509874297536,0.007229438,0.25204360240543555,0.017387252799474194,0.0,0.0009078527881911083,-0.0014648778577565779,0.006672412930434531,39.73091162093659,0.4954062765567755,0.01989054747556294,-0.014388093966049384,-0.0017283887422250162,-0.09422729263283548,0.005591575084248931,0.08495316197178375,4.867457637274492,0.00025217766135683385,0.014448715683225893,2.510448715683226,-0.0012274640837213414,0.00030686602093033536,0.4941788124730542,-0.09392042661190515,True,0.32110622212770173,0.005604360824768667,0.0028102769086716514,2.8315549378109277,0.022700824384234593,True,0.5014816150240948,0.008152718308879524,0.4671163506578306,-0.0012780201220999542,3.2986712884687583,-0.09519844673400511,True
8.0,17.0,29.0,34.0,2.496,4.0,413.08,101104.0,290.83,627.8,-1835.1,382.4,1291.8,234.1,937.5,0.0,1.211076518003842,968.0459187785996,39.98316648035563,443278.0618370876,98.44,98.43,6.62,6.84,0.0,20.888,21.001,28.637,28.774,101104.0,1.4880971569157546e-05,1.9988576958203303,1.9990607698522125,5.932703060890534,-17.792944279978673,108.4607517965905,-4.09078674376746,-3.487492871643484,-6.121743855621287,0.0282200276324897,-0.0846355150579503,0.5159141425630291,-0.0139329422547457,-0.1005513281399908,-0.0208502444593735,0.5166536484854932,0.0057253788304749,0.07851587220080751,0.5069094268007552,0.026605160147471003,0.082460817580431,-0.0307105088629618,-0.1045177266939827,-0.1045177266939827,-0.015284999172848899,645.5,-1838.6,389.2,1291.7,212.3,935.9,-17.7,3.5,-6.8,0.1,21.8,1.6,rudder_m5_elevator_0,raw_rudder_m5_elevator_0.txt,-5.0,0.0,40.0,2.5,4.0,1.9988576958203303,2.0,0.00745,0.0061196428571428,0.0090047157622739,-0.0061333333333333,-0.0039875,-0.00715,True,0.034055160147471,0.0846355150579503,0.5159141425630291,-0.0368438421962951,-0.1085052266939827,-0.0224349991728489,-0.1085052266939827,0.03764120995407842,0.06711414858171212,0.03191583112360352,0.21376110743154875,0.04050898843424112,0.03180787983623672,40.0,0.0,True,exact_AoS_zero_dR,4.0,0.0,348.0,0.04128048246965465,0.05939308005467165,0.007229438,0.25695716697947024,0.015261477589033307,0.0,0.0010828648300010859,-0.0014014390045736234,0.006910863825427462,39.708744752691125,0.4999750292869187,0.026241208035658412,0.0813327736771492,-0.030290396580473746,-0.10308794964542237,-0.01507590410643409,0.08379019089720198,4.800824303005162,0.0002540541553094911,0.014556230866994976,2.510556230866995,-0.0012196693630892527,0.0003049173407723132,0.49875535992382947,-0.10278303230465005,True,0.3234956244274186,0.0056460637620534505,0.0028522559479743363,2.8340518552944136,0.029093463983632748,True,0.505213219214959,0.008213383978162113,0.47059223746905937,-0.001287530072416693,3.304644092763473,-0.10407056237706674,True
5.0,17.0,27.0,28.0,2.496,8.0,413.6,101103.0,290.59,316.8,-4388.7,-237.1,2112.7,-48.2,2249.3,0.0,1.21206476484882,969.273833278528,39.99220306840241,444024.1348092035,98.44,98.43,6.69,5.99,0.0,20.627,20.687,28.738,28.8,101103.0,1.4859325363624548e-05,1.999309457277746,1.999512577206353,3.0314849949308997,-42.40469060551149,113.8814294677028,-6.732263081787941,-4.139748418222957,-14.682518425976724,0.0144015658804061,-0.201450426577959,0.5410123790077764,-0.0229005833788073,-0.119205941288257,-0.0499443104555055,0.541126284296638,-0.0091729920296329,0.1431307837208162,0.5318076632455025,0.0394478913878267,0.1974856142922642,-0.057595998735445006,-0.14447756537995352,-0.14447756537995352,-0.032718946086422,329.6,-4392.0,-228.1,2110.7,-73.80000000000001,2243.5,-12.8,3.3,-9.0,2.0,25.6,5.8,rudder_m5_elevator_0,raw_rudder_m5_elevator_0.txt,-5.0,0.0,40.0,2.5,8.0,1.999309457277746,2.0,0.00285,0.0583196428571428,0.0092047157622739,-0.0198333333333333,0.0212125,-0.02055,True,0.0422978913878267,0.201450426577959,0.5410123790077764,-0.0774293320687783,-0.1232650653799535,-0.053268946086422,-0.1232650653799535,0.02362584847567535,0.07613668134237066,0.03279884050530825,0.2196751963542106,0.03668878995454396,0.03244882984773149,40.0,0.0,True,exact_AoS_zero_dR,8.0,0.0,373.0,0.05536457036537403,0.05295461198253305,0.007229438,0.28281939068664186,0.01497659109494754,0.0,0.0014523169907438697,-0.0014342825194675324,0.007247472471276338,39.70444618767,0.5241821388862908,0.038882252948429966,0.19465389247541562,-0.05677013682764562,-0.1424059194253975,-0.03224979316209761,0.08577037217243956,4.914280332747109,0.0002613901896294061,0.01497655467188923,2.510976554671889,-0.0012845446680688278,0.00032113616701720695,0.522897594218222,-0.14208478325838028,True,0.33283684146144377,0.005809098755440569,0.0030193569379592467,2.843813396133333,0.04190160988638921,True,0.5198016895768025,0.008450552571893777,0.4841809969229366,-0.0013247086211700687,3.3279943930562697,-0.14340949187955035,True
6.0,17.0,28.0,4.0,2.496,9.995,413.18,101103.0,290.69,139.5,-5411.7,-530.7,2494.5,-212.4,2729.6,0.0,1.2116478035619338,968.2820542389112,39.978614543068126,443602.2211441562,98.43,98.43,7.47,5.58,0.0,20.581,20.759,28.844,28.75,101103.0,1.4868404494148588e-05,1.9988331840940223,1.9988331840940223,1.3125724684712332,-52.89379091530388,115.3634578482057,-6.839575068285243,-4.484204325729975,-17.84739052685116,0.0062419773554415,-0.2515379935717619,0.5486143499357741,-0.0232894478983835,-0.1292569641720157,-0.0607721777518867,0.5483656958166624,-0.0176559023633918,0.18961835071461908,0.5396096341735003,0.0435547389421536,0.2466370054763021,-0.0725168804158208,-0.1480287840177673,-0.1480287840177673,-0.044547144956313095,142.5,-5422.4,-520.5,2493.3,-240.1,2725.9,-3.0,10.7,-10.2,1.2,27.7,3.7,rudder_m5_elevator_0,raw_rudder_m5_elevator_0.txt,-5.0,0.0,40.0,2.5,10.0,1.9988331840940223,2.0,0.00625,0.0619196428571428,0.0090047157622739,-0.0189333333333333,0.0170125,-0.0201499999999999,True,0.0498047389421536,0.2515379935717619,0.5486143499357742,-0.0914502137491541,-0.1310162840177673,-0.064697144956313,-0.1310162840177673,0.02171194951914673,0.08593994956374244,0.03936785188253853,0.26367214386558857,0.04238521062158884,0.038733579348299046,40.0,0.0,True,exact_AoS_zero_dR,10.0,0.0,391.0,0.06885309636054321,0.054838597447374196,0.007229438,0.2911785572928588,0.015967823688690267,0.0,0.0018061464407620757,-0.001671216540561578,0.007364367900200498,39.686349663529896,0.5317488076539799,0.0429202501835315,0.24304409202450142,-0.07146048227059738,-0.14587235737642035,-0.04389819920689582,0.0863014362817341,4.94470806486056,0.0002643975229934394,0.015148862181237217,2.511148862181237,-0.0013073685642748152,0.0003268421410687038,0.5304414390897051,-0.14554551523535164,True,0.3366661792783128,0.005875933308516066,0.003089232915143319,2.84781504145955,0.04600948309867482,True,0.5257820860330027,0.008547777447586336,0.48975157196380426,-0.001339949592683634,3.337566613423354,-0.14688546482803527,True
28.0,8.0,10.0,41.0,2.496,-9.995,104.26,101189.0,289.29,330.2,896.7,533.5,-88.4,83.8,-457.2,0.0,1.2185471305276716,243.22698967108667,19.98019463460076,223798.9645853479,49.21,49.21,0.59,0.58,0.0,19.603,19.399,45.032,44.352,101189.0,1.4728956569678325e-05,1.9981249644581995,1.9981249644581995,2.6138409208311546,8.520802655369632,29.33895051356545,-1.0460446418331577,-1.9136533810016108,2.840559422068558,0.0494843840843911,0.1613130577095466,0.5554354453156867,-0.0141798099486113,-0.2195947502517445,0.0385056154793571,0.5570635110491933,0.025248422501061,-0.1502327005666895,0.5424307295534128,0.048581209826606506,-0.1502761734086956,0.0235134989555778,-0.1929545707908949,-0.1929545707908949,0.032307289409251705,284.6,870.2,536.1,-83.60000000000001,64.8,-434.7,45.6,26.5,-2.6,-4.8,19.0,-22.5,rudder_0_elevator_0,raw_rudder_0_elevator_0.txt,0.0,0.0,20.0,2.5,-10.0,1.9981249644581995,2.0,0.0281499999999999,-0.0110803571428571,0.0130047157622739,0.0060666666666666,-0.0405875,0.00745,True,0.0767312098266064,-0.1613130577095466,0.5554354453156867,0.0295801656222444,-0.2335420707908949,0.0397572894092517,-0.2335420707908949,0.04916949525412677,0.09699251684360499,0.023921072753065768,0.16021500373412953,0.04841130701699849,0.023535669976148088,20.0,0.0,True,exact_AoS_exact_dR,-10.0,0.0,9.0,0.0537790839673638,0.06287911290193308,0.007229438,0.2942310963638476,0.018500990327521925,0.0,0.0014107266953757751,-0.0010921503745370581,0.007548014320838717,19.830513633703976,0.5343339663406294,0.0478560470894577,-0.14803302875202184,0.023162517303959195,-0.190074373587089,0.031825044473370326,0.08931933350116399,5.117620838538159,0.00026416636536963497,0.015135617824990951,2.511135617824991,-0.001351903296256529,0.00033797582406413227,0.5329820630443728,-0.18973639776302487,True,0.33637183857066844,0.005870796094045021,0.003083833563665371,2.8475074563956593,0.05093988065312307,True,0.5253224049578159,0.008540304291630775,0.4893233916679076,-0.0013387781007560403,3.336830848063567,-0.1910751758637809,True
20.0,8.0,3.0,34.0,2.496,-10.0,414.92,101193.0,289.89,683.6,4276.0,2362.5,-391.9,-76.4,-2171.3,0.0,1.2160731113350067,972.3909594001356,39.99038738198461,446306.3469309787,98.42,98.43,6.88,6.75,0.0,21.406,21.947,30.325,30.385,101193.0,1.4782670205155337e-05,1.9996249492965537,1.9994217973155213,5.8498046751061,41.28985933234436,118.92845611132644,-1.009739290275658,-7.416589613684414,14.027813347794028,0.0277013690964369,0.1955254400497548,0.5631779592281009,-0.0034237362310375,-0.2128794685405792,0.0475642903704021,0.5638500368901675,0.0031488901381546,-0.1844450829068977,0.550173243465827,0.0330831594073885,-0.1877446770096469,0.0434985789564655,-0.1800996816466455,-0.1800996816466455,0.0422277130626462,638.0,4249.5,2365.1,-387.1,-95.4,-2148.8,45.6,26.5,-2.6,-4.8,19.0,-22.5,rudder_0_elevator_0,raw_rudder_0_elevator_0.txt,0.0,0.0,40.0,2.5,-10.0,1.9996249492965537,2.0,0.0281499999999999,-0.0110803571428571,0.0130047157622739,0.0060666666666666,-0.0405875,0.00745,True,0.0612331594073884,-0.1955254400497548,0.5631779592281009,0.0495652456231321,-0.2206871816466455,0.0496777130626462,-0.2206871816466455,0.026121121209031005,0.0855416402479527,0.022972231070876405,0.1538599930193369,0.0524584808405642,0.022601767796681868,40.0,0.0,True,exact_AoS_exact_dR,-10.0,0.0,270.0,0.04548480775268445,0.057186868817152535,0.007229438,0.3026905978257081,0.017309927510044246,0.0,0.0011931522033675197,-0.0010539142466711635,0.007368675956696356,39.697866666348155,0.5421538932114919,0.03260093776909771,-0.18500810204674453,0.042864541688458276,-0.1774745404843447,0.04161219999378873,0.08561691808571587,4.905488061228806,0.0002636038025805986,0.015103385351468058,2.511103385351468,-0.0012931053064536417,0.0003232763266134104,0.5408607879050382,-0.17715126415773128,True,0.3356555086192955,0.005858293777862913,0.003070713023060851,2.8467588939707635,0.03567165079215856,True,0.5242036901022633,0.008522117050439808,0.4882813395066787,-0.0013359270688269444,3.335040233477442,-0.1784871912265582,True
26.0,8.0,9.0,3.0,2.496,-8.0,104.24,101190.0,289.33,328.7,671.0,453.6,-22.7,105.8,-350.6,0.0,1.2183907064735384,243.1803343072557,19.979560682557437,223739.12325650055,49.21,49.21,0.6,0.58,0.0,20.185,19.959,44.909,44.134,101190.0,1.4732428520159189e-05,1.9980615659064236,1.9980615659064236,2.700872105082296,6.304538068544964,29.06200962874485,-1.016482703594064,-1.717570605278078,2.1996451419946084,0.0511418400243831,0.1193783580949441,0.5502980479614616,-0.0137817223898718,-0.1971317552616021,0.0298233296011954,0.5520031693373514,0.0271280377615881,-0.060398000952087,0.5388933321991878,0.0510083874364307,-0.1110990076552229,0.0020811132065836,-0.2022587346772815,-0.2022587346772815,0.0084527842915635,294.0,655.5,456.3,-17.299999999999997,86.9,-336.70000000000005,34.7,15.5,-2.7,-5.4,18.9,-13.9,rudder_0_elevator_0,raw_rudder_0_elevator_0.txt,0.0,0.0,20.0,2.5,-8.0,1.9980615659064236,2.0,0.01625,-0.0589803571428571,0.0114047157622739,0.0164666666666666,-0.0092874999999999,0.02215,True,0.0672583874364307,-0.1193783580949441,0.5502980479614616,0.0185477798732502,-0.2115462346772814,0.0306027842915635,-0.2115462346772814,0.05198462518046862,0.0884560345170103,0.02485658741888052,0.16648075474053595,0.0374476470805796,0.02459133198992142,20.0,0.0,True,exact_AoS_exact_dR,-8.0,0.0,26.0,0.05627680981986645,0.0591417091135956,0.007229438,0.29040602348874417,0.01717510856600732,0.0,0.0014762467503472215,-0.0011295154586356518,0.0075761692917115705,19.829330319118526,0.5308197041447731,0.050244186576611935,-0.1094345371349395,0.0020499342459894543,-0.19922852128073248,0.0083261458042848,0.08834619222417421,5.061863950496673,0.0002621483527147956,0.015019994216864665,2.5110199942168645,-0.0013269592962891106,0.00033173982407227765,0.529492744848484,-0.1988967814566602,True,0.333802235790173,0.005825948065056975,0.003036897648575861,2.8448222300070376,0.0532810842251878,True,0.5213093760485823,0.008475063426797078,0.48558536546115333,-0.00132855094278471,3.330407595468191,-0.20022533239944493,True
