run,hr,min,sec,AoA,AoS,dPb,pBar,temp,B1,B2,B3,B4,B5,B6,rpmWT,rho,q,V,Re,rpsM1,rpsM2,iM1,iM2,dPtQ,tM1,tM2,vM1,vM2,pInf,nu,J_M1,J_M2,FX,FY,FZ,MX,MY,MZ,CFX,CFY,CFZ,CMX,CMY,CMZ,CN,CT,CY,CL,CD,CYaw,CMroll,CMpitch,CMpitch25c,CMyaw,B1_zeroed,B2_zeroed,B3_zeroed,B4_zeroed,B5_zeroed,B6_zeroed,B1_zero,B2_zero,B3_zero,B4_zero,B5_zero,B6_zero,config,source_file,dR,dE,V_round,AoA_round,AoS_round,J,J_round,CT_one_prop_BEM,CFt_thrust_BEM,Tc_star_BEM,CFt_aero_BEM,CD_aero_BEM,CL_aero_BEM,CYaw_aero_BEM,CT_one_prop_EXP,CFt_thrust_EXP,Tc_star_EXP,CFt_aero_EXP,CD_aero_EXP,CL_aero_EXP,CYaw_aero_EXP,CT_propoff_inv,delta_CT,delta_T,CT_one_prop_delta,CT_both_prop_delta,propoff_match_found,CD_modeloff,CYaw_modeloff,CL_modeloff,CMroll_modeloff,CMpitch_modeloff,CMyaw_modeloff,modeloff_correction_found,CD_aero_EXP_uncorrected,CYaw_aero_EXP_uncorrected,CL_aero_EXP_uncorrected,CMroll_uncorrected,CMpitch_uncorrected,CMyaw_uncorrected,CMpitch25c_uncorrected,matched_fit_velocity,velocity_match_error,fit_found,fit_match_type,matched_fit_AoS,matched_fit_dR,matched_fit_source_row,CD0_fit,k_fit,esb,CL2_fit,CDi_fit,CDsep_fit,ewb,ess,e_total_blockage,V_FINAL,CL_aero_EXP_blockage_corr,CD_aero_EXP_blockage_corr,CYaw_FINAL,CMpitch_blockage_corr,CMroll_FINAL,CMyaw_FINAL,CFt_FINAL,CL_alpha_per_deg_tailoff,delta_alpha_sc_rad,delta_alpha_sc_deg,AoA_sc_corr,delta_CL_sc,delta_CMpitch_sc,CL_FINAL,CMpitch_blockage_corr_sc_corr,streamline_curvature_data_found,delta_alpha_dw_deg,delta_alpha_dw_rad,delta_CD_dw,AoA_FINAL,CD_FINAL,downwash_data_found,CLw_tailoff,delta_alpha_tail_rad,delta_alpha_tail_deg,delta_CMpitch_tail,TAILONLY_AoA_tail_corr,CMpitch_FINAL,tail_correction_data_found
4.0,17.0,20.0,16.0,2.496,0.0,413.22,101106.0,290.81,788.1,1844.2,1294.7,283.5,422.4,-1323.6,0.0,1.2111837665772662,968.376508682172,39.98822250188802,443397.0123409999,98.44,98.43,6.44,7.87,0.0,21.129,21.653,28.525,28.589,101106.0,1.4878860687823469e-05,1.9991104588813853,1.9993135585927413,7.352540167190499,13.14918597295706,107.13484671210308,-2.542902906018317,-2.537051679296379,8.644608059925003,0.0349618126538645,0.0625252451647622,0.5094332508597899,-0.0086579981384831,-0.0731232540013728,0.0294328974628212,0.5104725077494743,0.0127430081841154,-0.0625252451647622,0.5094332508597899,0.0349618126538645,-0.0625252451647622,0.0081079636878203,-0.07608984467534341,-0.07608984467534341,0.026445392807218002,800.3666666666667,1849.4333333333332,1299.8666666666668,285.2333333333333,401.5,-1326.6999999999998,-12.266666666666666,-5.233333333333333,-5.166666666666667,-1.7333333333333336,20.9,3.1,rudder_m20_elevator_0,raw_rudder_m20_elevator_0.txt,-20.0,0.0,40.0,2.5,0.0,1.9991104588813853,2.0,0.20842110580285864,0.039656619544316735,0.13280310448371035,0.05239962772843214,0.07458080854965712,0.5077062193337745,-0.0625252451647622,0.15696568541167058,0.029883708993121,0.10007533101350786,0.0426267171772364,0.05676716990705724,0.49532711031299254,-0.061044888021905094,,,,,,False,0.00805,-0.0014803571428571,0.0128047157622739,-0.0004333333333333,-0.0068874999999999,0.00335,True,0.06481716990705724,-0.0625252451647622,0.5081318260752664,0.007674630354487,-0.0829773446753433,0.029795392807218,-0.0829773446753433,40.0,0.0,True,exact_AoS_exact_dR,0.0,-20.0,328.0,0.04019709559015745,0.06095841114194795,0.007219591,0.24534894621101946,0.014956081936374998,0.0016139923805247904,0.001266135855970063,-0.0018493787887190881,0.006636348067250975,40.25359826500122,0.4888176540507534,0.056021150959280314,-0.06024265244800166,-0.07508989230931656,0.008001410999903947,0.02609785453557456,0.029382922294922998,0.0849543927173969,0.0003798401876512003,0.021763239641870987,2.5177632396418708,-0.001848882807338328,0.000462220701834582,0.4869687712434151,-0.07462767160748199,True,0.31264138635390964,0.0054566215698753934,0.0027362334857662174,2.8304046259957802,0.05875738444504653,True,0.5014888801603589,0.009544406815858462,0.5468945105486899,-0.08573118347361262,3.04289451054869,0.011103511866130636,True
1.0,17.0,17.0,7.0,2.496,4.0,413.81,101101.0,290.5,809.5,-428.2,696.7,860.7,460.6,-25.3,0.0,1.2124162911880931,969.769728920426,39.99663253237486,444308.8042373147,98.44,98.42,6.9,6.8,0.0,20.503,20.594,28.612,28.743,101101.0,1.4851449705370646e-05,1.9995308971718089,1.9999372233041337,7.603355027514802,-7.216187417281273,106.82648115503552,-5.022943558004886,-2.312526063937661,0.1588977406771972,0.0361025125137948,-0.0342641499169136,0.5072371813163812,-0.0170773952470912,-0.066556190140589,0.0005402329311643,0.5083281987643795,0.0139782638606351,0.0342641499169136,0.5072371813163812,0.0384047148818611,0.0316623002035607,-0.020599676921507,-0.072744290456031,-0.072744290456031,0.0065254273898312,827.2,-431.7,703.5,860.6,438.8,-26.9,-17.7,3.5,-6.8,0.1,21.8,1.6,rudder_m20_elevator_0,raw_rudder_m20_elevator_0.txt,-20.0,0.0,40.0,2.5,4.0,1.9995308971718089,2.0,0.20826936314176822,0.039611084044726005,0.1326506140349693,0.05358934790536111,0.07788181941340874,0.5055121328450046,0.02890179213890883,0.15679382918617701,0.02982589139801284,0.09988170996833619,0.04380415525864794,0.060679723950950434,0.4969335587050675,0.023464082227224514,,,,,,False,0.00745,0.0061196428571428,0.0090047157622739,-0.0061333333333333,-0.0039875,-0.00715,True,0.06812972395095043,0.029583725084367313,0.5059382744673414,-0.0267330102548403,-0.076731790456031,-0.0006245726101688,-0.076731790456031,40.0,0.0,True,exact_AoS_exact_dR,4.0,-20.0,346.0,0.0441704734172974,0.05868081153313677,0.007219591,0.24694296176728278,0.01449081339890052,0.0020184371347525144,0.0014234117819538921,-0.0018474778619482397,0.006795524920005653,40.26843064546492,0.4902479353445122,0.059863353688061234,0.023148402165927978,-0.07176560644666928,-0.020322533873238735,0.006437635875189389,0.0293169287854407,0.08379140479445407,0.00038266663869872226,0.021925183357894326,2.517925183357894,-0.0018371419139339513,0.00045928547848348783,0.48841079343057825,-0.07130632096818579,True,0.3149678004688115,0.005497225155945301,0.0027771064875283815,2.8328929838267056,0.06264046017558962,True,0.5052205384122537,0.009615428259928071,0.5509640392938784,-0.08636912279970838,3.0469640392938784,0.015062801831522588,True
2.0,17.0,18.0,4.0,2.496,8.0,413.45,101104.0,290.63,508.3,-2894.0,101.3,1653.4,181.6,1226.0,0.0,1.211909932667162,968.9196246045556,39.98744921210356,443867.2703991036,98.42,98.43,7.98,6.06,0.0,20.618,20.945,28.89,28.665,101104.0,1.4862809760720225e-05,1.9994780330453228,1.999274895990253,4.792262915720875,-31.173048377339043,112.0740194845113,-7.826694062111748,-3.01456195211257,-8.001160292735243,0.0227747524649654,-0.1481468093170123,0.5326206212810651,-0.0266331516102841,-0.0868374181123607,-0.0272268359339839,0.5331071373955024,-0.0004422913531882,0.1481468093170123,0.5326206212810651,0.0431711609895367,0.1435354218284363,-0.0473048344472705,-0.1144690496971241,-0.1144690496971241,-0.009629311195327901,521.1,-2897.3,110.3,1651.4,156.0,1220.2,-12.8,3.3,-9.0,2.0,25.6,5.8,rudder_m20_elevator_0,raw_rudder_m20_elevator_0.txt,-20.0,0.0,40.0,2.5,8.0,1.9994780330453228,2.0,0.20828844526085552,0.039616808075144824,0.13266978281482278,0.039174516721956626,0.08236520091703238,0.5308953235302214,0.1380270587416672,0.15681543765868972,0.029845282729524053,0.09994664815657192,0.029402991376335855,0.0698479517579797,0.5221161541842346,0.08106605915061366,,,,,,False,0.00285,0.0583196428571428,0.0092047157622739,-0.0198333333333333,0.0212125,-0.02055,True,0.0726979517579797,0.13938570200775646,0.5313208699465085,-0.0671381677806038,-0.0932565496971241,-0.0301793111953279,-0.0932565496971241,40.0,0.0,True,exact_AoS_exact_dR,8.0,-20.0,371.0,0.05594063441392008,0.0527568252102957,0.007219591,0.2726052784601355,0.014381789027125355,0.0,0.001467428236075295,-0.0018477168412507478,0.006839302394824547,40.260935469262826,0.5150469387952415,0.06890224224200306,0.07996846155996273,-0.11291919079849139,-0.04666434849224216,-0.009498934698945076,0.029333428979141738,0.08577161475725736,0.00039371647014572423,0.022558292064138473,2.5185582920641383,-0.001934861136506981,0.00048371528412674526,0.5131120776587346,-0.11243547551436464,True,0.3240627691816536,0.0056559623053502655,0.002939804804868758,2.842621061245792,0.07184204704687182,True,0.5198092201222739,0.009893082099636307,0.5668736043091603,-0.08886310621150398,3.0628736043091602,-0.023572369302860663,True
3.0,17.0,18.0,49.0,2.496,10.0,413.27,101103.0,290.71,330.1,-3931.4,-197.7,2031.0,31.8,1709.0,0.0,1.211564445727421,968.4945769444824,39.98437706931307,443611.97787620977,98.43,98.43,7.14,7.02,0.0,20.79,21.22,28.855,28.611,101103.0,1.4870220568739444e-05,1.999121296346392,1.999121296346392,3.065151877192533,-41.8584898958199,113.32130386928944,-8.123402393455388,-3.16332361165506,-11.18160035468108,0.014573222189432,-0.1990156110386959,0.5387845712871872,-0.0276549405316352,-0.0911626352509436,-0.0380661301607249,0.5389080657471974,-0.0089044783516518,0.1990156110386959,0.5387845712871873,0.0489105203826623,0.1934615032454396,-0.06307752683451259,-0.1122826411828681,-0.1122826411828681,-0.021527214299849797,333.1,-3942.1,-187.5,2029.8,4.100000000000001,1705.3,-3.0,10.7,-10.2,1.2,27.7,3.7,rudder_m20_elevator_0,raw_rudder_m20_elevator_0.txt,-20.0,0.0,40.0,2.5,10.0,1.999121296346392,2.0,0.20841719499802022,0.03965544547228053,0.13279917272116762,0.030750967120628733,0.08792645956911559,0.5370575908915871,0.18658194048918716,0.15696125554438112,0.029888289708868886,0.10009067103187218,0.020983811357217087,0.07206681451907426,0.5284782312518658,0.1263567373293982,,,,,,False,0.00625,0.0619196428571428,0.0090047157622739,-0.0189333333333333,0.0170125,-0.0201499999999999,True,0.07831681451907427,0.188276380186541,0.5374829470141397,-0.0820108601678459,-0.0952701411828681,-0.0416772142998497,-0.0952701411828681,40.0,0.0,True,exact_AoS_exact_dR,10.0,-20.0,389.0,0.05903268874274865,0.05113703453127525,0.007219591,0.2792892409071005,0.014282023556480051,0.0,0.0015485386467300733,-0.0018493297812776604,0.006918799865452413,40.26102097200044,0.5212405613237232,0.0710798376004107,0.12462624342462401,-0.1107448963005167,-0.062213660941625545,-0.02123239256006758,0.02937097463851235,0.08630268656025995,0.00039824623722809773,0.022817828600135766,2.518817828600136,-0.001969239909663252,0.000492309977415813,0.51927132141406,-0.11025258632310089,True,0.32779115998003333,0.005721035000583052,0.003007839733395452,2.846608988580169,0.07408767733380615,True,0.52578970321853,0.01000690349405642,0.5733955702094329,-0.08988548958603071,3.0693955702094327,-0.020367096737070184,True
1.0,12.0,48.0,53.0,-4.996,0.0,414.34,101170.0,290.45,-619.2,925.6,-346.6,-912.5,45.0,-701.9,0.0,1.2134526039979827,971.0212932130448,40.00533998428826,444844.7576862209,123.02,123.03,17.46,17.61,0.0,19.691,20.772,34.09,33.511,101170.0,1.48367858629074e-05,1.6003631373030802,1.6002330582055182,-5.863858106526021,6.0197828451074695,-75.94717092998704,-2.828415237606084,6.252893085297141,4.53287020069566,-0.0278070860169263,0.0285464989664102,-0.3601501735592838,-0.0096038721582797,0.1797308758151738,0.0153913418859964,-0.3563602706027733,-0.0590655490404786,-0.0285464989664102,-0.3601501735592838,-0.0278070860169263,-0.0285464989664102,0.0013883357312066999,0.18611838554908058,0.18611838554908058,0.0127685433165537,-638.1,914.8,-337.0,-902.8,7.600000000000001,-695.6999999999999,18.9,10.8,-9.6,-9.7,37.4,-6.2,rudder_m10_elevator_0,raw_rudder_m10_elevator_0.txt,-10.0,0.0,40.0,-5.0,0.0,1.6003631373030802,1.6,0.32707341345439134,0.09710816385562826,0.32519830935989225,0.03804261481514966,0.06893214258787729,-0.35169339306319103,-0.0285464989664102,0.31488316614895207,0.09346392045949554,0.31299437362200505,0.03439837141901694,0.05940174447310956,-0.3756607563543068,-0.0323964989664102,,,,,,False,0.0059,0.00385,0.02365,-0.0015999999999999,0.00145,0.0026999999999999,True,0.06530174447310956,-0.0285464989664102,-0.3520107563543068,-0.0002116642687932,0.1875683855490806,0.0154685433165536,0.1875683855490806,40.0,0.0,True,exact_AoS_exact_dR,0.0,-10.0,329.0,0.03769917476265525,0.06134922519473465,0.007219591,0.14112100386468984,0.008657664245801876,0.013044905464652428,0.002699882619934935,-0.00396571097909823,0.0059537626408367045,40.243522282920694,-0.37122720008597543,0.058700683816376546,-0.03201415479381568,0.18392181238846922,0.0013719505632605585,0.012617848695673006,0.0916369236629318,0.0849543927173969,-0.0001513415259752923,-0.00867123070345377,-5.004671230703455,0.0007366591385243612,-0.0001841647846310903,-0.37049054094745104,0.18373764760383812,True,-0.12456718912870962,-0.0021741075902504694,0.0004343777256542913,-5.1292384198321646,0.05913506154203084,True,-0.19981059100782428,-0.003802823237248988,-0.217901771494367,0.03415828169945698,-5.213901771494368,0.14957936590438115,True
8.0,12.0,53.0,8.0,-4.995,0.0,413.7,101161.0,290.67999999999995,1533.2,1283.8,-582.9,-1291.7,1682.5,-929.6,0.0,1.2123845995887763,969.5099735513668,39.991798252437086,444030.19039940194,82.02,82.03,1.03,0.87,0.0,23.786,23.813,31.732,30.434,101161.0,1.485897230570449e-05,2.39953707351704,2.399244554063971,13.93759241652099,8.934983625828313,-73.44884085980564,-2.124256591667887,6.653740646990737,6.014379200644172,0.0661966878525451,0.0424367641390819,-0.3488457580209146,-0.0072241482378736,0.1915508258418861,0.0204536340264445,-0.3532846132175095,0.0355717083591513,-0.0424367641390819,-0.3488457580209146,0.0661966878525451,-0.0424367641390819,0.008099664366782,0.1714430928783923,0.1714430928783923,0.0172635314995845,1514.3,1273.0,-573.3,-1282.0,1645.1,-923.4,18.9,10.8,-9.6,-9.7,37.4,-6.2,rudder_m10_elevator_0,raw_rudder_m10_elevator_0.txt,-10.0,0.0,40.0,-5.0,0.0,2.39953707351704,2.4,0.04553364001693702,0.0060134682012961006,0.020138056521780502,0.0415851765604474,0.0721873187060853,-0.3483221725125102,-0.0424367641390819,-0.016934651672206577,-0.002237417518010163,-0.007492721160610642,0.03333429084114114,0.05806776737488224,-0.3726905672972699,-0.0462867641390819,,,,,,False,0.0059,0.00385,0.02365,-0.0015999999999999,0.00145,0.0026999999999999,True,0.06396776737488225,-0.0424367641390819,-0.3490405672972699,0.0064996643667821,0.1728930928783923,0.0199635314995844,0.1728930928783923,40.0,0.0,True,exact_AoS_exact_dR,0.0,-10.0,329.0,0.03769917476265525,0.06134922519473465,0.007219591,0.13889825895236085,0.008521300567624955,0.011847292044602034,0.0025428043380297744,-0.0003093215554926526,0.009453073782537121,40.369843672013715,-0.3657430914165078,0.05698530259394532,-0.04542391381317522,0.16824715271458926,0.007948675241303002,0.016941715013645716,-0.0021943638899398427,0.0849543927173969,-0.0001513415259752923,-0.00867123070345377,-5.003671230703453,0.0007366591385243612,-0.0001841647846310903,-0.3650064322779834,0.16806298792995816,True,-0.12456718912870962,-0.0021741075902504694,0.0004343777256542913,-5.128238419832163,0.05741968031959961,True,-0.19981059100782428,-0.003802823237248988,-0.217901771494367,0.03415828169945698,-5.2129017714943675,0.13390470623050119,True
14.0,12.0,58.0,17.0,2.496,0.0,103.96,101160.0,290.57,268.1,288.8,271.3,103.3,158.7,-204.0,0.0,1.2128315782593753,242.52716310066285,19.99838583806929,222189.75821228168,49.21,49.21,0.66,0.72,0.0,22.505,22.863,33.762,32.572,101160.0,1.4849138116813831e-05,1.999944180859678,1.999944180859678,2.5767467469310907,2.137724556013921,26.801435904178973,-0.5173985545754108,-0.9250226123674568,1.3495768238307124,0.0489228930172394,0.0405874849279441,0.5088601675776615,-0.0070339095593826,-0.1064541027068845,0.0183471740272914,0.5105079682031981,0.0267158007438398,-0.0405874849279441,0.5088601675776616,0.0489228930172394,-0.0405874849279441,0.0040359341099927,-0.11335566532207911,-0.11335566532207911,0.015171638134411398,280.3666666666667,294.03333333333336,276.4666666666667,105.03333333333332,137.79999999999998,-207.1,-12.266666666666666,-5.233333333333333,-5.166666666666667,-1.7333333333333336,20.9,3.1,rudder_m10_elevator_0,raw_rudder_m10_elevator_0.txt,-10.0,0.0,20.0,2.5,0.0,1.999944180859678,2.0,0.20812015586843777,0.0395663484212079,0.13250080223173227,0.06628214916504771,0.08845170343335544,0.5071370673266085,-0.0405874849279441,0.12104498239692771,0.023015940448555556,0.07707637159452296,0.04973174119239536,0.06386699742268695,0.4950531158822625,-0.039107127785086994,,,,,,False,0.00805,-0.0014803571428571,0.0128047157622739,-0.0004333333333333,-0.0068874999999999,0.00335,True,0.07191699742268695,-0.0405874849279441,0.5078578316445364,0.0036026007766594,-0.120243165322079,0.0185216381344114,-0.120243165322079,20.0,0.0,True,exact_AoS_flipped_dR,0.0,10.0,67.0,0.04373272517726485,0.06222869757779773,0.007219591,0.2450775875447368,0.015250859078417674,0.004883413167004427,0.0017876974164092673,-0.0018456099067305628,0.007161678509678704,20.141607848154052,0.4880377457313953,0.06296194175700119,-0.03855294285391913,-0.11174930849809474,0.0039787411123571835,0.01495664169485112,0.02260685342836648,0.09027235048587415,0.00038525357046954964,0.02207340363025104,2.5180734036302512,-0.0019926180289261885,0.0004981545072315471,0.4860451277024691,-0.11125115399086319,True,0.3170970694654274,0.0055343879105968835,0.0028147814129505216,2.835170473095679,0.06577672316995171,True,0.5086359682666501,0.009680431200713048,0.5546887078008577,-0.08695300183486246,3.0506887078008575,-0.02429815215600073,True
2.0,12.0,49.0,35.0,2.496,0.0,413.86,101166.0,290.54,-771.0,962.8,1381.8,789.4,-903.6,-719.9,0.0,1.213028753275484,969.8877999129204,39.98896818151591,444400.6220198101,123.03,123.03,17.58,17.93,0.0,21.089,22.581,34.074,33.579,101166.0,1.4845535922040316e-05,1.5995781781312823,1.5995781781312823,-6.990728382745571,6.523632102842962,110.93256468921332,-2.7001902292649187,-4.624381133196843,4.712499290059566,-0.0331895766717983,0.0309719640074008,0.5266697058691712,-0.0091791997468383,-0.1330768662458155,0.0160199721565789,0.5247246414124537,-0.0560943649090021,-0.0309719640074008,0.5266697058691712,-0.0331895766717983,-0.0309719640074008,-0.0007135638442168002,-0.11683478554393521,-0.11683478554393521,0.0126351909171814,-758.7333333333333,968.0333333333332,1386.9666666666667,791.1333333333333,-924.5,-723.0,-12.266666666666666,-5.233333333333333,-5.166666666666667,-1.7333333333333336,20.9,3.1,rudder_m10_elevator_0,raw_rudder_m10_elevator_0.txt,-10.0,0.0,40.0,2.5,0.0,1.5995781781312823,1.6,0.3272497892692787,0.09725591222074038,0.32569309287383647,0.04116154731173829,0.06397406539832587,0.5224342458519879,-0.0309719640074008,0.3151907705019592,0.09372376231149153,0.31386453867934944,0.03762939740248943,0.05239526656559959,0.5097833539485799,-0.0294916068645437,,,,,,False,0.00805,-0.0014803571428571,0.0128047157622739,-0.0004333333333333,-0.0068874999999999,0.00335,True,0.06044526656559959,-0.0309719640074008,0.5225880697108538,-0.0011468971775501,-0.1237222855439351,0.0159851909171814,-0.1237222855439351,40.0,0.0,True,exact_AoS_exact_dR,0.0,-10.0,329.0,0.03769917476265525,0.06134922519473465,0.007219591,0.2598790679630631,0.01594337946386371,0.0,0.0009889203814551597,-0.003970554557771263,0.0042379568236838965,40.15843970209284,0.5054897874236227,0.05195397604316532,-0.029243218652139313,-0.11585076376237546,-0.0007075539700001971,0.012528773098046559,0.09220383715497545,0.0849543927173969,0.0003798401876512003,0.021763239641870987,2.5177632396418708,-0.001848882807338328,0.000462220701834582,0.5036409046162844,-0.11538854306054089,True,0.31264138635390964,0.0054566215698753934,0.0027362334857662174,2.8304046259957802,0.054690209528931534,True,0.5014888801603589,0.009544406815858462,0.5468945105486899,-0.08573118347361262,3.04289451054869,-0.029657359586928264,True
6.0,12.0,51.0,49.0,2.5,0.0,413.69,101165.0,290.56,1463.3,1116.6,1019.6,387.3,894.7,-788.7,0.0,1.2129332677003728,969.4863594824362,39.98226519445301,444267.4437195616,82.02,82.02,0.56,1.3,0.0,24.587,25.399,31.31,30.092,101165.0,1.4847497008520386e-05,2.398965083082591,2.398965083082591,13.564576907358653,8.13735951383032,108.25829926690729,-1.7090309731480768,-2.950725960654127,5.158883014585127,0.064426617431768,0.0386493844874657,0.5141860360494673,-0.0058121951293063,-0.084948871870768,0.0175446994239085,0.51650689445984,0.0419368176834542,-0.0386493844874657,0.5141860360494674,0.064426617431768,-0.0386493844874657,0.0047444566820065,-0.0962202052320491,-0.0962202052320491,0.014399641709142501,1475.5666666666666,1121.8333333333333,1024.7666666666669,389.03333333333336,873.8000000000001,-791.8000000000001,-12.266666666666666,-5.233333333333333,-5.166666666666667,-1.7333333333333336,20.9,3.1,rudder_m10_elevator_0,raw_rudder_m10_elevator_0.txt,-10.0,0.0,40.0,2.5,0.0,2.398965083082591,2.4,0.04578788165079259,0.006049928966354256,0.020260157266806515,0.047986746649808454,0.07047078820630079,0.5139221418543513,-0.0386493844874657,-0.016671565632589203,-0.002204759904186976,-0.0073833565059682384,0.03973205777926722,0.054173955970475016,0.5014774905635018,-0.0371690273446086,,,,,,False,0.00805,-0.0014803571428571,0.0128047157622739,-0.0004333333333333,-0.0068874999999999,0.00335,True,0.06222395597047502,-0.0386493844874657,0.5142822063257757,0.0043111233486732,-0.103107705232049,0.0177496417091425,-0.103107705232049,40.0,0.0,True,exact_AoS_exact_dR,0.0,-10.0,329.0,0.03769917476265525,0.06134922519473465,0.007219591,0.251479673541867,0.015428083124018353,0.001046698083801409,0.0011262046953450545,-0.0003111605092197875,0.008034635186125268,40.30350810920535,0.49351520229223206,0.053313800405471894,-0.03657887022679275,-0.09469245368587817,0.004669125819697529,0.014171009117553281,-0.0021684145789934695,0.0849543927173969,0.0003798401876512003,0.021763239641870987,2.5217632396418708,-0.001848882807338328,0.000462220701834582,0.49166631948489375,-0.0942302329840436,True,0.31264138635390964,0.0054566215698753934,0.0027362334857662174,2.8344046259957802,0.05605003389123811,True,0.5014888801603589,0.009544406815858462,0.5468945105486899,-0.08573118347361262,3.04689451054869,-0.00849904951043097,True
9.0,12.0,53.0,59.0,2.496,0.0,413.54,101159.0,290.77,1865.9,1091.5,919.7,346.8,1221.5,-810.7,0.0,1.211985376693565,969.1321495590578,39.99058970785869,443764.0522338207,70.31,70.3,-1.01,-1.26,0.0,23.067,22.935,28.808,27.539,101159.0,1.4867434357483653e-05,2.7990909288574315,2.7994890925741966,17.268846134261,7.467939246343539,107.68374833889236,-1.4638838402521142,-2.612897888347991,5.299999175943435,0.0820504751084512,0.0354828549909804,0.5116440695557287,-0.0049803007687443,-0.075250584589141,0.0180312052394468,0.514731923286115,0.0596907155866557,-0.0354828549909804,0.5116440695557287,0.0820504751084512,-0.0354828549909804,0.0046639647942947,-0.0914892545496585,-0.0914892545496585,0.014882745774634198,1878.1666666666667,1096.7333333333331,924.8666666666668,348.53333333333336,1200.6,-813.8000000000001,-12.266666666666666,-5.233333333333333,-5.166666666666667,-1.7333333333333336,20.9,3.1,rudder_m10_elevator_0,raw_rudder_m10_elevator_0.txt,-10.0,0.0,40.0,2.5,0.0,2.7990909288574315,2.8,-0.1411306679761846,-0.013697299786848601,-0.04586986877953013,0.0459934157998071,0.06836617043815135,0.5122405820377555,-0.0354828549909804,-0.20070877635073092,-0.019488763848507125,-0.06526447214542179,0.04020195173814858,0.0545302009448852,0.4996880824535422,-0.0340024978481233,,,,,,False,0.00805,-0.0014803571428571,0.0128047157622739,-0.0004333333333333,-0.0068874999999999,0.00335,True,0.0625802009448852,-0.0354828549909804,0.5124927982158161,0.0042306314609614,-0.0983767545496584,0.0182327457746342,-0.0983767545496584,40.0,0.0,True,exact_AoS_exact_dR,0.0,-10.0,329.0,0.03769917476265525,0.06134922519473465,0.007219591,0.24968817974609797,0.015318176367706748,0.0015128498145231973,0.001187344886113637,0.0007540311439920666,0.009160967030105703,40.35694218168686,0.4906571175272579,0.05354466546895701,-0.0333879637492417,-0.08983575053788996,0.004579672004544974,0.014613766865956656,-0.01916516863223026,0.0849543927173969,0.0003798401876512003,0.021763239641870987,2.5177632396418708,-0.001848882807338328,0.000462220701834582,0.4888082347199196,-0.08937352983605538,True,0.31264138635390964,0.0054566215698753934,0.0027362334857662174,2.8304046259957802,0.05628089895472323,True,0.5014888801603589,0.009544406815858462,0.5468945105486899,-0.08573118347361262,3.04289451054869,-0.003642346362442761,True
10.0,12.0,54.0,31.0,2.496,0.0,413.52,101160.0,290.76,666.6,1017.6,1128.5,547.2,255.6,-757.8,0.0,1.2120390414597149,969.0849217266068,39.98872997496133,443774.89473037096,98.43,98.43,7.41,6.7,0.0,22.707,22.598,30.171,28.596,101160.0,1.4866379727834744e-05,1.9993389310082328,1.9993389310082328,6.235263793043559,6.93631427386736,109.03741205687894,-2.125878060142752,-3.5196654680835637,4.957148835961805,0.0296274160721898,0.0329585204123379,0.518101059019845,-0.0072328335232335,-0.1013701273480528,0.0168656109457166,0.5188997813973568,0.0070361926050199,-0.0329585204123379,0.518101059019845,0.0296274160721898,-0.0329585204123379,0.0017535141334841,-0.1028332025113387,-0.1028332025113387,0.013589175144262498,678.8666666666667,1022.8333333333334,1133.6666666666667,548.9333333333334,234.7,-760.9,-12.266666666666666,-5.233333333333333,-5.166666666666667,-1.7333333333333336,20.9,3.1,rudder_m10_elevator_0,raw_rudder_m10_elevator_0.txt,-10.0,0.0,40.0,2.5,0.0,1.9993389310082328,2.0,0.20833865265074977,0.03963187172547588,0.13272022835334346,0.04666806433049578,0.0692216876282794,0.5163751052524442,-0.0329585204123379,0.15687229630262692,0.029858345986587945,0.09999039472682145,0.036894538591607844,0.05140743438163782,0.5039960230228652,-0.031478163269480795,,,,,,False,0.00805,-0.0014803571428571,0.0128047157622739,-0.0004333333333333,-0.0068874999999999,0.00335,True,0.05945743438163782,-0.0329585204123379,0.5168007387851391,0.0013201808001508,-0.1097207025113386,0.0169391751442625,-0.1097207025113386,40.0,0.0,True,exact_AoS_exact_dR,0.0,-10.0,329.0,0.03769917476265525,0.06134922519473465,0.007219591,0.25401199122286444,0.015583438851694473,0.0,0.0009889203814551597,-0.001848345718797009,0.00636016566265815,40.24306492224139,0.4976456745429245,0.05075970085226378,-0.031081538500359152,-0.10153750444741633,0.0017314198603084166,0.013417951575466401,0.029374130990543004,0.0849543927173969,0.0003798401876512003,0.021763239641870987,2.5177632396418708,-0.001848882807338328,0.000462220701834582,0.4957967917355862,-0.10107528374558175,True,0.31264138635390964,0.0054566215698753934,0.0027362334857662174,2.8304046259957802,0.053495934338029995,True,0.5014888801603589,0.009544406815858462,0.5468945105486899,-0.08573118347361262,3.04289451054869,-0.015344100271969127,True
3.0,12.0,50.0,6.0,5.0,0.0,413.63,101164.0,290.54,-491.3,1047.4,1891.8,1217.9,-920.9,-726.5,0.0,1.2130047723183783,969.3446752632036,39.97816513643388,444271.7837110666,123.03,123.04,18.03,17.84,0.0,22.172,23.819,34.14,33.543,101164.0,1.484582941648344e-05,1.5991460510733362,1.5990160814658043,-4.364830890246677,7.858146113947765,168.10040129620748,-2.60576746799696,-8.232339981058223,4.798590615121405,-0.0207343284701183,0.0373286816350332,0.7985301204274832,-0.0088631762239995,-0.2370366549851055,0.0163217765096072,0.7936843564382348,-0.0902519138426588,-0.0373286816350332,0.7985301204274833,-0.0207343284701183,-0.0373286816350332,0.0008291776632762,-0.22654262295989952,-0.22654262295989952,0.0131041734917628,-472.7,1061.8000000000002,1906.8,1228.9,-990.0,-735.9,-18.6,-14.4,-15.0,-11.0,69.1,9.4,rudder_m10_elevator_0,raw_rudder_m10_elevator_0.txt,-10.0,0.0,40.0,5.0,0.0,1.5991460510733362,1.6,0.327346776933521,0.09733732052066292,0.3259657150762501,0.007085406678004114,0.07623259415902296,0.7900466139604381,-0.0373286816350332,0.31536010945467435,0.09387551723117711,0.31437273944599314,0.003623603388518304,0.06498396407620063,0.7834983299973796,-0.0355786816350332,,,,,,False,0.0078,-0.00175,0.0068499999999999,-0.0006,-0.00465,0.0033,True,0.07278396407620064,-0.0373286816350332,0.7903483299973795,0.0002291776632762,-0.2311926229598995,0.0164041734917628,-0.2311926229598995,40.0,0.0,True,exact_AoS_exact_dR,0.0,-10.0,329.0,0.03769917476265525,0.06134922519473465,0.007219591,0.6138696331086827,0.03766042636179372,0.0,0.0009889203814551597,-0.003973222247451507,0.004235289134003652,40.14748422483362,0.7769035716440391,0.06443698966219501,-0.035279213469077746,-0.2246357984039908,0.0008221984188899198,0.012993874778555951,0.09235313105395117,0.0849543927173969,0.0005495194138115596,0.031485143171905365,5.031485143171905,-0.0026748012177895157,0.0006687003044473789,0.7742287704262496,-0.22396709809954343,True,0.45230209163701396,0.007894160712723003,0.005726871124076804,5.483787234808919,0.0701638607862718,True,0.7255100550650359,0.01380800928691049,0.7911989321399711,-0.12402834460226188,5.791198932139971,-0.09993875349728155,True
7.0,12.0,52.0,23.0,5.0,0.0,414.28,101164.0,290.61,1713.7,1084.2,1474.8,845.3,887.8,-748.0,0.0,1.2127125926478155,970.879605384417,40.01462427267264,444486.8103838272,82.03,82.03,0.92,1.24,0.0,24.354,24.736,31.294,30.089,101164.0,1.4852180033961034e-05,2.4006139649715625,2.4006139649715625,15.921340567297715,8.188957535811644,164.133727791848,-1.6021323411107302,-6.145487512571767,4.93542251791976,0.0755118369157709,0.0388386407124846,0.7784545046949632,-0.005440827596385,-0.176669428196451,0.0167606522546704,0.7820735405153924,0.0073777110267096,-0.0388386407124846,0.7784545046949634,0.0755118369157709,-0.0388386407124846,0.0046242196426752,-0.1933026635736599,-0.1933026635736599,0.0138767488216762,1732.3,1098.6,1489.8,856.3,818.6999999999999,-757.4,-18.6,-14.4,-15.0,-11.0,69.1,9.4,rudder_m10_elevator_0,raw_rudder_m10_elevator_0.txt,-10.0,0.0,40.0,5.0,0.0,2.4006139649715625,2.4,0.045054844546375844,0.005944898127144525,0.01990842729905185,0.013322609153854125,0.08143411291072779,0.7779363726831329,-0.0388386407124846,-0.01742996608798178,-0.002298168985571231,-0.007696167233088787,0.005079542041138369,0.06542241315702592,0.7718048033198605,-0.0370886407124846,,,,,,False,0.0078,-0.00175,0.0068499999999999,-0.0006,-0.00465,0.0033,True,0.07322241315702592,-0.0388386407124846,0.7786548033198604,0.0040242196426752,-0.1979526635736599,0.0171767488216762,-0.1979526635736599,40.0,0.0,True,exact_AoS_exact_dR,0.0,-10.0,329.0,0.03769917476265525,0.06134922519473465,0.007219591,0.5956826544276085,0.03654466931107665,0.0,0.0009889203814551597,-0.000305861962178165,0.007902649419276995,40.33084581994367,0.759749290971364,0.06440052173280775,-0.03650931992544746,-0.19028329567430813,0.004551989803259019,0.013659995419705768,-0.002260899409863359,0.0849543927173969,0.0005495194138115596,0.031485143171905365,5.031485143171905,-0.0026748012177895157,0.0006687003044473789,0.7570744897535745,-0.18961459536986075,True,0.45230209163701396,0.007894160712723003,0.005726871124076804,5.483787234808919,0.07012739285688455,True,0.7255100550650359,0.01380800928691049,0.7911989321399711,-0.12402834460226188,5.791198932139971,-0.06558625076759887,True
4.0,12.0,50.0,33.0,7.0,0.0,414.06,101163.0,290.53,-141.4,1127.5,2249.5,1517.9,-865.5,-747.6,0.0,1.213034532873517,970.3600861966114,39.998608010003394,444521.7309905815,123.03,123.02,17.53,17.67,0.0,23.143,24.81,33.986,33.596,101163.0,1.4845069010817224e-05,1.5999637759596514,1.600093833167907,-1.046251206337523,8.943031340698054,209.65657465396708,-2.436251313562471,-11.60317390775628,4.965696098499293,-0.0049648236664727,0.04243777534626,0.9948929256840732,-0.0082779179511931,-0.333744654313394,0.0168724895683398,0.9868720848825472,-0.1261747642352794,-0.04243777534626,0.994892925684073,-0.0049648236664727,-0.04243777534626,0.0009996010509159999,-0.3302953040258658,-0.3302953040258658,0.0135956053327109,-111.55,1149.55,2273.85,1535.2,-980.85,-761.35,-29.85,-22.05,-24.35,-17.3,115.35,13.75,rudder_m10_elevator_0,raw_rudder_m10_elevator_0.txt,-10.0,0.0,40.0,7.0,0.0,1.5999637759596514,1.6,0.3271631795023171,0.0971833124263933,0.32544996882077903,-0.0289914518088861,0.09149409908610025,0.9830492592087312,-0.04243777534626,0.31503966510084036,0.09358855497717464,0.31341175289093437,-0.032586209258104765,0.08192613641379429,0.9765373499387682,-0.037987775346259994,,,,,,False,0.006,-0.00445,0.00695,0.0006,-0.0020499999999999,0.0036,True,0.08792613641379429,-0.04243777534626,0.9834873499387682,0.001599601050916,-0.3323453040258657,0.0171956053327109,-0.3323453040258657,40.0,0.0,True,exact_AoS_exact_dR,0.0,-10.0,329.0,0.03769917476265525,0.06134922519473465,0.007219591,0.9536251958254321,0.05850416689006737,0.0,0.0009889203814551597,-0.003968174864483798,0.0042403365169713615,40.16821556817624,0.9683080354758837,0.08123574199178825,-0.03766765103243894,-0.32751189392627944,0.0009911773778368972,0.013481034690222764,0.09207082248795771,0.0849543927173969,0.0006296466954220215,0.03607609823204105,7.036076098232041,-0.0030648230169162028,0.0007662057542290507,0.9652432124589675,-0.3267456881720504,True,0.5182537871707916,0.009045234947060263,0.007518742068985412,7.554329885402832,0.08875448406077366,True,0.8312991264468756,0.015821401754590538,0.9065663205380378,-0.1421133364075428,7.906566320538038,-0.1846323517645076,True
5.0,12.0,51.0,18.0,7.0,0.0,413.96,101166.0,290.53,2015.5,1043.1,1781.3,1170.6,937.9,-713.9,0.0,1.2130705055473072,970.1239425920228,39.99314775350808,444474.2293538968,82.02,82.03,1.08,1.11,0.0,24.435,25.753,31.534,30.336,101166.0,1.4844628791701782e-05,2.3996180445659068,2.3993255152419315,18.797838346099773,8.021141840044894,203.97392290823905,-1.5138079582111554,-9.123164580056397,4.741668226266762,0.0892239546702947,0.0380723561275151,0.9681623874195604,-0.0051448831613968,-0.2624754733317163,0.0161152072704637,0.9718195165688388,-0.029430421622161,-0.0380723561275151,0.9681623874195604,0.0892239546702947,-0.0380723561275151,0.0029803370686450003,-0.28557350979984664,-0.28557350979984664,0.0130758397791561,2045.35,1065.15,1805.65,1187.9,822.55,-727.65,-29.85,-22.05,-24.35,-17.3,115.35,13.75,rudder_m10_elevator_0,raw_rudder_m10_elevator_0.txt,-10.0,0.0,40.0,7.0,0.0,2.3996180445659068,2.4,0.04549764558680011,0.006008309042140326,0.02012077939729825,-0.023422112580020676,0.0951874786879429,0.9674301587416194,-0.0380723561275151,-0.016971894170134935,-0.0022420353814888295,-0.007508185580248416,-0.03167245700364983,0.08099863108055434,0.9614856227993934,-0.033622356127515095,,,,,,False,0.006,-0.00445,0.00695,0.0006,-0.0020499999999999,0.0036,True,0.08699863108055435,-0.0380723561275151,0.9684356227993934,0.003580337068645,-0.2876235097998465,0.0166758397791561,-0.2876235097998465,40.0,0.0,True,exact_AoS_exact_dR,0.0,-10.0,329.0,0.03769917476265525,0.06134922519473465,0.007219591,0.9244546028499374,0.0567145736125498,0.0,0.0009889203814551597,-0.0003090613109942745,0.007899450070460884,40.30907162734748,0.9464733240894155,0.07973394691258912,-0.03309738847168066,-0.28111466535005647,0.0029338031327545686,0.012871678210856228,-0.0022056761285728145,0.0849543927173969,0.0006296466954220215,0.03607609823204105,7.036076098232041,-0.0030648230169162028,0.0007662057542290507,0.9434085010724993,-0.28034845959582744,True,0.5182537871707916,0.009045234947060263,0.007518742068985412,7.554329885402832,0.08725268898157452,True,0.8312991264468756,0.015821401754590538,0.9065663205380378,-0.1421133364075428,7.906566320538038,-0.13823512318828463,True
16.0,12.0,59.0,28.0,2.496,4.0,104.27,101161.0,290.38,251.5,-323.8,109.2,268.3,155.2,140.9,0.0,1.2136371492818565,243.25031736688445,20.02153057898999,222707.5819986702,49.21,49.21,0.53,0.55,0.0,22.222,22.274,33.817,32.539,101161.0,1.4831757361445155e-05,2.0022587771624334,2.0022587771624334,2.475133974909163,-3.503507577049044,26.876405087964507,-1.2189768256855698,-0.8734758533057256,-0.9127058359163172,0.0468539356873264,-0.0663209023669683,0.5087665428471353,-0.0165224326108418,-0.1002231224954376,-0.0123711299096832,0.5103243299497895,0.0246528836308535,0.0663209023669683,0.5087665428471353,0.0513661141395108,0.0628909826474973,-0.0285096743174806,-0.1094415433458905,-0.1094415433458905,-0.0067430012254304,269.2,-327.3,116.0,268.2,133.39999999999998,139.3,-17.7,3.5,-6.8,0.1,21.8,1.6,rudder_m10_elevator_0,raw_rudder_m10_elevator_0.txt,-10.0,0.0,20.0,2.5,4.0,2.0022587771624334,2.0,0.2072836633398236,0.039316263832649384,0.1316633125484024,0.06396914746350288,0.0905493956512941,0.5070543336900173,0.06015102068989324,0.1203008966952508,0.022768869694535954,0.07624897471758375,0.04742175332538945,0.06660797099405857,0.49877025099426053,0.055184570583437516,,,,,,False,0.00745,0.0061196428571428,0.0090047157622739,-0.0061333333333333,-0.0039875,-0.00715,True,0.07405797099405857,0.06130421344058032,0.5077749667565344,-0.0346430076508139,-0.1134290433458905,-0.0138930012254304,-0.1134290433458905,20.0,0.0,True,exact_AoS_flipped_dR,4.0,10.0,84.0,0.049698849396538625,0.06067723443210956,0.007219591,0.24877176327687764,0.015094782600440369,0.0018143389970795808,0.001541662106250799,-0.0018351598368398538,0.006926093269410946,20.160201567176436,0.4919323144392575,0.0656948028995162,0.054428012645764974,-0.1079411444580478,-0.028118818319557468,-0.00665055743096213,0.02237508463347882,0.08926246270895928,0.0003858107175388829,0.022105325805891918,2.518105325805892,-0.0019731758204178224,0.0004932939551044556,0.48995913861883966,-0.10744785050294334,True,0.3175556497784703,0.005542391646944308,0.0028229286765782883,2.835660975584362,0.06851773157609448,True,0.5093715488317617,0.009694430873361859,0.5554908890436345,-0.08707875176648015,3.0514908890436345,-0.020369098736463184,True
11.0,12.0,55.0,43.0,2.496,3.995,413.52,101162.0,290.77,672.2,-1333.6,511.3,1154.4,265.1,596.1,0.0,1.212021319675703,969.0849217266068,39.98902232503535,443759.81931502215,98.43,98.44,7.72,6.66,0.0,22.373,22.495,30.201,28.654,101162.0,1.4866993457708316e-05,1.9993535477986348,1.9991504440249863,6.340779573675689,-14.00086109713548,108.68821264708312,-4.408266726533726,-3.5150867360559093,-3.8941736768773074,0.0301287837831209,-0.0665263493032253,0.5164418066530524,-0.0149981600341117,-0.1012382549718441,-0.0132490712630621,0.517263937606016,0.0076093444946642,0.0665263493032253,0.5164418066530524,0.0346904270152093,0.0642656443005688,-0.027006464733616,-0.1057426421126703,-0.1057426421126703,-0.007556249899788,689.9000000000001,-1337.1,518.1,1154.3000000000002,243.3,594.5,-17.7,3.5,-6.8,0.1,21.8,1.6,rudder_m10_elevator_0,raw_rudder_m10_elevator_0.txt,-10.0,0.0,40.0,2.5,4.0,1.9993535477986348,2.0,0.20833337712414576,0.03963028871065675,0.13271492711272231,0.04723963320532095,0.07418691212149739,0.514715921825378,0.061507244565148514,0.15686632161743638,0.029856335686928564,0.09998366258377003,0.03746568018159276,0.05699595886098194,0.5061368582039001,0.05606790130489996,,,,,,False,0.00745,0.0061196428571428,0.0090047157622739,-0.0061333333333333,-0.0039875,-0.00715,True,0.06444595886098194,0.062187544162042765,0.515141573966174,-0.0331397980669493,-0.1097301421126703,-0.014706249899788,-0.1097301421126703,40.0,0.0,True,exact_AoS_exact_dR,4.0,-10.0,347.0,0.0412956424338357,0.05945782119361942,0.007219591,0.2561745192325149,0.01523157875888829,0.00046873766825795103,0.0011447418652605374,-0.001848279633285332,0.0065160532319752055,40.24959292319993,0.4996047433065575,0.05626037885741271,0.05534429865190185,-0.1043779458321432,-0.02665792396296945,-0.007458730243318792,0.029363076297299857,0.08379140479445407,0.00038266663869872226,0.021925183357894326,2.517925183357894,-0.0018371419139339513,0.00045928547848348783,0.49776760139262355,-0.10391866035365971,True,0.3149678004688115,0.005497225155945301,0.0027771064875283815,2.8328929838267056,0.05903748534494109,True,0.5052205384122537,0.009615428259928071,0.5509640392938784,-0.08636912279970838,3.0469640392938784,-0.017549537553951333,True
15.0,12.0,59.0,1.0,2.496,8.0,103.89,101163.0,290.42,170.3,-953.6,-43.8,475.5,76.0,466.9,0.0,1.2134939840084806,242.363871432735,19.986195193269104,222264.5655347002,49.21,49.21,0.94,0.89,0.0,22.399,22.546,33.945,32.565,101163.0,1.4835091647499656e-05,1.9987250520096569,1.9987250520096569,1.684274144551488,-9.579769714061449,28.199184847037422,-1.8496369835160125,-1.114657255373969,-3.016480855092828,0.031999683419864,-0.182006948854992,0.5357589741091229,-0.0251623138482347,-0.1283641966584538,-0.0410359647160353,0.5366442551834179,0.0086372134433541,0.182006948854992,0.5357589741091229,0.0570187361689597,0.1757821745688958,-0.0547685360276957,-0.1585959024153051,-0.1585959024153051,-0.023776903823690604,183.1,-956.9,-34.8,473.5,50.4,461.1,-12.8,3.3,-9.0,2.0,25.6,5.8,rudder_m10_elevator_0,raw_rudder_m10_elevator_0.txt,-10.0,0.0,20.0,2.5,8.0,1.9987250520096569,2.0,0.2085601628632445,0.03969838351754042,0.13294296474823647,0.04833559696089452,0.09629348101191151,0.5340301237770863,0.17026246914594392,0.12141077242693828,0.023141868957515608,0.07749808421463701,0.031779082400869706,0.07706364820218808,0.5255464382724253,0.11424486166416525,,,,,,False,0.00285,0.0583196428571428,0.0092047157622739,-0.0198333333333333,0.0212125,-0.02055,True,0.07991364820218809,0.17256450452130806,0.5347511540346992,-0.074601869361029,-0.1373834024153051,-0.0443269038236906,-0.1373834024153051,20.0,0.0,True,exact_AoS_flipped_dR,8.0,10.0,108.0,0.06289204795950465,0.0605110845783555,0.007219591,0.2761990587808321,0.016713104606349116,0.0,0.0016497769102420787,-0.0018511218901074273,0.0070182460201346514,20.1264632281419,0.5182465480887732,0.07599322677401363,0.11265798963257778,-0.15639299019499853,-0.05400779583538119,-0.023446640360407032,0.02273675899354581,0.08863090150478634,0.0003971380050436235,0.02275433157324483,2.518754331573245,-0.0020167369204755125,0.0005041842301188781,0.5162298111682977,-0.15588880596487964,True,0.32687898886749633,0.005705114611327702,0.0029911227053526735,2.845633320440741,0.0789843494793663,True,0.5243265454610891,0.009979056470073895,0.5717999357352341,-0.08963535792585531,3.067799935735234,-0.06625344803902433,True
12.0,12.0,56.0,44.0,2.496,8.0,413.7,101158.0,290.82,371.0,-3870.9,-104.7,1968.5,-14.2,1896.0,0.0,1.2117650239582876,969.5099735513668,40.002020851990096,443751.0461959339,98.41,98.43,6.55,6.35,0.0,22.319,22.624,30.385,28.659,101158.0,1.48721200307355e-05,2.0004099058889744,2.000003442431514,3.529735491688512,-38.499242528611845,113.97959030959562,-7.09915120807301,-4.222219297459297,-12.37521527562076,0.01676450218679,-0.1828524083689695,0.5413468220193964,-0.02414271462843,-0.1215511148123358,-0.0420854947454765,0.5415633150370034,-0.0068268623980856,0.1828524083689695,0.5413468220193964,0.0420494878946521,0.178739733544897,-0.053942266676880804,-0.1474887395159128,-0.1474887395159128,-0.024791412620576,383.8,-3874.2,-95.7,1966.5,-39.8,1890.2,-12.8,3.3,-9.0,2.0,25.6,5.8,rudder_m10_elevator_0,raw_rudder_m10_elevator_0.txt,-10.0,0.0,40.0,2.5,8.0,2.0004099058889744,2.0,0.2079519601697852,0.03951596600041271,0.13233208028896734,0.03268910360232711,0.0811437618769477,0.5396259159046582,0.17324539164734118,0.15643453003634028,0.029723389004540874,0.09953844732450756,0.022896526606455275,0.06860568571893755,0.5308476633504725,0.11628731910010545,,,,,,False,0.00285,0.0583196428571428,0.0092047157622739,-0.0198333333333333,0.0212125,-0.02055,True,0.07145568571893755,0.17460696195724826,0.5400523791127464,-0.0737756000102141,-0.1262762395159128,-0.045341412620576,-0.1262762395159128,40.0,0.0,True,exact_AoS_exact_dR,8.0,-10.0,372.0,0.053095900892464104,0.05384965327530762,0.007219591,0.2817992416846566,0.015174791457963372,0.00033499336851007186,0.0014367430521793649,-0.001843505668251902,0.006812828383927463,40.274547755064994,0.5236877668121256,0.0676803550721195,0.11471887445776972,-0.14549946050347426,-0.053214711343938896,-0.024457034301412894,0.029215403252417116,0.08577161475725736,0.00039371647014572423,0.022558292064138473,2.5185582920641383,-0.001934861136506981,0.00048371528412674526,0.5217529056756186,-0.1450157452193475,True,0.3240627691816536,0.0056559623053502655,0.002939804804868758,2.842621061245792,0.07062015987698826,True,0.5198092201222739,0.009893082099636307,0.5668736043091603,-0.08886310621150398,3.0628736043091602,-0.056152639007843536,True
17.0,13.0,0.0,17.0,2.496,9.995,103.97,101163.0,290.31,312.0,-599.3,-14.8,428.2,136.3,244.5,0.0,1.2139537833203915,242.55049051881485,19.990101533520384,222457.5841877914,49.21,49.21,0.64,0.94,0.0,21.864,21.785,34.037,32.643,101163.0,1.4825116789482283e-05,1.9991157066613503,1.9991157066613503,2.897264657653516,-6.760642079788343,28.62581442528408,-0.1279650639005697,-1.6349854652786002,-1.579016739304423,0.0550030525480862,-0.1283472500833133,0.5434460986870463,-0.0017394871153176,-0.1881404507115604,-0.0214642902458533,0.5453258751688899,0.0312839869432064,0.1283472500833133,0.5434460986870463,0.0764445016296992,0.1168528586049268,-0.018010474191698104,-0.22065572433831898,-0.22065572433831898,-0.0029450909195691995,315.0,-610.0,-4.600000000000001,427.0,108.6,240.8,-3.0,10.7,-10.2,1.2,27.7,3.7,rudder_m10_elevator_0,raw_rudder_m10_elevator_0.txt,-10.0,0.0,20.0,2.5,10.0,1.9991157066613503,2.0,0.20841921209431621,0.03965605102623776,0.1328012006157884,0.07094003796944416,0.11546163682031071,0.541719091919789,0.10997659565627765,0.12129355956895019,0.02310146104924731,0.07736276517520839,0.05438544799245371,0.09292376502162805,0.5334353226002286,0.0509274785005856,,,,,,False,0.00625,0.0619196428571428,0.0090047157622739,-0.0189333333333333,0.0170125,-0.0201499999999999,True,0.09917376502162806,0.1128471213577284,0.5424400383625025,-0.0369438075250314,-0.203643224338319,-0.0230950909195691,-0.203643224338319,20.0,0.0,True,exact_AoS_flipped_dR,10.0,10.0,125.0,0.08253790761420027,0.05688423438706542,0.007219591,0.28455324339761,0.016186593393029323,0.0,0.002165124822923225,-0.0018493550579993616,0.007535360764923863,20.140734160302916,0.5254860309892424,0.09153900838019119,0.050168553546684896,-0.21736749683615705,-0.017742080807652844,-0.002901202962494283,0.022673888101503514,0.08811865610345389,0.0004005238450278116,0.022948325914445445,2.5189483259144456,-0.002022175639404997,0.0005055439098512493,0.5234638553498374,-0.2168619529263058,True,0.32966582854650656,0.005753754139451651,0.0030423423523043024,2.848614154460952,0.09458135073249549,True,0.5287967441321993,0.010064133919151416,0.5766748735673761,-0.0903995531804219,3.072674873567376,-0.1264623997458839,True
13.0,12.0,57.0,10.0,2.496,10.0,413.36,101159.0,290.83,187.5,-4911.8,-404.0,2351.7,-173.6,2382.8,0.0,1.211735336730007,968.7071003996972,39.98594394612135,443550.0120281531,98.44,98.43,7.75,7.42,0.0,22.321,22.69,30.477,28.669,101159.0,1.4872880806731036e-05,1.9989965482252148,1.999199636363813,1.7538493366361534,-49.19371136392037,115.31625675164946,-7.308366752168292,-4.444354183717343,-15.582024057900789,0.0083368229974088,-0.2338395069973475,0.5481492629840952,-0.0248748119232505,-0.1280520748943163,-0.0530350940186262,0.5479922798842379,-0.0155427898065926,0.2338395069973475,0.5481492629840953,0.0488159721799614,0.2288392853305085,-0.06945404923447669,-0.14741433320240638,-0.14741433320240638,-0.0367883522016489,190.5,-4922.5,-393.8,2350.5,-201.3,2379.1000000000004,-3.0,10.7,-10.2,1.2,27.7,3.7,rudder_m10_elevator_0,raw_rudder_m10_elevator_0.txt,-10.0,0.0,40.0,2.5,10.0,1.9989965482252148,2.0,0.20846220964107728,0.03966896103709935,0.13284443399122578,0.024126171230506747,0.08784520897154208,0.5464216939905056,0.22195737784769334,0.15701224695437221,0.02989938771851073,0.10012783633115795,0.01435659791191813,0.07198318535319465,0.5378424396344432,0.16173259409367222,,,,,,False,0.00625,0.0619196428571428,0.0090047157622739,-0.0189333333333333,0.0170125,-0.0201499999999999,True,0.07823318535319465,0.22365223695081501,0.5468471553967171,-0.08838738256781,-0.1304018332024064,-0.0569383522016488,-0.1304018332024064,40.0,0.0,True,exact_AoS_exact_dR,10.0,-10.0,390.0,0.05658549432100171,0.05163809646033119,0.007219591,0.2892744898719297,0.014937584011519804,0.0004601070206731294,0.0015446914964942745,-0.0018498939228887038,0.006914388573605571,40.26242230004725,0.5304811720730551,0.07099797584152798,0.15951901477975625,-0.14539672308256518,-0.06850345515345865,-0.03628484246767741,0.029382104669919203,0.08630268656025995,0.00039824623722809773,0.022817828600135766,2.518817828600136,-0.001969239909663252,0.000492309977415813,0.5285119321633919,-0.14490441310514937,True,0.32779115998003333,0.005721035000583052,0.003007839733395452,2.846608988580169,0.07400581557492343,True,0.52578970321853,0.01000690349405642,0.5733955702094329,-0.08988548958603071,3.0693955702094327,-0.05501892351911866,True
7.0,17.0,28.0,49.0,2.496,0.0,413.42,101102.0,290.77,633.9,505.2,985.7,680.5,249.8,-408.5,0.0,1.2113024600329465,968.8487831196423,39.99601266937408,443574.14790770254,98.43,98.43,6.58,6.93,0.0,20.695,20.891,28.512,28.858,101102.0,1.4875816424686836e-05,1.9997030479599631,1.9997030479599631,5.934854788693804,3.067854914387187,108.32557596267218,-1.7334155781907177,-3.277768489029369,2.6799739045648447,0.0282068689168418,0.0145807411481846,0.5148441588396436,-0.0058990034843988,-0.0944262448156166,0.0091202453699113,0.5155841068364693,0.0057588300055021,-0.0145807411481846,0.5148441588396436,0.0282068689168418,-0.0145807411481846,-0.0017515307387681,-0.09548893454654411,-0.09548893454654411,0.0056836658857833,646.1666666666666,510.4333333333333,990.8666666666668,682.2333333333333,228.9,-411.6,-12.266666666666666,-5.233333333333333,-5.166666666666667,-1.7333333333333336,20.9,3.1,rudder_m5_elevator_0,raw_rudder_m5_elevator_0.txt,-5.0,0.0,40.0,2.5,0.0,1.9997030479599631,2.0,0.20820721740530065,0.039592446684057876,0.13258820076362768,0.045351276689559974,0.06776175283545556,0.5131199220186247,-0.0145807411481846,0.1567234617021923,0.029808296975837086,0.09982278931616294,0.03556712698133919,0.04993688569881953,0.5007413024590911,-0.0131003840053275,,,,,,False,0.00805,-0.0014803571428571,0.0128047157622739,-0.0004333333333333,-0.0068874999999999,0.00335,True,0.05798688569881953,-0.0145807411481846,0.513546018221365,-0.0021848640721014,-0.102376434546544,0.0090336658857833,-0.102376434546544,40.0,0.0,True,exact_AoS_zero_dR,0.0,0.0,330.0,0.034608752698998047,0.06898509874297536,0.007219591,0.25074185198842697,0.017297451418418146,0.0,0.0009078527881911083,-0.001846699701543327,0.0062807440866477805,40.24721738943674,0.4945100134677941,0.04931546468843637,-0.012937361146551377,-0.09430065799793812,-0.0017297344656090755,0.0056129376185315985,0.029329610083825022,0.0849543927173969,0.0003798401876512003,0.021763239641870987,2.5177632396418708,-0.001848882807338328,0.000462220701834582,0.4926611306604558,-0.09383843729610354,True,0.31264138635390964,0.0054566215698753934,0.0027362334857662174,2.8304046259957802,0.05205169817420258,True,0.5014888801603589,0.009544406815858462,0.5468945105486899,-0.08573118347361262,3.04289451054869,-0.008107253822490917,True
8.0,17.0,29.0,34.0,2.496,4.0,413.08,101104.0,290.83,627.8,-1835.1,382.4,1291.8,234.1,937.5,0.0,1.211076518003842,968.0459187785996,39.98316648035563,443278.0618370876,98.44,98.43,6.62,6.84,0.0,20.888,21.001,28.637,28.774,101104.0,1.4880971569157546e-05,1.9988576958203303,1.9990607698522125,5.932703060890534,-17.792944279978673,108.4607517965905,-4.09078674376746,-3.487492871643484,-6.121743855621287,0.0282200276324897,-0.0846355150579503,0.5159141425630291,-0.0139329422547457,-0.1005513281399908,-0.0208502444593735,0.5166536484854932,0.0057253788304749,0.0846355150579503,0.5159141425630291,0.034055160147471,0.082460817580431,-0.0307105088629618,-0.1045177266939827,-0.1045177266939827,-0.015326104424405,645.5,-1838.6,389.2,1291.7,212.3,935.9,-17.7,3.5,-6.8,0.1,21.8,1.6,rudder_m5_elevator_0,raw_rudder_m5_elevator_0.txt,-5.0,0.0,40.0,2.5,4.0,1.9988576958203303,2.0,0.20851230875731083,0.039684007357467514,0.13289482149472231,0.045409386187942415,0.07360494133782033,0.5141859183075961,0.07969522746872645,0.15706900355991377,0.02991850753268324,0.10019186525516707,0.03564388636315814,0.056422472088795875,0.5056064865523427,0.07425614515850619,,,,,,False,0.00745,0.0061196428571428,0.0090047157622739,-0.0061333333333333,-0.0039875,-0.00715,True,0.06387247208879587,0.08037578801564899,0.5146112023146167,-0.0368438421962951,-0.1085052266939827,-0.022476104424405,-0.1085052266939827,40.0,0.0,True,exact_AoS_zero_dR,4.0,0.0,348.0,0.04128048246965465,0.05939308005467165,0.007219591,0.25563791924380436,0.015183123402656958,0.0,0.0010828648300010859,-0.0018505219137791686,0.006451933916221917,40.24113522824818,0.4991448097715601,0.05570139000716245,0.0733071478221133,-0.1031819847964373,-0.030318026987582864,-0.015130236025298189,0.029427832490595877,0.08379140479445407,0.00038266663869872226,0.021925183357894326,2.517925183357894,-0.0018371419139339513,0.00045928547848348783,0.49730766785762615,-0.1027226993179538,True,0.3149678004688115,0.005497225155945301,0.0027771064875283815,2.8328929838267056,0.05847849649469083,True,0.5052205384122537,0.009615428259928071,0.5509640392938784,-0.08636912279970838,3.0469640392938784,-0.016353576518245427,True
5.0,17.0,27.0,28.0,2.496,8.0,413.6,101103.0,290.59,316.8,-4388.7,-237.1,2112.7,-48.2,2249.3,0.0,1.21206476484882,969.273833278528,39.99220306840241,444024.1348092035,98.44,98.43,6.69,5.99,0.0,20.627,20.687,28.738,28.8,101103.0,1.4859325363624548e-05,1.999309457277746,1.999512577206353,3.0314849949308997,-42.40469060551149,113.8814294677028,-6.732263081787941,-4.139748418222957,-14.682518425976724,0.0144015658804061,-0.201450426577959,0.5410123790077764,-0.0229005833788073,-0.119205941288257,-0.0499443104555055,0.541126284296638,-0.0091729920296329,0.201450426577959,0.5410123790077764,0.0422978913878267,0.1974856142922642,-0.057595998735445006,-0.14447756537995352,-0.14447756537995352,-0.0328169611723514,329.6,-4392.0,-228.1,2110.7,-73.80000000000001,2243.5,-12.8,3.3,-9.0,2.0,25.6,5.8,rudder_m5_elevator_0,raw_rudder_m5_elevator_0.txt,-5.0,0.0,40.0,2.5,8.0,1.999309457277746,2.0,0.2083492902027326,0.03963506385790034,0.13273091824826544,0.03046207182826744,0.08150999228269942,0.539286286224156,0.1919747129020644,0.15688434383537564,0.029856333094896766,0.09998365390350746,0.020683341065263865,0.06898561459839907,0.5305074306715062,0.13501471515989935,,,,,,False,0.00285,0.0583196428571428,0.0092047157622739,-0.0198333333333333,0.0212125,-0.02055,True,0.07183561459839907,0.19333435801704216,0.5397121464337801,-0.0774293320687783,-0.1232650653799535,-0.0533669611723514,-0.1232650653799535,40.0,0.0,True,exact_AoS_zero_dR,8.0,0.0,373.0,0.05536457036537403,0.05295461198253305,0.007219591,0.2814381339976829,0.014903447182935441,0.0,0.0014523169907438697,-0.0018484789779380337,0.006823429012805837,40.265087027105366,0.523341102610784,0.06805372652841124,0.13319087691387124,-0.1425258987847908,-0.05681796661363159,-0.03237365520504503,0.029345169067584984,0.08577161475725736,0.00039371647014572423,0.022558292064138473,2.5185582920641383,-0.001934861136506981,0.00048371528412674526,0.521406241474277,-0.14204218350066405,True,0.3240627691816536,0.0056559623053502655,0.002939804804868758,2.842621061245792,0.07099353133328,True,0.5198092201222739,0.009893082099636307,0.5668736043091603,-0.08886310621150398,3.0628736043091602,-0.053179077289160076,True
6.0,17.0,28.0,4.0,2.496,9.995,413.18,101103.0,290.69,139.5,-5411.7,-530.7,2494.5,-212.4,2729.6,0.0,1.2116478035619338,968.2820542389112,39.978614543068126,443602.2211441562,98.43,98.43,7.47,5.58,0.0,20.581,20.759,28.844,28.75,101103.0,1.4868404494148588e-05,1.9988331840940223,1.9988331840940223,1.3125724684712332,-52.89379091530388,115.3634578482057,-6.839575068285243,-4.484204325729975,-17.84739052685116,0.0062419773554415,-0.2515379935717619,0.5486143499357741,-0.0232894478983835,-0.1292569641720157,-0.0607721777518867,0.5483656958166624,-0.0176559023633918,0.2515379935717619,0.5486143499357742,0.0498047389421536,0.2466370054763021,-0.0725168804158208,-0.1480287840177673,-0.1480287840177673,-0.044666295217226995,142.5,-5422.4,-520.5,2493.3,-240.1,2725.9,-3.0,10.7,-10.2,1.2,27.7,3.7,rudder_m5_elevator_0,raw_rudder_m5_elevator_0.txt,-5.0,0.0,40.0,2.5,10.0,1.9988331840940223,2.0,0.2085211522499277,0.0396866637872399,0.13290371741486554,0.022030761423848102,0.08885199367829907,0.5468860099937793,0.23975543434923413,0.15707902284897374,0.029927963831349522,0.10022353275063789,0.012272061467957722,0.07300052036942956,0.5383062821066801,0.17952792636677353,,,,,,False,0.00625,0.0619196428571428,0.0090047157622739,-0.0189333333333333,0.0170125,-0.0201499999999999,True,0.07925052036942956,0.24144756922391633,0.547310997868954,-0.0914502137491541,-0.1310162840177673,-0.0648162952172269,-0.1310162840177673,40.0,0.0,True,exact_AoS_zero_dR,10.0,0.0,391.0,0.06885309636054321,0.054838597447374196,0.007219591,0.28977365335551664,0.01589078072721813,0.0,0.0018061464407620757,-0.0018506327807624714,0.0071751046599996034,40.26546528657643,0.5306638254308039,0.07196411538441544,0.17697912757884476,-0.14592718571538263,-0.07148734177718799,-0.04403215766874135,0.029394947054849303,0.08630268656025995,0.00039824623722809773,0.022817828600135766,2.518817828600136,-0.001969239909663252,0.000492309977415813,0.5286945855211407,-0.14543487573796682,True,0.32779115998003333,0.005721035000583052,0.003007839733395452,2.846608988580169,0.07497195511781089,True,0.52578970321853,0.01000690349405642,0.5733955702094329,-0.08988548958603071,3.0693955702094327,-0.05554938615193611,True
28.0,8.0,10.0,41.0,2.496,-9.995,104.26,101189.0,289.29,330.2,896.7,533.5,-88.4,83.8,-457.2,0.0,1.2185471305276716,243.22698967108667,19.98019463460076,223798.9645853479,49.21,49.21,0.59,0.58,0.0,19.603,19.399,45.032,44.352,101189.0,1.4728956569678325e-05,1.9981249644581995,1.9981249644581995,2.6138409208311546,8.520802655369632,29.33895051356545,-1.0460446418331577,-1.9136533810016108,2.840559422068558,0.0494843840843911,0.1613130577095466,0.5554354453156867,-0.0141798099486113,-0.2195947502517445,0.0385056154793571,0.5570635110491933,0.025248422501061,-0.1613130577095466,0.5554354453156867,0.0767312098266064,-0.1502761734086956,0.0235134989555778,-0.1929545707908949,-0.1929545707908949,0.032381610728089504,284.6,870.2,536.1,-83.60000000000001,64.8,-434.7,45.6,26.5,-2.6,-4.8,19.0,-22.5,rudder_0_elevator_0,raw_rudder_0_elevator_0.txt,0.0,0.0,20.0,2.5,-10.0,1.9981249644581995,2.0,0.2087765975308777,0.03976345396386844,0.1331608743275652,0.06501187646492944,0.11585401753954323,0.553703761189103,-0.14338128705147468,0.12159082398051503,0.02320404236152278,0.07770629210434998,0.04845246486258378,0.07141140179880254,0.5414202018495937,-0.13517229166819625,0.04916949525412677,-0.023921072753065768,-1.2637240119516653,0.12559673974025654,0.25119347948051307,True,0.0281499999999999,-0.0110803571428571,0.0130047157622739,0.0060666666666666,-0.0405875,0.00745,True,0.09956140179880243,-0.14625264881105335,0.5544249176118676,0.0295801656222444,-0.2335420707908949,0.0398316107280895,-0.2335420707908949,20.0,0.0,True,exact_AoS_exact_dR,-10.0,0.0,9.0,0.0537790839673638,0.06287911290193308,0.007219591,0.2931358349708548,0.018432121262734805,0.0,0.0014107266953757751,-0.0018538370105040227,0.006776480684871752,20.115590037622113,0.5341562736820669,0.07045331547096174,-0.1333587615975349,-0.1903658086112923,0.023198031659017664,0.031947164999108366,0.02280865169806443,0.08932062750100259,0.00039789805827072905,0.022797879415363275,2.5187978794153634,-0.002036320895072438,0.0005090802237681095,0.5321199527869944,-0.18985672838752418,True,0.32750457852954457,0.0057160332106968815,0.003002582640662066,2.846302457944908,0.07345589811162381,True,0.5253300154837858,0.009998154652512303,0.572894261588955,-0.08980690444668459,3.068894261588955,-0.1000498239408396,True
