run,hr,min,sec,AoA,AoS,dPb,pBar,temp,B1,B2,B3,B4,B5,B6,rpmWT,rho,q,V,Re,rpsM1,rpsM2,iM1,iM2,dPtQ,tM1,tM2,vM1,vM2,pInf,nu,J_M1,J_M2,FX,FY,FZ,MX,MY,MZ,CFX,CFY,CFZ,CMX,CMY,CMZ,CN,CT,CY,CL,CD,CYaw,CMroll,CMpitch,CMpitch25c,CMyaw,B1_zeroed,B2_zeroed,B3_zeroed,B4_zeroed,B5_zeroed,B6_zeroed,B1_zero,B2_zero,B3_zero,B4_zero,B5_zero,B6_zero,config,source_file,rudder_deg,V_round,AoA_round,AoS_round,J,J_round
4.0,17.0,20.0,16.0,2.496,0.0,413.22,101106.0,290.81,788.1,1844.2,1294.7,283.5,422.4,-1323.6,0.0,1.2111837665772662,968.3765086821721,39.98822250188802,443397.0123409999,98.44,98.43,6.44,7.87,0.0,21.129,21.653,28.525,28.589,101106.0,1.4878860687823469e-05,1.9991104588813853,1.9993135585927415,7.352540167190499,13.14918597295706,107.13484671210308,-2.542902906018317,-2.537051679296379,8.644608059925003,0.0349618126538645,0.06252524516476221,0.5094332508597899,-0.00865799813848316,-0.0731232540013728,0.029432897462821215,0.5104725077494743,0.012743008184115407,-0.06252524516476221,0.5094332508597899,0.0349618126538645,-0.06252524516476221,0.007674630354487079,-0.08297734467534332,-0.08297734467534332,0.029739200817043128,800.3666666666667,1849.4333333333334,1299.8666666666668,285.23333333333335,401.5,-1326.6999999999998,-12.266666666666666,-5.233333333333333,-5.166666666666667,-1.7333333333333336,20.900000000000002,3.1,rudder_m20_elevator_0,raw_rudder_m20_elevator_0.txt,-20.0,40,2.5,0,1.9991104588813853,2.0
1.0,17.0,17.0,7.0,2.496,4.0,413.81,101101.0,290.5,809.5,-428.2,696.7,860.7,460.6,-25.3,0.0,1.2124162911880931,969.7697289204261,39.99663253237486,444308.8042373147,98.44,98.42,6.9,6.8,0.0,20.503,20.594,28.612,28.743,101101.0,1.4851449705370646e-05,1.9995308971718087,1.9999372233041337,7.603355027514802,-7.216187417281273,106.82648115503552,-5.022943558004886,-2.3125260639376606,0.15889774067719725,0.036102512513794885,-0.034264149916913664,0.5072371813163812,-0.01707739524709122,-0.06655619014058897,0.0005402329311643964,0.5083281987643795,0.013978263860635182,0.034264149916913664,0.5072371813163812,0.038404714881861174,0.03166230020356072,-0.026733010254840362,-0.07673179045603103,-0.07673179045603103,-0.000624492594109075,827.2,-431.7,703.5,860.6,438.8,-26.900000000000002,-17.7,3.5,-6.8,0.1,21.8,1.6,rudder_m20_elevator_0,raw_rudder_m20_elevator_0.txt,-20.0,40,2.5,4,1.9995308971718087,2.0
2.0,17.0,18.0,4.0,2.496,8.0,413.45,101104.0,290.63,508.3,-2894.0,101.3,1653.4,181.6,1226.0,0.0,1.211909932667162,968.9196246045557,39.987449212103556,443867.2703991036,98.42,98.43,7.98,6.06,0.0,20.618,20.945,28.89,28.665,101104.0,1.4862809760720223e-05,1.9994780330453228,1.9992748959902533,4.792262915720874,-31.17304837733905,112.0740194845113,-7.826694062111748,-3.0145619521125693,-8.001160292735243,0.02277475246496546,-0.14814680931701238,0.5326206212810651,-0.026633151610284133,-0.08683741811236068,-0.02722683593398397,0.5331071373955024,-0.00044229135318826426,0.14814680931701238,0.5326206212810651,0.043171160989536786,0.1435354218284364,-0.0671381677806039,-0.09325654969712409,-0.09325654969712409,-0.030124847937301035,521.1,-2897.3,110.3,1651.4,156.0,1220.2,-12.8,3.3,-9.0,2.0,25.6,5.8,rudder_m20_elevator_0,raw_rudder_m20_elevator_0.txt,-20.0,40,2.5,8,1.9994780330453228,2.0
3.0,17.0,18.0,49.0,2.496,10.0,413.27,101103.0,290.71,330.1,-3931.4,-197.7,2031.0,31.8,1709.0,0.0,1.211564445727421,968.4945769444824,39.98437706931307,443611.97787620977,98.43,98.43,7.14,7.02,0.0,20.79,21.22,28.855,28.611,101103.0,1.4870220568739444e-05,1.9991212963463916,1.9991212963463916,3.0651518771925335,-41.8584898958199,113.32130386928945,-8.123402393455388,-3.1633236116550596,-11.181600354681079,0.014573222189432007,-0.19901561103869594,0.5387845712871872,-0.02765494053163529,-0.09116263525094365,-0.03806613016072494,0.5389080657471974,-0.008904478351651856,0.19901561103869594,0.5387845712871873,0.04891052038266236,0.1934615032454396,-0.08201086016784598,-0.09527014118286817,-0.09527014118286817,-0.04160155894650404,333.1,-3942.1,-187.5,2029.8,4.100000000000001,1705.3,-3.0,10.7,-10.2,1.2,27.7,3.7,rudder_m20_elevator_0,raw_rudder_m20_elevator_0.txt,-20.0,40,2.5,10,1.9991212963463916,2.0
1.0,12.0,48.0,53.0,-4.996,0.0,414.34,101170.0,290.45,-619.2,925.6,-346.6,-912.5,45.0,-701.9,0.0,1.2134526039979827,971.0212932130449,40.00533998428826,444844.7576862209,123.02,123.03,17.46,17.61,0.0,19.691,20.772,34.09,33.511,101170.0,1.48367858629074e-05,1.6003631373030802,1.6002330582055182,-5.86385810652602,6.019782845107471,-75.94717092998704,-2.8284152376060816,6.252893085297139,4.53287020069566,-0.027807086016926368,0.02854649896641022,-0.36015017355928386,-0.009603872158279783,0.1797308758151738,0.01539134188599647,-0.35636027060277337,-0.05906554904047866,-0.02854649896641022,-0.36015017355928386,-0.027807086016926365,-0.02854649896641022,-0.0002116642687932061,0.18756838554908062,0.18756838554908062,0.01535129983222055,-638.1,914.8000000000001,-337.0,-902.8,7.600000000000001,-695.6999999999999,18.9,10.8,-9.6,-9.7,37.4,-6.2,rudder_m10_elevator_0,raw_rudder_m10_elevator_0.txt,-10.0,40,-5.0,0,1.6003631373030802,1.6
8.0,12.0,53.0,8.0,-4.995,0.0,413.7,101161.0,290.67999999999995,1533.2,1283.8,-582.9,-1291.7,1682.5,-929.6,0.0,1.2123845995887763,969.5099735513669,39.991798252437086,444030.19039940194,82.02,82.03,1.03,0.87,0.0,23.786,23.813,31.732,30.434,101161.0,1.485897230570449e-05,2.3995370735170396,2.399244554063971,13.93759241652099,8.934983625828316,-73.44884085980566,-2.124256591667887,6.653740646990737,6.014379200644172,0.06619668785254512,0.04243676413908198,-0.3488457580209147,-0.007224148237873647,0.19155082584188612,0.02045363402644459,-0.3532846132175096,0.03557170835915134,-0.04243676413908198,-0.3488457580209147,0.06619668785254512,-0.04243676413908198,0.006499664366782149,0.17289309287839233,0.17289309287839233,0.019810039232971113,1514.3,1273.0,-573.3,-1282.0,1645.1,-923.4,18.9,10.8,-9.6,-9.7,37.4,-6.2,rudder_m10_elevator_0,raw_rudder_m10_elevator_0.txt,-10.0,40,-5.0,0,2.3995370735170396,2.4
14.0,12.0,58.0,17.0,2.496,0.0,103.96,101160.0,290.57,268.1,288.8,271.3,103.3,158.7,-204.0,0.0,1.2128315782593753,242.52716310066285,19.998385838069286,222189.75821228168,49.21,49.21,0.66,0.72,0.0,22.505,22.863,33.762,32.572,101160.0,1.4849138116813831e-05,1.999944180859678,1.999944180859678,2.5767467469310903,2.1377245560139215,26.801435904178973,-0.51739855457541,-0.9250226123674563,1.3495768238307124,0.04892289301723947,0.04058748492794418,0.5088601675776615,-0.007033909559382622,-0.10645410270688453,0.018347174027291423,0.5105079682031981,0.02671580074383986,-0.04058748492794418,0.5088601675776616,0.048922893017239476,-0.04058748492794418,0.0036026007766594955,-0.12024316532207902,-0.12024316532207902,0.018486659378122786,280.3666666666667,294.03333333333336,276.4666666666667,105.03333333333333,137.79999999999998,-207.1,-12.266666666666666,-5.233333333333333,-5.166666666666667,-1.7333333333333336,20.900000000000002,3.1,rudder_m10_elevator_0,raw_rudder_m10_elevator_0.txt,-10.0,20,2.5,0,1.999944180859678,2.0
2.0,12.0,49.0,35.0,2.496,0.0,413.86,101166.0,290.53999999999996,-771.0,962.8,1381.8,789.4,-903.6,-719.9,0.0,1.213028753275484,969.8877999129203,39.98896818151591,444400.62201981014,123.03,123.03,17.58,17.93,0.0,21.089,22.581,34.074,33.579,101166.0,1.4845535922040316e-05,1.5995781781312823,1.5995781781312823,-6.990728382745571,6.523632102842962,110.93256468921331,-2.7001902292649187,-4.624381133196843,4.712499290059566,-0.033189576671798365,0.03097196400740089,0.5266697058691712,-0.009179199746838338,-0.1330768662458155,0.016019972156578983,0.5247246414124537,-0.05609436490900217,-0.03097196400740089,0.5266697058691712,-0.03318957667179837,-0.03097196400740089,-0.0011468971775501122,-0.12372228554393513,-0.12372228554393513,0.01595482647814754,-758.7333333333333,968.0333333333333,1386.9666666666667,791.1333333333333,-924.5,-723.0,-12.266666666666666,-5.233333333333333,-5.166666666666667,-1.7333333333333336,20.900000000000002,3.1,rudder_m10_elevator_0,raw_rudder_m10_elevator_0.txt,-10.0,40,2.5,0,1.5995781781312823,1.6
6.0,12.0,51.0,49.0,2.5,0.0,413.69,101165.0,290.56,1463.3,1116.6,1019.6,387.3,894.7,-788.7,0.0,1.2129332677003728,969.4863594824362,39.98226519445301,444267.44371956156,82.02,82.02,0.56,1.3,0.0,24.587,25.399,31.31,30.092,101165.0,1.4847497008520386e-05,2.398965083082591,2.398965083082591,13.564576907358653,8.13735951383032,108.25829926690727,-1.7090309731480777,-2.950725960654127,5.158883014585127,0.06442661743176803,0.03864938448746577,0.5141860360494673,-0.0058121951293063434,-0.08494887187076805,0.017544699423908523,0.51650689445984,0.041936817683454225,-0.03864938448746577,0.5141860360494674,0.06442661743176803,-0.03864938448746577,0.004311123348673196,-0.10310770523204905,-0.10310770523204905,0.017716049316969573,1475.5666666666666,1121.8333333333333,1024.7666666666667,389.03333333333336,873.8000000000001,-791.8000000000001,-12.266666666666666,-5.233333333333333,-5.166666666666667,-1.7333333333333336,20.900000000000002,3.1,rudder_m10_elevator_0,raw_rudder_m10_elevator_0.txt,-10.0,40,2.5,0,2.398965083082591,2.4
9.0,12.0,53.0,59.0,2.496,0.0,413.54,101159.0,290.77,1865.9,1091.5,919.7,346.8,1221.5,-810.7,0.0,1.211985376693565,969.1321495590578,39.99058970785869,443764.05223382066,70.31,70.3,-1.01,-1.26,0.0,23.067,22.935,28.808,27.539,101159.0,1.4867434357483651e-05,2.7990909288574315,2.7994890925741966,17.268846134261,7.467939246343539,107.68374833889237,-1.463883840252115,-2.612897888347991,5.299999175943435,0.0820504751084512,0.03548285499098045,0.5116440695557287,-0.004980300768744337,-0.075250584589141,0.0180312052394468,0.514731923286115,0.05969071558665574,-0.03548285499098045,0.5116440695557287,0.0820504751084512,-0.03548285499098045,0.004230631460961473,-0.0983767545496584,-0.0983767545496584,0.01819834087167665,1878.1666666666667,1096.7333333333333,924.8666666666667,348.53333333333336,1200.6,-813.8000000000001,-12.266666666666666,-5.233333333333333,-5.166666666666667,-1.7333333333333336,20.900000000000002,3.1,rudder_m10_elevator_0,raw_rudder_m10_elevator_0.txt,-10.0,40,2.5,0,2.7990909288574315,2.8
10.0,12.0,54.0,31.0,2.496,0.0,413.52,101160.0,290.76,666.6,1017.6,1128.5,547.2,255.6,-757.8,0.0,1.2120390414597149,969.0849217266067,39.98872997496133,443774.89473037096,98.43,98.43,7.41,6.7,0.0,22.707,22.598,30.171,28.596,101160.0,1.4866379727834744e-05,1.9993389310082332,1.9993389310082332,6.235263793043559,6.93631427386736,109.03741205687895,-2.1258780601427554,-3.5196654680835633,4.957148835961805,0.029627416072189862,0.03295852041233793,0.518101059019845,-0.007232833523233533,-0.10137012734805287,0.016865610945716692,0.5188997813973568,0.0070361926050199995,-0.03295852041233793,0.518101059019845,0.029627416072189862,-0.03295852041233793,0.0013201808001508234,-0.10972070251133861,-0.10972070251133861,0.01690710333872553,678.8666666666667,1022.8333333333334,1133.6666666666667,548.9333333333334,234.7,-760.9,-12.266666666666666,-5.233333333333333,-5.166666666666667,-1.7333333333333336,20.900000000000002,3.1,rudder_m10_elevator_0,raw_rudder_m10_elevator_0.txt,-10.0,40,2.5,0,1.9993389310082332,2.0
3.0,12.0,50.0,6.0,5.0,0.0,413.63,101164.0,290.53999999999996,-491.3,1047.4,1891.8,1217.9,-920.9,-726.5,0.0,1.2130047723183783,969.3446752632036,39.97816513643388,444271.7837110666,123.03,123.04,18.03,17.84,0.0,22.172,23.819,34.14,33.543,101164.0,1.484582941648344e-05,1.5991460510733362,1.5990160814658043,-4.364830890246677,7.858146113947765,168.10040129620748,-2.6057674679969596,-8.232339981058223,4.798590615121405,-0.020734328470118368,0.03732868163503329,0.7985301204274832,-0.008863176223999571,-0.2370366549851055,0.01632177650960724,0.7936843564382348,-0.09025191384265888,-0.03732868163503329,0.7985301204274833,-0.02073432847011837,-0.03732868163503329,0.00022917766327628167,-0.23119262295989956,-0.23119262295989956,0.016279641371773148,-472.7,1061.8000000000002,1906.8,1228.9,-990.0,-735.9,-18.6,-14.4,-15.0,-11.0,69.1,9.4,rudder_m10_elevator_0,raw_rudder_m10_elevator_0.txt,-10.0,40,5.0,0,1.5991460510733362,1.6
7.0,12.0,52.0,23.0,5.0,0.0,414.28,101164.0,290.60999999999996,1713.7,1084.2,1474.8,845.3,887.8,-748.0,0.0,1.2127125926478157,970.879605384417,40.014624272672634,444486.8103838272,82.03,82.03,0.92,1.24,0.0,24.354,24.736,31.294,30.089,101164.0,1.4852180033961034e-05,2.4006139649715625,2.4006139649715625,15.921340567297715,8.188957535811648,164.133727791848,-1.6021323411107267,-6.145487512571764,4.93542251791976,0.07551183691577096,0.03883864071248466,0.7784545046949632,-0.005440827596385043,-0.17666942819645093,0.016760652254670473,0.7820735405153924,0.007377711026709699,-0.03883864071248466,0.7784545046949634,0.07551183691577096,-0.03883864071248466,0.004024219642675258,-0.19795266357365987,-0.19795266357365987,0.017047606764599266,1732.3,1098.6000000000001,1489.8,856.3,818.6999999999999,-757.4,-18.6,-14.4,-15.0,-11.0,69.1,9.4,rudder_m10_elevator_0,raw_rudder_m10_elevator_0.txt,-10.0,40,5.0,0,2.4006139649715625,2.4
4.0,12.0,50.0,33.0,7.0,0.0,414.06,101163.0,290.53,-141.4,1127.5,2249.5,1517.9,-865.5,-747.6,0.0,1.213034532873517,970.3600861966114,39.998608010003394,444521.7309905815,123.03,123.02,17.53,17.67,0.0,23.143,24.81,33.986,33.596,101163.0,1.4845069010817224e-05,1.5999637759596514,1.600093833167907,-1.0462512063375229,8.94303134069805,209.65657465396708,-2.436251313562464,-11.603173907756279,4.965696098499293,-0.004964823666472761,0.04243777534625999,0.9948929256840731,-0.00827791795119314,-0.33374465431339406,0.016872489568339893,0.9868720848825471,-0.12617476423527946,-0.04243777534625999,0.994892925684073,-0.004964823666472745,-0.04243777534625999,0.0015996010509161012,-0.3323453040258657,-0.3323453040258657,0.016941666919449438,-111.55000000000001,1149.55,2273.85,1535.2,-980.85,-761.35,-29.85,-22.049999999999997,-24.35,-17.3,115.35,13.75,rudder_m10_elevator_0,raw_rudder_m10_elevator_0.txt,-10.0,40,7.0,0,1.5999637759596514,1.6
5.0,12.0,51.0,18.0,7.0,0.0,413.96,101166.0,290.53,2015.5,1043.1,1781.3,1170.6,937.9,-713.9,0.0,1.2130705055473072,970.1239425920227,39.993147753508076,444474.2293538968,82.02,82.03,1.08,1.11,0.0,24.435,25.753,31.534,30.336,101166.0,1.4844628791701782e-05,2.3996180445659068,2.3993255152419315,18.797838346099773,8.021141840044894,203.97392290823905,-1.5138079582111554,-9.123164580056397,4.741668226266762,0.08922395467029476,0.03807235612751511,0.9681623874195604,-0.0051448831613968545,-0.26247547333171634,0.01611520727046379,0.9718195165688388,-0.029430421622161015,-0.03807235612751511,0.9681623874195603,0.08922395467029476,-0.03807235612751511,0.003580337068645096,-0.2876235097998465,-0.2876235097998465,0.016431420286925978,2045.35,1065.1499999999999,1805.6499999999999,1187.8999999999999,822.55,-727.65,-29.85,-22.049999999999997,-24.35,-17.3,115.35,13.75,rudder_m10_elevator_0,raw_rudder_m10_elevator_0.txt,-10.0,40,7.0,0,2.3996180445659068,2.4
16.0,12.0,59.0,28.0,2.496,4.0,104.27,101161.0,290.38,251.5,-323.8,109.2,268.3,155.2,140.9,0.0,1.2136371492818563,243.25031736688445,20.02153057898999,222707.5819986702,49.21,49.21,0.53,0.55,0.0,22.222,22.274,33.817,32.539,101161.0,1.4831757361445157e-05,2.0022587771624334,2.0022587771624334,2.4751339749091636,-3.503507577049044,26.876405087964507,-1.2189768256855698,-0.8734758533057261,-0.9127058359163172,0.04685393568732648,-0.06632090236696836,0.5087665428471353,-0.016522432610841898,-0.10022312249543769,-0.01237112990968323,0.5103243299497895,0.024652883630853523,0.06632090236696836,0.5087665428471353,0.051366114139510845,0.06289098264749739,-0.03464300765081394,-0.1134290433458906,-0.1134290433458906,-0.013868083508036186,269.2,-327.3,116.0,268.2,133.39999999999998,139.3,-17.7,3.5,-6.8,0.1,21.8,1.6,rudder_m10_elevator_0,raw_rudder_m10_elevator_0.txt,-10.0,20,2.5,4,2.0022587771624334,2.0
11.0,12.0,55.0,43.0,2.496,3.995,413.52,101162.0,290.77,672.2,-1333.6,511.3,1154.4,265.1,596.1,0.0,1.212021319675703,969.0849217266067,39.98902232503535,443759.81931502215,98.43,98.44,7.72,6.66,0.0,22.373,22.495,30.201,28.654,101162.0,1.4866993457708315e-05,1.9993535477986348,1.9991504440249863,6.34077957367569,-14.000861097135479,108.68821264708312,-4.408266726533726,-3.51508673605591,-3.8941736768773074,0.030128783783120998,-0.06652634930322533,0.5164418066530524,-0.014998160034111746,-0.10123825497184419,-0.013249071263062191,0.517263937606016,0.0076093444946643,0.06652634930322533,0.5164418066530524,0.034690427015209316,0.06426564430056887,-0.033139798066949305,-0.10973014211267038,-0.10973014211267038,-0.014679727690131827,689.9000000000001,-1337.1,518.1,1154.3000000000002,243.3,594.5,-17.7,3.5,-6.8,0.1,21.8,1.6,rudder_m10_elevator_0,raw_rudder_m10_elevator_0.txt,-10.0,40,2.5,4,1.9993535477986348,2.0
15.0,12.0,59.0,1.0,2.496,8.0,103.89,101163.0,290.41999999999996,170.3,-953.6,-43.8,475.5,76.0,466.9,0.0,1.2134939840084806,242.363871432735,19.986195193269104,222264.5655347002,49.21,49.21,0.94,0.89,0.0,22.399,22.546,33.945,32.565,101163.0,1.4835091647499657e-05,1.9987250520096567,1.9987250520096567,1.684274144551488,-9.579769714061449,28.19918484703743,-1.8496369835160116,-1.1146572553739693,-3.016480855092828,0.031999683419864075,-0.18200694885499202,0.535758974109123,-0.025162313848234696,-0.12836419665845386,-0.04103596471603535,0.536644255183418,0.008637213443354191,0.18200694885499202,0.535758974109123,0.05701873616895972,0.17578217456889583,-0.07460186936102901,-0.13738340241530517,-0.13738340241530517,-0.044245917027542846,183.10000000000002,-956.9,-34.8,473.5,50.4,461.09999999999997,-12.8,3.3,-9.0,2.0,25.6,5.8,rudder_m10_elevator_0,raw_rudder_m10_elevator_0.txt,-10.0,20,2.5,8,1.9987250520096567,2.0
12.0,12.0,56.0,44.0,2.496,8.0,413.7,101158.0,290.82,371.0,-3870.9,-104.7,1968.5,-14.2,1896.0,0.0,1.2117650239582876,969.5099735513669,40.002020851990096,443751.0461959339,98.41,98.43,6.55,6.35,0.0,22.319,22.624,30.385,28.659,101158.0,1.4872120030735501e-05,2.0004099058889744,2.000003442431514,3.5297354916885126,-38.49924252861184,113.97959030959562,-7.099151208072996,-4.222219297459298,-12.375215275620759,0.016764502186790035,-0.18285240836896946,0.5413468220193964,-0.02414271462842998,-0.12155111481233581,-0.04208549474547653,0.5415633150370034,-0.006826862398085623,0.18285240836896946,0.5413468220193964,0.0420494878946521,0.17873973354489697,-0.07377560001021413,-0.1262762395159128,-0.1262762395159128,-0.045258467597220894,383.8,-3874.2000000000003,-95.7,1966.5,-39.8,1890.2,-12.8,3.3,-9.0,2.0,25.6,5.8,rudder_m10_elevator_0,raw_rudder_m10_elevator_0.txt,-10.0,40,2.5,8,2.0004099058889744,2.0
17.0,13.0,0.0,17.0,2.496,9.995,103.97,101163.0,290.31,312.0,-599.3,-14.8,428.2,136.3,244.5,0.0,1.2139537833203915,242.55049051881485,19.990101533520384,222457.5841877914,49.21,49.21,0.64,0.94,0.0,21.864,21.785,34.037,32.643,101163.0,1.4825116789482285e-05,1.9991157066613503,1.9991157066613503,2.897264657653516,-6.760642079788343,28.625814425284076,-0.12796506390056978,-1.6349854652786002,-1.579016739304423,0.0550030525480862,-0.12834725008331332,0.5434460986870463,-0.0017394871153176908,-0.1881404507115604,-0.021464290245853324,0.5453258751688899,0.03128398694320642,0.12834725008331332,0.5434460986870463,0.07644450162969922,0.11685285860492681,-0.03694380752503143,-0.20364322433831902,-0.20364322433831902,-0.023052815846335867,315.0,-610.0,-4.600000000000001,427.0,108.60000000000001,240.8,-3.0,10.7,-10.2,1.2,27.7,3.7,rudder_m10_elevator_0,raw_rudder_m10_elevator_0.txt,-10.0,20,2.5,10,1.9991157066613503,2.0
13.0,12.0,57.0,10.0,2.496,10.0,413.36,101159.0,290.83,187.5,-4911.8,-404.0,2351.7,-173.6,2382.8,0.0,1.211735336730007,968.7071003996972,39.98594394612135,443550.0120281531,98.44,98.43,7.75,7.42,0.0,22.321,22.69,30.477,28.669,101159.0,1.4872880806731035e-05,1.9989965482252148,1.999199636363813,1.7538493366361534,-49.19371136392037,115.31625675164946,-7.308366752168292,-4.444354183717343,-15.582024057900789,0.008336822997408825,-0.23383950699734754,0.5481492629840952,-0.024874811923250566,-0.1280520748943163,-0.05303509401862628,0.5479922798842379,-0.015542789806592613,0.23383950699734754,0.5481492629840953,0.04881597217996149,0.2288392853305085,-0.08838738256781006,-0.13040183320240645,-0.13040183320240645,-0.05683401647321001,190.5,-4922.5,-393.8,2350.5,-201.29999999999998,2379.1000000000004,-3.0,10.7,-10.2,1.2,27.7,3.7,rudder_m10_elevator_0,raw_rudder_m10_elevator_0.txt,-10.0,40,2.5,10,1.9989965482252148,2.0
7.0,17.0,28.0,49.0,2.496,0.0,413.42,101102.0,290.77,633.9,505.2,985.7,680.5,249.8,-408.5,0.0,1.2113024600329465,968.8487831196425,39.996012669374075,443574.14790770254,98.43,98.43,6.58,6.93,0.0,20.695,20.891,28.512,28.858,101102.0,1.4875816424686836e-05,1.9997030479599631,1.9997030479599631,5.934854788693803,3.067854914387185,108.32557596267218,-1.7334155781907192,-3.277768489029368,2.6799739045648447,0.028206868916841883,0.014580741148184658,0.5148441588396436,-0.005899003484398887,-0.09442624481561661,0.009120245369911349,0.5155841068364693,0.005758830005502161,-0.014580741148184658,0.5148441588396436,0.028206868916841883,-0.014580741148184658,-0.002184864072101479,-0.10237643454654398,-0.10237643454654398,0.00901644262307791,646.1666666666666,510.43333333333334,990.8666666666667,682.2333333333333,228.9,-411.6,-12.266666666666666,-5.233333333333333,-5.166666666666667,-1.7333333333333336,20.900000000000002,3.1,rudder_m5_elevator_0,raw_rudder_m5_elevator_0.txt,-5.0,40,2.5,0,1.9997030479599631,2.0
8.0,17.0,29.0,34.0,2.496,4.0,413.08,101104.0,290.83,627.8,-1835.1,382.4,1291.8,234.1,937.5,0.0,1.2110765180038419,968.0459187785995,39.98316648035563,443278.0618370876,98.44,98.43,6.62,6.84,0.0,20.888,21.001,28.637,28.774,101104.0,1.4880971569157546e-05,1.9988576958203303,1.9990607698522125,5.932703060890534,-17.792944279978673,108.4607517965905,-4.09078674376746,-3.4874928716434836,-6.121743855621287,0.028220027632489767,-0.08463551505795036,0.5159141425630291,-0.013932942254745782,-0.10055132813999088,-0.02085024445937354,0.5166536484854932,0.005725378830474991,0.08463551505795036,0.5159141425630291,0.034055160147471085,0.08246081758043104,-0.03684384219629513,-0.10850522669398274,-0.10850522669398274,-0.022434999172848916,645.5,-1838.6,389.2,1291.7,212.29999999999998,935.9,-17.7,3.5,-6.8,0.1,21.8,1.6,rudder_m5_elevator_0,raw_rudder_m5_elevator_0.txt,-5.0,40,2.5,4,1.9988576958203303,2.0
5.0,17.0,27.0,28.0,2.496,8.0,413.6,101103.0,290.59,316.8,-4388.7,-237.1,2112.7,-48.2,2249.3,0.0,1.21206476484882,969.2738332785281,39.99220306840241,444024.1348092035,98.44,98.43,6.69,5.99,0.0,20.627,20.687,28.738,28.8,101103.0,1.4859325363624548e-05,1.9993094572777461,1.9995125772063527,3.0314849949308993,-42.40469060551149,113.88142946770279,-6.732263081787941,-4.139748418222957,-14.682518425976724,0.014401565880406107,-0.20145042657795903,0.5410123790077764,-0.02290058337880738,-0.11920594128825703,-0.049944310455505576,0.541126284296638,-0.009172992029632968,0.20145042657795903,0.5410123790077764,0.04229789138782679,0.19748561429226422,-0.07742933206877833,-0.12326506537995355,-0.12326506537995355,-0.05326894608642209,329.6,-4392.0,-228.1,2110.7,-73.80000000000001,2243.5,-12.8,3.3,-9.0,2.0,25.6,5.8,rudder_m5_elevator_0,raw_rudder_m5_elevator_0.txt,-5.0,40,2.5,8,1.9993094572777461,2.0
6.0,17.0,28.0,4.0,2.496,9.995,413.18,101103.0,290.69,139.5,-5411.7,-530.7,2494.5,-212.4,2729.6,0.0,1.2116478035619338,968.2820542389113,39.978614543068126,443602.2211441562,98.43,98.43,7.47,5.58,0.0,20.581,20.759,28.844,28.75,101103.0,1.4868404494148587e-05,1.9988331840940223,1.9988331840940223,1.3125724684712332,-52.893790915303896,115.36345784820567,-6.8395750682852645,-4.484204325729975,-17.84739052685116,0.006241977355441586,-0.25153799357176193,0.5486143499357738,-0.023289447898383605,-0.12925696417201576,-0.06077217775188677,0.5483656958166622,-0.017655902363391873,0.25153799357176193,0.548614349935774,0.04980473894215362,0.2466370054763022,-0.09145021374915423,-0.13101628401776733,-0.13101628401776733,-0.064697144956313,142.5,-5422.4,-520.5,2493.3,-240.1,2725.9,-3.0,10.7,-10.2,1.2,27.7,3.7,rudder_m5_elevator_0,raw_rudder_m5_elevator_0.txt,-5.0,40,2.5,10,1.9988331840940223,2.0
28.0,8.0,10.0,41.0,2.496,-9.995,104.26,101189.0,289.28999999999996,330.2,896.7,533.5,-88.4,83.8,-457.2,0.0,1.2185471305276716,243.22698967108667,19.98019463460076,223798.9645853479,49.21,49.21,0.59,0.58,0.0,19.603,19.399,45.032,44.352,101189.0,1.4728956569678325e-05,1.9981249644581995,1.9981249644581995,2.613840920831155,8.52080265536963,29.33895051356545,-1.046044641833161,-1.9136533810016112,2.840559422068558,0.049484384084391125,0.16131305770954663,0.5554354453156867,-0.01417980994861138,-0.2195947502517446,0.038505615479357116,0.5570635110491933,0.0252484225010611,-0.16131305770954663,0.5554354453156867,0.07673120982660647,-0.15027617340869562,0.029580165622244418,-0.233542070790895,-0.233542070790895,0.03975728940925177,284.59999999999997,870.2,536.1,-83.60000000000001,64.8,-434.7,45.6,26.5,-2.6,-4.8,19.0,-22.5,rudder_0_elevator_0,raw_rudder_0_elevator_0.txt,0.0,20,2.5,-10,1.9981249644581995,2.0
20.0,8.0,3.0,34.0,2.496,-10.0,414.92,101193.0,289.89,683.6,4276.0,2362.5,-391.9,-76.4,-2171.3,0.0,1.2160731113350067,972.3909594001356,39.99038738198461,446306.3469309787,98.42,98.43,6.88,6.75,0.0,21.406,21.947,30.325,30.385,101193.0,1.4782670205155337e-05,1.9996249492965537,1.9994217973155215,5.8498046751061,41.28985933234438,118.92845611132647,-1.0097392902756508,-7.416589613684414,14.027813347794028,0.027701369096436956,0.1955254400497549,0.5631779592281011,-0.003423736231037571,-0.2128794685405792,0.047564290370402176,0.5638500368901678,0.0031488901381546072,-0.1955254400497549,0.5631779592281011,0.061233159407388466,-0.187744677009647,0.049565245623132186,-0.22068718164664555,-0.22068718164664555,0.04967771306264627,638.0,4249.5,2365.1,-387.09999999999997,-95.4,-2148.8,45.6,26.5,-2.6,-4.8,19.0,-22.5,rudder_0_elevator_0,raw_rudder_0_elevator_0.txt,0.0,40,2.5,-10,1.9996249492965537,2.0
26.0,8.0,9.0,3.0,2.496,-8.0,104.24,101190.0,289.33,328.7,671.0,453.6,-22.7,105.8,-350.6,0.0,1.2183907064735384,243.18033430725566,19.979560682557434,223739.12325650058,49.21,49.21,0.6,0.58,0.0,20.185,19.959,44.909,44.134,101190.0,1.4732428520159189e-05,1.9980615659064234,1.9980615659064234,2.7008721050822952,6.304538068544964,29.06200962874485,-1.016482703594064,-1.7175706052780777,2.1996451419946084,0.051141840024383114,0.11937835809494415,0.5502980479614616,-0.01378172238987187,-0.19713175526160212,0.029823329601195405,0.5520031693373514,0.027128037761588182,-0.11937835809494415,0.5502980479614616,0.06725838743643071,-0.11109900765522297,0.018547779873250243,-0.2115462346772814,-0.2115462346772814,0.03060278429156354,294.0,655.5,456.3,-17.299999999999997,86.9,-336.70000000000005,34.7,15.5,-2.7,-5.4,18.9,-13.9,rudder_0_elevator_0,raw_rudder_0_elevator_0.txt,0.0,20,2.5,-8,1.9980615659064234,2.0
25.0,8.0,8.0,10.0,2.496,-4.0,104.33,101191.0,289.37,249.6,428.2,323.7,74.6,129.6,-246.9,0.0,1.2182343256648152,243.39028373602326,19.98946635397758,223797.30524426766,49.21,49.21,0.56,0.58,0.0,20.549,20.332,44.893,43.941,101191.0,1.4735900733930148e-05,1.9990521853531449,1.9990521853531449,2.3299064614085596,3.712117485203861,27.612775519369457,-0.1648759289195914,-1.070392192010539,1.5605708355783914,0.04407943608746352,0.07022944832698436,0.5224053385249141,-0.002233500088357423,-0.12274678804362647,0.02114035154793409,0.5238293575557128,0.021287051648551245,-0.07022944832698436,0.5224053385249141,0.04887101946486486,-0.06698354689448856,0.016623563043344895,-0.13517070794628464,-0.13517070794628464,0.0218442451378315,253.6,417.5,329.7,77.6,106.6,-239.1,-4.0,10.7,-6.0,-3.0,23.0,-7.8,rudder_0_elevator_0,raw_rudder_0_elevator_0.txt,0.0,20,2.5,-4,1.9990521853531449,2.0
15.0,7.0,59.0,55.0,2.496,-3.995,415.08,101192.0,289.75,605.0,2336.1,1540.5,210.3,155.2,-1304.0,0.0,1.2166486644737404,972.7688038271755,39.98869424008703,446666.043676063,98.44,98.42,6.41,7.57,0.0,21.335,21.615,30.295,30.305,101192.0,1.4770140458672607e-05,1.9991340422443982,1.9995402877315438,5.588414801971608,21.11283129232872,111.21177813921176,0.6874384260027631,-4.17427049379646,8.459759605888756,0.026453295349840374,0.0999396039195734,0.5264315763496248,0.002330001096537516,-0.11976816470708398,0.02867347592537017,0.5270841634519289,0.003502292248953324,-0.0999396039195734,0.5264315763496248,0.033351751582638436,-0.09785377832683352,0.02922062074276895,-0.127224104523003,-0.127224104523003,0.029918819906269257,609.0,2325.4,1546.5,213.3,132.2,-1296.2,-4.0,10.7,-6.0,-3.0,23.0,-7.8,rudder_0_elevator_0,raw_rudder_0_elevator_0.txt,0.0,40,2.5,-4,1.9991340422443982,2.0
1.0,7.0,50.0,35.0,-5.003,0.0,416.15,101202.0,289.04999999999995,-712.5,-304.7,-677.2,-537.7,-44.9,145.1,0.0,1.2197155774698278,975.2956993346116,39.99022680162341,448650.62717508303,123.03,123.03,17.61,17.79,0.0,17.271,17.78,34.089,33.593,101202.0,1.4705369044506352e-05,1.5996285235477827,1.5996285235477827,-6.721431338813685,-3.1663429218524537,-75.4105237120606,-1.0934200877537406,5.99503041632642,-0.988469440303608,-0.031734103840804745,-0.014949353792758899,-0.35603806236163577,-0.003696431773671626,0.17156374702536076,-0.0033416340959565157,-0.35191414013263134,-0.06266253403364494,0.014949353792758899,-0.3560380623616357,-0.03173410384080475,0.014949353792758899,-0.0081712325562684,0.1805080983895318,0.1805080983895318,-0.002616306857077556,-731.4,-315.5,-667.6,-528.0,-82.3,151.29999999999998,18.9,10.8,-9.6,-9.7,37.4,-6.2,rudder_0_elevator_0,raw_rudder_0_elevator_0.txt,0.0,40,-5.0,0,1.5996285235477827,1.6
7.0,7.0,54.0,18.0,-5.0,0.0,415.49,101197.0,289.33,1459.2,52.1,-922.2,-925.5,1613.0,-82.3,0.0,1.218474990839042,973.7370409857693,39.97859556381135,447727.296587814,82.03,82.02,0.83,0.83,0.0,23.481,24.357,30.965,30.78,101197.0,1.4731409448451123e-05,2.398452479684511,2.3987449025666967,13.257633833432498,-0.2696693397625085,-73.4722255451341,-0.4063086231071196,6.469241607603115,0.4903263071331226,0.0626938744929595,-0.0012752362868127815,-0.34744197531155196,-0.0013757714861863846,0.1854309064635704,0.001660257533109189,-0.35158398489705356,0.03217374195272375,0.0012752362868127815,-0.34744197531155196,0.0626938744929595,0.0012752362868127815,-0.0015838966782435763,0.16776045184290983,0.16776045184290983,0.0017919854433781223,1440.3,41.3,-912.6,-915.8,1575.6,-76.1,18.9,10.8,-9.6,-9.7,37.4,-6.2,rudder_0_elevator_0,raw_rudder_0_elevator_0.txt,0.0,40,-5.0,0,2.398452479684511,2.4
21.0,8.0,6.0,9.0,2.496,0.0,104.48,101192.0,289.45,-113.3,-50.8,254.6,245.6,-130.7,25.6,0.0,1.2179096580800357,243.7402011165107,20.006496532749907,223880.23999536084,61.52,61.52,1.82,1.43,0.0,21.349,21.333,38.423,39.307,101192.0,1.474299164301762e-05,1.6004091023428386,1.6004091023428386,-0.9319082618249623,-0.4510785254429525,27.399318182824143,-0.6615314907139264,-0.9836431997653596,-0.14677862358023153,-0.017605435719067194,-0.008521690717051646,0.5176227690795845,-0.0089486044791796,-0.11263694683674103,-0.0019854895297582624,0.5163649715108268,-0.04013101834115487,0.008521690717051646,0.5176227690795845,-0.017605435719067187,0.008521690717051646,-0.011253232353620395,-0.10767480252094076,-0.10767480252094076,-0.0024736800489331898,-101.03333333333333,-45.56666666666666,259.76666666666665,247.33333333333331,-151.6,22.5,-12.266666666666666,-5.233333333333333,-5.166666666666667,-1.7333333333333336,20.900000000000002,3.1,rudder_0_elevator_0,raw_rudder_0_elevator_0.txt,0.0,20,2.5,0,1.6004091023428386,1.6
22.0,8.0,6.0,43.0,2.496,0.0,104.43,101192.0,289.40999999999997,402.7,-22.7,167.0,158.0,281.8,12.1,0.0,1.2180779880835713,243.62356175831005,20.000326911601103,223866.14398139532,41.01,41.01,0.2,0.11,0.0,21.186,21.102,34.335,33.595,101192.0,1.4739373210956738e-05,2.40006841422405,2.40006841422405,3.815258420395117,-0.16726073737495267,26.79357289407993,-0.3765608943918384,-0.6325710064314363,-0.05961498266754427,0.07211165324211705,-0.0031613712534193906,0.5064214857181766,-0.005096216670148588,-0.07247036275986547,-0.0008068040866315275,0.5090814621803817,0.0499887646836889,0.0031613712534193906,0.5064214857181767,0.07211165324211705,0.0031613712534193906,-0.005946442188302658,-0.09279524627585775,-0.09279524627585775,-0.0010650040626027685,414.96666666666664,-17.466666666666665,172.16666666666666,159.73333333333332,260.90000000000003,9.0,-12.266666666666666,-5.233333333333333,-5.166666666666667,-1.7333333333333336,20.900000000000002,3.1,rudder_0_elevator_0,raw_rudder_0_elevator_0.txt,0.0,20,2.5,0,2.40006841422405,2.4
23.0,8.0,7.0,7.0,2.496,0.0,104.31,101191.0,289.40999999999997,493.9,-21.9,150.0,143.4,354.5,10.9,0.0,1.2180659507882505,243.34362824262422,19.988931776445074,223736.3857873665,35.15,35.15,-0.16,-0.09,0.0,21.031,20.886,26.85,26.17,101191.0,1.4739518869890942e-05,2.798598214688046,2.798598214688046,4.654314004575608,-0.1689258464752604,26.642614314089887,-0.34189192198866836,-0.5732011392690834,-0.05201633241975676,0.08807172076410835,-0.0031965161710154856,0.5041475254977595,-0.004632344142364678,-0.06574420936734623,-0.00070477696984002,0.5075047145505892,0.06603272047091621,0.0031965161710154856,0.5041475254977595,0.08807172076410835,0.0031965161710154856,-0.0054973492986371735,-0.09056748528883096,-0.09056748528883096,-0.00094351590866166,506.16666666666663,-16.666666666666664,155.16666666666666,145.13333333333333,333.6,7.800000000000001,-12.266666666666666,-5.233333333333333,-5.166666666666667,-1.7333333333333336,20.900000000000002,3.1,rudder_0_elevator_0,raw_rudder_0_elevator_0.txt,0.0,20,2.5,0,2.798598214688046,2.8
24.0,8.0,7.0,32.0,2.496,0.0,104.52,101192.0,289.39,232.4,-28.3,198.6,185.0,143.7,14.5,0.0,1.218162170535493,243.83351276965868,20.00825165955574,223982.337972026,49.21,49.21,0.56,0.54,0.0,20.844,20.649,44.904,43.815,101192.0,1.4737564119370353e-05,2.0009308151026115,2.0009308151026115,2.24850780270859,-0.2276828277309029,26.992761027976172,-0.5098789872201681,-0.77383137595471,-0.07495816123212283,0.04246213089407797,-0.004299695123048848,0.5097470200378204,-0.006894546019007889,-0.08857749222779641,-0.001013578721752513,0.5111126154067658,0.020222546070150726,0.004299695123048848,0.5097470200378204,0.04246213089407798,0.004299695123048848,-0.008054596006220405,-0.10054556986103658,-0.10054556986103658,-0.0013633918642211684,244.66666666666669,-23.066666666666666,203.76666666666665,186.73333333333332,122.79999999999998,11.4,-12.266666666666666,-5.233333333333333,-5.166666666666667,-1.7333333333333336,20.900000000000002,3.1,rudder_0_elevator_0,raw_rudder_0_elevator_0.txt,0.0,20,2.5,0,2.0009308151026115,2.0
4.0,7.0,52.0,15.0,2.507,0.0,416.01,101202.0,289.17999999999995,-839.5,-157.4,1112.5,1105.4,-959.7,55.8,0.0,1.2191672579972812,974.9650714676034,39.99243808047264,448317.21003641264,123.03,123.04,17.64,17.93,0.0,20.15,21.793,34.112,33.614,101202.0,1.4717119291721275e-05,1.599716975777331,1.5995869597682464,-7.6203100498676655,-1.7852427811914882,112.4485216320533,-1.9805467648002115,-4.68383258262846,-0.3436620319839879,-0.03599020876905893,-0.008431580864567688,0.5310867593084246,-0.006697735607830089,-0.13408578760313178,-0.001162182822232218,0.5290041845169331,-0.05918626363895359,0.008431580864567688,0.5310867593084247,-0.03599020876905892,0.008431580864567688,-0.009014681092989352,-0.12394184043149581,-0.12394184043149581,-0.001555385646087859,-827.2333333333333,-152.16666666666669,1117.6666666666667,1107.1333333333334,-980.6,52.699999999999996,-12.266666666666666,-5.233333333333333,-5.166666666666667,-1.7333333333333336,20.900000000000002,3.1,rudder_0_elevator_0,raw_rudder_0_elevator_0.txt,0.0,40,2.5,0,1.599716975777331,1.6
10.0,7.0,55.0,35.0,2.503,0.0,415.81,101196.0,289.40999999999997,1385.5,-105.5,709.6,740.6,833.6,18.3,0.0,1.2181261372648537,974.4927490899582,39.99983251449172,447740.7929164204,82.02,82.01,1.1,0.8,0.0,22.733,22.766,30.455,30.383,101196.0,1.4738790604007414e-05,2.4000191351021867,2.400311784673592,12.849841876790176,-1.4107643979511801,109.44690935532128,-1.029505139611864,-2.989315423938594,-0.10414607197658167,0.060718348791423446,-0.006666174229897956,0.5171608864995387,-0.0034832276780618074,-0.08561770298413823,-0.0003523678187823454,0.5193191554259788,0.038075125903847,0.006666174229897956,0.5171608864995387,0.06071834879142345,0.006666174229897956,-0.005341604378085398,-0.10273134982184928,-0.10273134982184928,-0.0005853085671926376,1397.7666666666667,-100.26666666666667,714.7666666666667,742.3333333333334,812.7,15.200000000000001,-12.266666666666666,-5.233333333333333,-5.166666666666667,-1.7333333333333336,20.900000000000002,3.1,rudder_0_elevator_0,raw_rudder_0_elevator_0.txt,0.0,40,2.5,0,2.4000191351021867,2.4
11.0,7.0,56.0,5.0,2.503,0.0,415.59,101195.0,289.47999999999996,1815.7,-95.1,626.5,672.7,1183.4,9.4,0.0,1.2178195442593014,973.9731987502937,39.994201580787575,447481.08760898915,70.31,70.29,-1.35,-1.37,0.0,22.323,22.209,27.955,28.552,101195.0,1.4745268537566482e-05,2.7993437373512617,2.800140250009492,16.807719264686142,-1.3527964239444383,108.78490427920039,-0.7344969339462756,-2.6219602258463492,-0.047124224930072386,0.07946256144797412,-0.006395672563983172,0.5143069684094561,-0.002486422553237483,-0.07513625314132417,-0.00015952515286951277,0.5172865517376948,0.05692609083472705,0.006395672563983172,0.5143069684094561,0.07946256144797413,0.006395672563983172,-0.00427800307734635,-0.09753301195490754,-0.09753301195490754,-0.00034620061136099244,1827.9666666666667,-89.86666666666666,631.6666666666666,674.4333333333334,1162.5,6.300000000000001,-12.266666666666666,-5.233333333333333,-5.166666666666667,-1.7333333333333336,20.900000000000002,3.1,rudder_0_elevator_0,raw_rudder_0_elevator_0.txt,0.0,40,2.5,0,2.7993437373512617,2.8
12.0,7.0,56.0,55.0,2.503,0.0,415.58,101193.0,289.54999999999995,605.7,-131.5,849.6,867.5,204.7,37.4,0.0,1.2175010680190128,973.9495829321945,39.998947184542295,447333.20355338213,98.42,98.43,7.13,6.35,0.0,21.723,21.592,30.299,30.153,101193.0,1.4751893393639962e-05,2.00005296202351,1.9998497665585067,5.675647094404695,-1.593197371198752,110.35666158098408,-1.4124858080879659,-3.5883151607617805,-0.22693355543395205,0.02683364616817749,-0.007532408873159848,0.5217504823520099,-0.004781669691262952,-0.10283111507022095,-0.0007682351905665951,0.5224245700339878,0.0040223160041163025,0.007532408873159848,0.5217504823520099,0.02683364616817749,0.007532408873159848,-0.006864563830942905,-0.1103942578932872,-0.1103942578932872,-0.0010672893993147873,617.9666666666667,-126.26666666666667,854.7666666666667,869.2333333333333,183.79999999999998,34.3,-12.266666666666666,-5.233333333333333,-5.166666666666667,-1.7333333333333336,20.900000000000002,3.1,rudder_0_elevator_0,raw_rudder_0_elevator_0.txt,0.0,40,2.5,0,2.00005296202351,2.0
2.0,7.0,51.0,6.0,4.995,0.0,416.28,101203.0,289.09,-588.7,-98.3,1607.6,1547.6,-976.6,23.4,0.0,1.219558861881395,975.602712549633,39.99909029687908,448644.2087623428,123.03,123.03,17.84,17.8,0.0,17.882,18.861,34.143,33.598,101203.0,1.4708838790275727e-05,1.5999830676692661,1.5999830676692661,-5.259944205731627,-1.175048692435734,169.55466355550521,-2.1839098326126627,-8.006898540473433,-0.09118293931959014,-0.02482612395185258,-0.005546048274824655,0.8002718145673056,-0.007380633838910459,-0.22906659875827257,-0.0003081573595318149,0.7950710413341843,-0.09441055477591782,0.005546048274824655,0.8002718145673057,-0.024826123951852574,0.005546048274824655,-0.008883007229740933,-0.22206928203082466,-0.22206928203082466,-0.0010804199215521239,-570.1,-83.89999999999999,1622.6,1558.6,-1045.7,13.999999999999998,-18.6,-14.4,-15.0,-11.0,69.1,9.4,rudder_0_elevator_0,raw_rudder_0_elevator_0.txt,0.0,40,5.0,0,1.5999830676692661,1.6
9.0,7.0,55.0,15.0,5.004,0.0,415.74,101196.0,289.4,1657.3,-50.7,1200.8,1143.3,858.4,48.0,0.0,1.2181682287001427,974.3274371323666,39.99574859958378,447722.5561010118,82.02,82.01,0.97,0.85,0.0,23.0,23.175,30.511,30.446,101196.0,1.4737886083598157e-05,2.3997740972280495,2.4000667169204313,15.403073068312322,-0.10428255978122775,164.91248209436063,-1.0788088274293344,-5.981441108621704,-0.25382806380890843,0.07279528056647445,-0.0004928417961660931,0.7793802152162367,-0.0036506610693084127,-0.17134496210794964,-0.0008589475792974189,0.782759283533847,0.0045361641105280265,0.0004928417961660931,0.7793802152162368,0.07279528056647445,0.0004928417961660931,-0.0037002045155150407,-0.1918625280145295,-0.1918625280145295,-0.001178425208073082,1675.8999999999999,-36.300000000000004,1215.8,1154.3,789.3,38.6,-18.6,-14.4,-15.0,-11.0,69.1,9.4,rudder_0_elevator_0,raw_rudder_0_elevator_0.txt,0.0,40,5.0,0,2.3997740972280495,2.4
3.0,7.0,51.0,36.0,7.0,0.0,415.96,101202.0,289.10999999999996,-216.1,70.7,1998.7,1793.5,-909.6,-8.7,0.0,1.2194624456700003,974.8469905261347,39.985175845220525,448428.59782865416,123.04,123.02,17.52,17.53,0.0,18.766,20.138,34.169,33.656,101202.0,1.4710791799752166e-05,1.5992964904354021,1.5995564963678417,-1.7328710417294693,1.1918024030624683,210.12050267760645,-2.0808255092298222,-11.448054933856751,0.149801604776535,-0.008185224019613234,0.005629483914996738,0.9925051224893482,-0.0070377067024908705,-0.3277673505223425,0.000506654572093324,0.9841096119342071,-0.12908016020501156,-0.005629483914996738,0.992505122489348,-0.008185224019613246,-0.005629483914996738,-0.005472134534918107,-0.32546032083613674,-0.32546032083613674,-0.00016400739705239224,-186.25,92.75,2023.05,1810.8,-1024.95,-22.45,-29.85,-22.049999999999997,-24.35,-17.3,115.35,13.75,rudder_0_elevator_0,raw_rudder_0_elevator_0.txt,0.0,40,7.0,0,1.5992964904354021,1.6
6.0,7.0,53.0,47.0,7.006,0.0,416.26,101199.0,289.28999999999996,1969.1,-64.5,1525.0,1461.2,901.2,59.9,0.0,1.2186675534126223,975.5554796455186,40.012746255470425,448228.6736905813,82.02,82.02,0.76,0.72,0.0,23.217,24.648,30.772,30.7,101199.0,1.4727501124805384e-05,2.4007939689828888,2.4007939689828888,18.37156569629595,-0.11028756436188225,205.20409038595218,-1.2244884335809234,-9.15069554273727,-0.30318897947557527,0.08671514978139204,-0.0005205654662625589,0.9685784939472969,-0.004138421008373341,-0.2618017675902159,-0.0010246921144854348,0.9719234217477976,-0.032073016647576655,0.0005205654662625589,0.9685784939472968,0.08671514978139203,0.0005205654662625589,-0.004128163346144382,-0.28624268995349955,-0.28624268995349955,-0.0015205667636800596,1998.9499999999998,-42.45,1549.35,1478.5,785.85,46.15,-29.85,-22.049999999999997,-24.35,-17.3,115.35,13.75,rudder_0_elevator_0,raw_rudder_0_elevator_0.txt,0.0,40,7.0,0,2.4007939689828888,2.4
5.0,7.0,53.0,12.0,7.998,0.0,416.07,101200.0,289.23999999999995,-1.0,83.7,2132.1,1912.3,-837.9,-12.1,0.0,1.2188902649715678,975.106768902776,39.99988835988295,448226.6610461791,123.04,123.03,17.74,18.07,0.0,22.178,23.889,34.051,33.574,101200.0,1.4722834624823383e-05,1.59988495034755,1.6000149905776035,0.21920376729866414,1.3281145638197716,227.38773734274497,-2.189962732440991,-12.982519940662565,0.15728532497014047,0.0010351341192853668,0.006271683722736942,1.0737808393131985,-0.007404854147612045,-0.37160133731949246,0.000531824068834941,1.063480120883671,-0.14837922652465385,-0.006271683722736942,1.0737808393131985,0.0010351341192853802,-0.006271683722736942,-0.005656325609639977,-0.37189309294361145,-0.37189309294361145,-0.0002603618762781646,26.1,102.2,2163.6,1935.5,-984.9,-23.6,-27.1,-18.5,-31.5,-23.2,147.0,11.5,rudder_0_elevator_0,raw_rudder_0_elevator_0.txt,0.0,40,8.0,0,1.59988495034755,1.6
8.0,7.0,54.0,48.0,7.996,0.0,415.97,101196.0,289.39,2151.5,-75.7,1644.4,1580.5,956.7,71.3,0.0,1.2182103230444081,974.8706066959189,40.00620428197657,447867.08634707896,82.02,82.03,1.45,1.07,0.0,23.323,23.761,30.796,30.768,101196.0,1.4736981583929451e-05,2.4004014458001754,2.400108820974404,20.022937936948797,-0.17762156086913505,221.24477833864015,-1.3132507392252137,-10.580127724423313,-0.39223665979802524,0.0945761446297343,-0.0008389759026880526,1.0450253714324462,-0.004441530342210585,-0.3029105332529487,-0.0013265791320613116,1.0480213243085983,-0.051710519867800994,0.0008389759026880526,1.045025371432446,0.09457614462973427,0.0008389759026880526,-0.004447985254951306,-0.32956710034810294,-0.32956710034810294,-0.0019324142346672387,2178.6,-57.2,1675.9,1603.7,809.7,59.8,-27.1,-18.5,-31.5,-23.2,147.0,11.5,rudder_0_elevator_0,raw_rudder_0_elevator_0.txt,0.0,40,8.0,0,2.4004014458001754,2.4
13.0,7.0,57.0,22.0,7.993,0.0,415.45,101195.0,289.54999999999995,1379.4,-43.6,1809.9,1704.9,318.7,49.4,0.0,1.2175251309693753,973.6425781390957,39.99224732172096,447267.1145115298,98.43,98.43,6.55,6.51,0.0,21.541,21.489,30.335,30.288,101195.0,1.475160183984e-05,1.9995147897643073,1.9995147897643073,12.919452455049164,0.061374371638455216,223.34106814641538,-1.7048789287101118,-11.367594559146715,-0.24778680181541324,0.061100579808528586,0.0002902607293568507,1.0562575160427063,-0.00577332413574466,-0.32586630708216974,-0.000839093908282532,1.0544922073611318,-0.08636785087226695,-0.0002902607293568507,1.0562575160427061,0.06110057980852855,-0.0002902607293568507,-0.005519542820059958,-0.3430876868666318,-0.3430876868666318,-0.0015984462728043092,1406.5,-25.1,1841.4,1728.1000000000001,171.7,37.9,-27.1,-18.5,-31.5,-23.2,147.0,11.5,rudder_0_elevator_0,raw_rudder_0_elevator_0.txt,0.0,40,8.0,0,1.9995147897643073,2.0
27.0,8.0,9.0,49.0,2.496,4.0,104.72,101191.0,289.31,212.9,-661.1,31.8,358.0,134.0,373.5,0.0,1.2184869752778251,244.3000732565651,20.024715325582857,224274.53474598163,49.21,49.21,0.54,0.59,0.0,19.909,19.666,45.047,43.803,101191.0,1.473047415228197e-05,2.00257726863807,2.00257726863807,2.1202256798884274,-6.0173717081956966,27.118367808100366,-1.161859810383587,-0.7746376981220002,-2.429493643033065,0.03996310961258835,-0.11341853248705443,0.5111410146143649,-0.015680578745082017,-0.08850044862956734,-0.03278869450495825,0.5123964559724666,0.017665187736511396,0.11341853248705443,0.5111410146143649,0.047777438369641385,0.11035456503588735,-0.0461747876400804,-0.09976416969675117,-0.09976416969675117,-0.03476848210526358,230.6,-664.6,38.6,357.9,112.2,371.9,-17.7,3.5,-6.8,0.1,21.8,1.6,rudder_0_elevator_0,raw_rudder_0_elevator_0.txt,0.0,20,2.5,4,2.00257726863807,2.0
16.0,8.0,0.0,20.0,2.496,3.995,413.97,101192.0,289.75,588.1,-2455.4,229.2,1481.6,182.4,1376.5,0.0,1.2166486644737404,970.1475569108349,39.93478063330014,446063.8390304393,98.42,98.42,6.3,6.11,0.0,21.348,21.644,30.356,30.057,101192.0,1.4770140458672607e-05,1.9968444650527621,1.9968444650527621,5.567716170096241,-22.277326389992847,109.45244233454763,-3.2606117841605644,-3.773363858537424,-8.985771920477616,0.026426525969950966,-0.1057367736430508,0.5195034591316974,-0.011081364873461173,-0.10855787467962313,-0.030538630144265888,0.5201614533888876,0.0037772652805586338,0.1057367736430508,0.5195034591316974,0.03372893269867403,0.10363872671106382,-0.039514854301386314,-0.11600626946636051,-0.11600626946636051,-0.032230514757942134,605.8000000000001,-2458.9,236.0,1481.5,160.6,1374.9,-17.7,3.5,-6.8,0.1,21.8,1.6,rudder_0_elevator_0,raw_rudder_0_elevator_0.txt,0.0,40,2.5,4,1.9968444650527621,2.0
17.0,8.0,1.0,29.0,2.496,3.995,415.08,101195.0,289.81,613.0,-2467.7,227.7,1479.7,195.7,1366.3,0.0,1.216432841075817,972.7688038271755,39.9922415436452,446554.68065121904,98.44,98.42,6.75,6.16,0.0,21.385,21.763,30.413,30.14,101195.0,1.4775134427975379e-05,1.9993113807505953,1.9997176622748283,5.796965784003034,-22.599052039638945,109.5711937655059,-3.605179210516542,-3.842201832801873,-8.920296611360211,0.027440491347036255,-0.1069747718118686,0.5186657134847812,-0.012219380232439956,-0.11024045102797142,-0.03023441823984632,0.5193686603688159,0.004826752194331364,0.1069747718118686,0.5186657134847813,0.03482668488950293,0.10480307433074373,-0.04101364071674655,-0.1179746349660033,-0.1179746349660033,-0.031991863079828646,630.7,-2471.2,234.5,1479.6000000000001,173.89999999999998,1364.7,-17.7,3.5,-6.8,0.1,21.8,1.6,rudder_0_elevator_0,raw_rudder_0_elevator_0.txt,0.0,40,2.5,4,1.9993113807505953,2.0
29.0,8.0,11.0,37.0,2.496,7.995,104.54,101188.0,289.22999999999996,131.1,-1319.7,-130.1,578.5,48.1,714.7,0.0,1.2187878701265824,243.88016865176186,20.00502873465478,224157.49060077552,49.21,49.21,0.64,0.54,0.0,19.357,19.146,45.333,43.908,101188.0,1.4723676383278179e-05,2.0006085055945735,2.0006085055945735,1.3238961355178143,-12.365650134237764,28.547525139050563,-1.7192575823454523,-1.0967676658126901,-4.632984536707024,0.024996442771017948,-0.23347546504167999,0.5390049560899799,-0.02324322665643045,-0.1255187463089272,-0.06263489007593127,0.5395821689726242,0.0014992556700909078,0.23347546504167999,0.5390049560899799,0.05722681064971119,0.2277294602604055,-0.08623676861704467,-0.13256406790111583,-0.13256406790111583,-0.0663310463973233,143.9,-1323.0,-121.1,576.5,22.5,708.9000000000001,-12.8,3.3,-9.0,2.0,25.6,5.8,rudder_0_elevator_0,raw_rudder_0_elevator_0.txt,0.0,20,2.5,8,2.0006085055945735,2.0
14.0,7.0,59.0,10.0,2.496,8.0,415.27,101192.0,289.71,278.5,-5097.7,-397.9,2325.0,-116.1,2734.7,0.0,1.216816646064224,973.2174971615264,39.99515469372042,446847.75104092766,98.43,98.43,6.61,6.4,0.0,21.365,21.536,30.487,30.144,101192.0,1.4766519538545984e-05,1.999660151270639,1.999660151270639,2.67955245368697,-47.732128462512726,115.39088124358642,-6.297831942150655,-4.650451632708861,-17.853155834919452,0.012678069720225253,-0.22584042036938584,0.54596193310994,-0.021336005493261066,-0.13336923638333395,-0.06048351789390686,0.5459960849421572,-0.011110404349533684,0.22584042036938584,0.54596193310994,0.04398559924215059,0.22187811064582447,-0.08227513002486266,-0.13694258796641356,-0.13694258796641356,-0.06400918736215196,291.3,-5101.0,-388.9,2323.0,-141.7,2728.8999999999996,-12.8,3.3,-9.0,2.0,25.6,5.8,rudder_0_elevator_0,raw_rudder_0_elevator_0.txt,0.0,40,2.5,8,1.999660151270639,2.0
19.0,8.0,2.0,25.0,2.496,8.005,415.39,101195.0,289.85999999999996,284.1,-5122.0,-413.4,2337.9,-114.5,2732.8,0.0,1.2162230099778601,973.500884146731,40.01073828644778,446624.3700950521,98.43,98.43,6.52,6.78,0.0,21.407,21.859,30.494,30.118,101195.0,1.477966153200642e-05,2.0004392928848964,2.0004392928848964,2.7312473459338054,-48.142912101942734,115.27225835190951,-6.270643180953514,-4.683874037626978,-17.841965428168702,0.012918897815415026,-0.227717699353539,0.5452419125706429,-0.02123771038273038,-0.13428864694367745,-0.0604280108893895,0.5452872354889873,-0.010838448100877451,0.227717699353539,0.5452419125706429,0.04450487200518189,0.22369972035618704,-0.08270796014269946,-0.13792987664023862,-0.13792987664023862,-0.06397258261515312,296.90000000000003,-5125.3,-404.4,2335.9,-140.1,2727.0,-12.8,3.3,-9.0,2.0,25.6,5.8,rudder_0_elevator_0,raw_rudder_0_elevator_0.txt,0.0,40,2.5,8,2.0004392928848964,2.0
30.0,8.0,12.0,3.0,2.496,10.0,104.35,101189.0,289.22999999999996,275.9,-946.0,-97.8,526.8,108.5,479.3,0.0,1.2187999149132185,243.43693926644173,19.986743073579486,223954.81195587091,49.21,49.21,0.61,0.57,0.0,19.246,19.051,45.458,44.008,101189.0,1.472353087658888e-05,1.9987798429336556,1.9987798429336556,2.5653966121032483,-9.397270636884524,28.90867164337575,0.03468013635036585,-1.6456958592041189,-3.110542281309145,0.04852536591718156,-0.17775263057814264,0.5468175419957251,0.00046970617845903045,-0.18868333268857312,-0.04212904220238281,0.5484120189448478,0.024665620780326625,0.17775263057814264,0.5468175419957251,0.07865457694839231,0.16662582734953021,-0.04774860960086274,-0.20236035111063283,-0.20236035111063283,-0.04416850766254962,278.9,-956.7,-87.6,525.5999999999999,80.8,475.6,-3.0,10.7,-10.2,1.2,27.7,3.7,rudder_0_elevator_0,raw_rudder_0_elevator_0.txt,0.0,20,2.5,10,1.9987798429336556,2.0
18.0,8.0,2.0,4.0,2.496,10.0,415.46,101192.0,289.84999999999997,104.2,-6118.5,-694.4,2709.2,-275.5,3205.9,0.0,1.2162289133388524,973.6661938368817,40.014038132906045,446675.3285531385,98.43,98.43,7.09,6.43,0.0,21.409,21.823,30.55,30.14,101192.0,1.4779194209807951e-05,2.000604277156577,2.000604277156577,0.9882850120363782,-58.29817614634724,116.96068544121563,-6.399412920426812,-4.962308336406782,-20.96031974134215,0.004673829859607881,-0.2757056447431462,0.5531343057494799,-0.021670154018181707,-0.14224732094419265,-0.07097734787754952,0.5528130711274231,-0.019419404552723646,0.2757056447431462,0.5531343057494799,0.05247860666413522,0.27070545445443367,-0.09619328635434857,-0.14356465376349645,-0.14356465376349645,-0.07509919218030453,107.2,-6129.2,-684.1999999999999,2708.0,-303.2,3202.2000000000003,-3.0,10.7,-10.2,1.2,27.7,3.7,rudder_0_elevator_0,raw_rudder_0_elevator_0.txt,0.0,40,2.5,10,2.000604277156577,2.0
