run,hr,min,sec,AoA,AoS,dPb,pBar,temp,B1,B2,B3,B4,B5,B6,rpmWT,rho,q,V,Re,rpsM1,rpsM2,iM1,iM2,dPtQ,tM1,tM2,vM1,vM2,pInf,nu,J_M1,J_M2,FX,FY,FZ,MX,MY,MZ,CFX,CFY,CFZ,CMX,CMY,CMZ,CN,CT,CY,CL,CD,CYaw,CMroll,CMpitch,CMpitch25c,CMyaw,B1_zeroed,B2_zeroed,B3_zeroed,B4_zeroed,B5_zeroed,B6_zeroed,B1_zero,B2_zero,B3_zero,B4_zero,B5_zero,B6_zero,config,source_file,dR,dE,V_round,AoA_round,AoS_round,J,J_round,CD_modeloff,CYaw_modeloff,CL_modeloff,CMroll_modeloff,CMpitch_modeloff,CMyaw_modeloff,modeloff_correction_found,CD_uncorrected,CYaw_uncorrected,CL_uncorrected,CMroll_uncorrected,CMpitch_uncorrected,CMyaw_uncorrected,CMpitch25c_uncorrected,esb,e_total_blockage,V_solid_blockage_corr,CL_solid_blockage_corr,CD_solid_blockage_corr,CY_solid_blockage_corr,CMroll_solid_blockage_corr,CMpitch_solid_blockage_corr,CMyaw_solid_blockage_corr
22.0,14.0,51.0,33.0,-0.0,-9.995,102.77,101040.0,293.59,391.5,53.3,153.9,49.4,176.9,74.9,244.422,1.1989319324846828,239.75126642027644,19.99853530622717,217893.5225100153,0.0,0.0,0.0,0.0,0.0,0.0,0.0,0.0,0.0,101040.0,1.514203372836018e-05,inf,inf,3.5902332851758416,1.7724958322027904,16.825689648695143,0.1731983175786661,-1.4844925967621123,-0.4840164241107088,0.0689544883295411,0.0340427859327256,0.3231563880007328,0.002381851683437,-0.1728174399301253,-0.0066562732865789,0.3231563880007328,0.0689544883295411,-0.0340427859327256,0.30590638800073294,0.0459165014233148,-0.011208220067342801,0.005976911948098899,-0.1522024671440657,-0.1522024671440657,-0.0142562732865789,390.5,53.3,153.9,49.4,176.9,74.9,1.0,0.0,0.0,0.0,0.0,0.0,tailOff_alfa0_balance,raw_tailOff_alfa0_balance.txt,0,0,20,-0.0,-10,inf,inf,0.0278999999999999,-0.01035,0.0172499999999999,0.006,-0.0400499999999999,0.0076,True,0.0738165014233147,-0.0215582200673428,0.3231563880007328,0.0119769119480989,-0.1922524671440656,-0.0066562732865789,-0.1922524671440656,0.006406642,0.006406642,19.87122746575352,0.30202407120490593,0.0453337662740216,-0.03361074239003551,0.005901057809207142,-0.15027083636505006,-0.014075344180821707
22.0,18.0,39.0,1.0,0.0,-10.0,229.65,100884.0,294.79,835.5,355.7,393.1,63.1,381.8,37.6,359.961,1.192207899625275,536.4604639763018,29.99907478761721,323998.0007564202,0.0,0.0,0.0,0.0,0.0,0.0,0.0,0.0,0.0,100884.0,1.5275515326537995e-05,inf,inf,7.679918190672924,6.135252112393879,37.378169480497306,1.1140404219553826,-3.132740650915592,-0.2339603745263341,0.0659203726864933,0.0526617726560916,0.3208345194986245,0.0068469189001864,-0.1629885750300498,-0.0014379260201594,0.3208345194986245,0.0659203726864933,-0.0526617726560916,0.30358451949862464,0.0461635149575534,-0.0300647694109508,0.0156897958397431,-0.1415184277438031,-0.1415184277438031,-0.0090379260201594,835.4,355.7,393.1,63.1,381.8,37.6,0.1,0.0,0.0,0.0,0.0,0.0,tailOff_alfa0_V50_balance,raw_tailOff_alfa0_V50_balance.txt,0,0,30,0.0,-10,inf,inf,0.0278999999999999,-0.01035,0.0172499999999999,0.006,-0.0400499999999999,0.0076,True,0.0740635149575533,-0.0404147694109508,0.3208345194986245,0.0216897958397431,-0.181568427743803,-0.0014379260201594,-0.181568427743803,0.006406642,0.006406642,29.808104930628243,0.29973166998245254,0.04557764491199655,-0.05199343197246953,0.01549067362359773,-0.1397223901633539,-0.008923223963047004
43.0,15.0,9.0,52.0,-0.0,-9.995,231.21,101030.0,293.16,840.4,336.6,394.5,66.8,381.8,49.6,360.482,1.200571663671001,540.1177996955827,29.99612801245036,327640.2190327899,0.0,0.0,0.0,0.0,0.0,0.0,0.0,0.0,0.0,101030.0,1.5104220974574322e-05,inf,inf,7.716722636469482,5.978440771608014,37.69139193133209,0.9865092834656922,-3.1714892516860207,-0.3122454678384276,0.0657877725008526,0.0509683086876262,0.3213323627701898,0.0060220539550752,-0.16388726031374,-0.0019060733498065,0.3213323627701898,0.0657877725008526,-0.0509683086876262,0.3040823627701899,0.0457354787283417,-0.028426484801346304,0.014387623048394799,-0.1423797392715721,-0.1423797392715721,-0.0095060733498065,839.4,336.6,394.5,66.8,381.8,49.6,1.0,0.0,0.0,0.0,0.0,0.0,tailOff_alfa0_balance,raw_tailOff_alfa0_balance.txt,0,0,30,-0.0,-10,inf,inf,0.0278999999999999,-0.01035,0.0172499999999999,0.006,-0.0400499999999999,0.0076,True,0.0736354787283416,-0.0387764848013463,0.3213323627701898,0.0203876230483948,-0.182429739271572,-0.0019060733498065,-0.182429739271572,0.006406642,0.006406642,29.805176914214325,0.3002231950293232,0.04515504097288102,-0.05032146008088056,0.01420502695755188,-0.140572770620894,-0.009385429944908957
1.0,14.0,34.0,24.0,-0.0,-10.0,409.54,101064.0,293.54999999999995,1234.6,1415.3,891.0,-11.2,543.3,-374.2,473.888,1.199380123268635,959.687319755682,40.00381889759869,436069.4496805056,0.0,0.0,0.0,0.0,0.0,0.0,0.0,0.0,0.0,101064.0,1.5134780637660196e-05,inf,inf,11.337239311579536,17.95938431206239,67.32213059840578,4.299914456600937,-4.89122279941642,2.4630152381140262,0.054397424560752,0.086171265016444,0.3230196011435922,0.014772772669167,-0.1422519178627558,0.0084619274547418,0.3230196011435922,0.054397424560752,-0.086171265016444,0.3057696011435923,0.040634488588685,-0.0650661162303148,0.0330603994970318,-0.11753399344359311,-0.11753399344359311,0.0008619274547418008,1233.6,1415.3,891.0,-11.2,543.3,-374.2,1.0,0.0,0.0,0.0,0.0,0.0,tailOff_alfa0_balance,raw_tailOff_alfa0_balance.txt,0,0,40,-0.0,-10,inf,inf,0.0278999999999999,-0.01035,0.0172499999999999,0.006,-0.0400499999999999,0.0076,True,0.0685344885886849,-0.0754161162303148,0.3230196011435922,0.0390603994970318,-0.157583993443593,0.0084619274547418,-0.157583993443593,0.006406642,0.006406642,39.7491602580249,0.30188902033607334,0.04011878848000563,-0.08507764892141102,0.032640823609509734,-0.1160423469310476,0.000850988567665273
1.0,18.0,29.0,12.0,0.0,-10.0,633.35,100886.0,294.78,1407.5,3554.4,1732.8,-237.6,560.3,-1360.4,585.896,1.1922719796384158,1490.425654803632,50.00143723958397,540072.0228653919,0.0,0.0,0.0,0.0,0.0,0.0,0.0,0.0,0.0,100886.0,1.5274294066748413e-05,inf,inf,12.92699028096722,39.92175969816736,105.45761677386376,10.138846457721408,-6.35292653846686,8.904455911933553,0.0399381446776587,0.123338919575086,0.325813005543664,0.0224290141149314,-0.1189690399822078,0.019698312640137,0.325813005543664,0.0399381446776587,-0.123338919575086,0.3085630055436641,0.0328489731391034,-0.1041799382030202,0.0511924547052496,-0.09017572460837822,-0.09017572460837822,0.012098312640137002,1407.4,3554.4,1732.8,-237.6,560.3,-1360.4,0.1,0.0,0.0,0.0,0.0,0.0,tailOff_alfa0_V50_balance,raw_tailOff_alfa0_V50_balance.txt,0,0,50,0.0,-10,inf,inf,0.0278999999999999,-0.01035,0.0172499999999999,0.006,-0.0400499999999999,0.0076,True,0.0607489731391033,-0.1145299382030202,0.325813005543664,0.0571924547052496,-0.1302257246083781,0.019698312640137,-0.1302257246083781,0.006406642,0.006406642,49.68313517905417,0.30464697310373295,0.032432080504147025,-0.12177360162872011,0.05054276141829108,-0.0890312871466076,0.01194477062791901
22.0,19.0,8.0,11.0,4.995,-10.0,102.48,100880.0,294.09,460.8,45.1,319.8,216.5,277.1,85.4,245.432,1.194998238212723,239.0748072582547,20.003144511232943,216943.08783935255,0.0,0.0,0.0,0.0,0.0,0.0,0.0,0.0,0.0,100880.0,1.5211876648698733e-05,inf,inf,4.242986605372691,1.7707885485126746,39.73390080033878,0.1944453386182961,-0.8745325005603188,-0.5524662129488952,0.081721932420407,0.0341062264747999,0.7652937560285383,0.0026816103776565,-0.1020969058991951,-0.007619103345319,0.7695028312319062,0.0147783619144377,-0.0341062264747999,0.7582437560285384,0.0585028767132013,-0.0080472116181495,0.0070112467764083,-0.086780475127871,-0.086780475127871,-0.0138660014101079,461.7,45.1,319.8,216.5,277.1,85.4,-0.9,0.0,0.0,0.0,0.0,0.0,tailOff_alfa5_betaSweep_balance,raw_tailOff_alfa5_betaSweep_balance.txt,0,0,20,5.0,-10,inf,inf,0.0278999999999999,-0.0113499999999999,0.00705,0.0059,-0.0383499999999999,0.0074,True,0.0864028767132012,-0.0193972116181494,0.7652937560285384,0.0129112467764083,-0.1251304751278709,-0.0064660014101079,-0.1251304751278709,0.006406642,0.006406642,19.875807329213696,0.7486207387107259,0.05776040545474783,-0.03367337779599075,0.00692226569530818,-0.08567912743016298,-0.01369002531978417
43.0,19.0,16.0,56.0,4.995,-10.0,230.41,100869.0,293.85,980.1,339.1,773.5,436.1,600.5,65.6,360.982,1.195843835378437,538.2422147816898,30.003135386636743,325833.3048954884,0.0,0.0,0.0,0.0,0.0,0.0,0.0,0.0,0.0,100869.0,1.5191529742659524e-05,inf,inf,9.01423848499376,6.214706132391117,89.00979496309276,1.086125770347353,-1.707692153621445,-0.4161746662097486,0.0771173447898202,0.053167179499062,0.7614840742528661,0.0066532572669863,-0.0885527937424118,-0.0025493522001693,0.7653067015279814,0.0105229655771405,-0.053167179499062,0.7544340742528661,0.05727814287243341,-0.0276181641872034,0.015878376831475,-0.0719385462795659,-0.0719385462795659,-0.008043453213989001,981.0,339.1,773.5,436.1,600.5,65.6,-0.9,0.0,0.0,0.0,0.0,0.0,tailOff_alfa5_betaSweep_balance,raw_tailOff_alfa5_betaSweep_balance.txt,0,0,30,5.0,-10,inf,inf,0.0278999999999999,-0.0113499999999999,0.00705,0.0059,-0.0383499999999999,0.0074,True,0.0851781428724333,-0.0389681641872033,0.7614840742528661,0.021778376831475,-0.1102885462795658,-0.000643453213989,-0.1102885462795658,0.006406642,0.006406642,29.812139680450105,0.7448594063390692,0.056551214946669086,-0.05249242460000621,0.01567686129769949,-0.07102556035497035,-0.007941372202496546
1.0,18.0,58.0,13.0,4.995,-10.0,408.1,100879.0,294.09,1516.7,1265.8,1533.8,671.7,940.9,-258.5,474.189,1.194986392472852,956.287543520823,40.006242879793255,433881.3742328097,0.0,0.0,0.0,0.0,0.0,0.0,0.0,0.0,0.0,100879.0,1.5212027441992168e-05,inf,inf,13.941104268821178,16.999277300406423,158.49143364876977,3.950624891955846,-2.4880116596184507,1.7089835670670854,0.0671288887212795,0.0818545340625049,0.763164352516815,0.0136210081446844,-0.0726163396281787,0.0058922524215221,0.7661109156353548,0.000426142841895,-0.0818545340625049,0.756114352516815,0.0524229407375395,-0.0576041705687004,0.030139575123117403,-0.053186816173586005,-0.053186816173586005,0.0016077982627493003,1517.6,1265.8,1533.8,671.7,940.9,-258.5,-0.9,0.0,0.0,0.0,0.0,0.0,tailOff_alfa5_betaSweep_balance,raw_tailOff_alfa5_betaSweep_balance.txt,0,0,40,5.0,-10,inf,inf,0.0278999999999999,-0.0113499999999999,0.00705,0.0059,-0.0383499999999999,0.0074,True,0.0803229407375394,-0.0689541705687003,0.763164352516815,0.0360395751231174,-0.0915368161735859,0.0090077982627493,-0.0915368161735859,0.006406642,0.006406642,39.751568809492476,0.7465183598684534,0.05175763111572308,-0.08081570243011447,0.029757067979398363,-0.0525118120617177,0.0015873933858176093
64.0,19.0,25.0,39.0,4.995,-9.995,633.68,100878.0,294.6,1890.3,3259.0,2709.4,851.7,1214.3,-1125.8,587.639,1.1929058535258057,1491.21163260932,50.00132977212115,540613.031526579,0.0,0.0,0.0,0.0,0.0,0.0,0.0,0.0,0.0,100878.0,1.525897579870168e-05,inf,inf,17.363874369472402,38.0991286105428,248.3797686273166,10.054191569401814,-2.558027952244176,7.377570215022771,0.0536176941733159,0.1176458308003748,0.7669688336672228,0.0222300187290149,-0.0478780489138635,0.0163119553593642,0.7687245449036382,-0.0133649918824378,-0.1176458308003748,0.7599188336672228,0.045322806710955704,-0.0952043016989164,0.0478582326255747,-0.02464035517052081,-0.02464035517052081,0.013530672684098199,1891.2,3259.0,2709.4,851.7,1214.3,-1125.8,-0.9,0.0,0.0,0.0,0.0,0.0,tailOff_alfa5_betaSweep_balance,raw_tailOff_alfa5_betaSweep_balance.txt,0,0,50,5.0,-10,inf,inf,0.0278999999999999,-0.0113499999999999,0.00705,0.0059,-0.0383499999999999,0.0074,True,0.0732228067109556,-0.1065543016989163,0.7669688336672228,0.0537582326255747,-0.0629903551705207,0.0209306726840982,-0.0629903551705207,0.006406642,0.006406642,49.68302839571398,0.7502745576169807,0.04474760625542438,-0.11615276493842809,0.04725085459219927,-0.024327639684718575,0.013358952315119875
1.0,19.0,45.0,41.0,10.0,-9.995,407.22,100856.0,294.48,2258.8,1261.3,1997.0,1041.2,1662.6,-192.7,477.301,1.1931316990921288,954.20999696202,39.99381071752838,432630.0336339871,0.0,0.0,0.0,0.0,0.0,0.0,0.0,0.0,0.0,100856.0,1.5251285867455426e-05,inf,inf,20.76027393339195,17.760724778879965,227.35697312334656,3.230973554189155,-0.3241262088392957,1.2784809995011126,0.1001820463898683,0.0857072387110222,1.0971477014986428,0.0111640403286029,-0.0094807048920772,0.0044175581131814,1.0978759924259316,-0.0918576429993295,-0.0857072387110222,1.1059977014986424,0.0841371137658198,-0.05156863161880589,0.0260171755165661,-0.0005673120383763997,-0.0005673120383763997,0.0028574660170708997,2259.6000000000004,1262.3,1997.0,1041.1,1662.6,-192.2,-0.8,-1.0,0.0,0.1,0.0,-0.5,tailOff_alfa10_betaSweep_balance,raw_tailOff_alfa10_betaSweep_balance.txt,0,0,40,10.0,-10,inf,inf,0.0293999999999999,-0.0154499999999999,-0.0088499999999999,0.008,-0.0371499999999999,0.0074,True,0.1135371137658197,-0.0670186316188058,1.0971477014986426,0.0340171755165661,-0.0377173120383763,0.0102574660170709,-0.0377173120383763,0.006406642,0.006406642,39.73921578861001,1.0919612719858858,0.08306931347547519,-0.08461951166306347,0.02568698653899005,-0.0005601121722034242,0.0028212013663583666
23.0,14.0,52.0,28.0,-0.0,-9.0,102.82,101043.0,293.53,386.3,5.8,135.1,65.5,178.5,84.3,244.35,1.1992126092702422,239.8678980969433,20.00105800971023,218006.47868457355,0.0,0.0,0.0,0.0,0.0,0.0,0.0,0.0,0.0,101043.0,1.5136097246511229e-05,inf,inf,3.563791514232437,1.1154537820306774,16.700000172438674,0.0255703906070324,-1.4589224152761573,-0.5483218281031311,0.0684133632170753,0.0214131338595886,0.3205864240260806,0.0003514772245241,-0.1697581010799164,-0.0075369452602218,0.3205864240260806,0.0684133632170753,-0.0214131338595886,0.3049364240260806,0.05312083333056511,0.0527027052277476,-0.011213167436343301,-0.1807906105746816,-0.1807906105746816,-0.030636945260221798,387.6,4.6,136.1,65.2,176.7,84.6,-1.3,1.2,-1.0,0.3,1.8,-0.3,tailOff_alfa0_balance,raw_tailOff_alfa0_balance.txt,0,0,20,-0.0,-9,inf,inf,0.0178,-0.06315,0.01565,0.0176,-0.0082499999999999,0.0231,True,0.0709208333305651,-0.0104472947722524,0.3205864240260806,0.0063868325636567,-0.1890406105746815,-0.0075369452602218,-0.1890406105746815,0.006406642,0.006406642,19.873734110063864,0.3010664172295797,0.05244666661964606,-0.021141375660037126,-0.011070858972119822,-0.17849616216989633,-0.03024812589644863
23.0,18.0,39.0,21.0,0.0,-9.0,229.93,100885.0,294.76,825.5,269.4,355.7,96.2,384.0,48.5,359.861,1.192341058638124,537.116892264284,30.01574683811783,324239.76081558905,0.0,0.0,0.0,0.0,0.0,0.0,0.0,0.0,0.0,100885.0,1.527260864824914e-05,inf,inf,7.610442516659136,4.923004843030476,37.18335175949628,0.919271992260495,-3.034375033472074,-0.3142385123631362,0.0652441954400664,0.0422048375541866,0.318772248000408,0.0056429626144469,-0.157677921477628,-0.0019289570357998,0.318772248000408,0.0652441954400664,-0.0422048375541866,0.303122248000408,0.05324322231256311,0.0316712148416652,-6.147864388759972e-05,-0.1678171916273726,-0.1678171916273726,-0.025028957035799798,827.8,270.4,357.7,94.5,383.7,49.6,-2.3,-1.0,-2.0,1.7,0.3,-1.1,tailOff_alfa0_V50_balance,raw_tailOff_alfa0_V50_balance.txt,0,0,30,0.0,-9,inf,inf,0.0178,-0.06315,0.01565,0.0176,-0.0082499999999999,0.0231,True,0.0710432223125631,-0.0314787851583348,0.318772248000408,0.0175385213561124,-0.1760671916273725,-0.0019289570357998,-0.1760671916273725,0.006406642,0.006406642,29.82467084921905,0.2992752652607144,0.05256750233953816,-0.0416692078448084,-6.0698406595696796e-05,-0.16568739137723232,-0.024711309728997283
44.0,15.0,10.0,48.0,-0.0,-9.0,231.24,101033.0,293.21,826.7,255.6,356.7,99.7,382.9,56.2,360.388,1.2004025785706722,540.1881352820836,30.00019368232209,327595.2574374111,0.0,0.0,0.0,0.0,0.0,0.0,0.0,0.0,0.0,101033.0,1.5108341493950498e-05,inf,inf,7.612312665109104,4.7528234795676765,37.42048281378853,0.8197734391532697,-3.069991351655834,-0.3594015310234338,0.0648891907561377,0.0405142146629754,0.3189812287427757,0.0050035789577146,-0.158621682484104,-0.0021936474788164,0.3189812287427757,0.0648891907561377,-0.0405142146629754,0.3033312287427757,0.052628116637818606,0.0332854883918405,-0.0011773693807997018,-0.1686608935099195,-0.1686608935099195,-0.0252936474788164,828.0,254.4,357.7,99.4,381.1,56.5,-1.3,1.2,-1.0,0.3,1.8,-0.3,tailOff_alfa0_balance,raw_tailOff_alfa0_balance.txt,0,0,30,-0.0,-9,inf,inf,0.0178,-0.06315,0.01565,0.0176,-0.0082499999999999,0.0231,True,0.0704281166378186,-0.0298645116081595,0.3189812287427757,0.0164226306192003,-0.1769108935099194,-0.0021936474788164,-0.1769108935099194,0.006406642,0.006406642,29.80921670260806,0.29948159378829375,0.05196020308919648,-0.04000004097381584,-0.0011624271595801823,-0.1665203856769442,-0.024972640934701664
2.0,14.0,35.0,13.0,-0.0,-9.0,409.53,101062.0,293.6,873.5,2482.2,1110.9,-172.0,361.8,-1055.2,473.326,1.1991521381411114,959.6637095367728,40.00712938203797,435965.2178233158,0.0,0.0,0.0,0.0,0.0,0.0,0.0,0.0,0.0,101062.0,1.5139651872161483e-05,inf,inf,8.034865103269883,26.568910250178607,66.46303205089573,7.186755114049739,-3.794998180948376,6.900162389480778,0.0385531882588163,0.127483932280316,0.3189053896956089,0.0246914008676768,-0.110373023939446,0.0237067595746602,0.3189053896956089,0.0385531882588163,-0.127483932280316,0.3032553896956089,0.0402214152834985,-0.056733346145625,0.0430231255926445,-0.1129893544879865,-0.1129893544879865,0.0006067595746601998,874.8,2481.0,1111.9,-172.3,360.0,-1054.9,-1.3,1.2,-1.0,0.3,1.8,-0.3,tailOff_alfa0_balance,raw_tailOff_alfa0_balance.txt,0,0,40,-0.0,-9,inf,inf,0.0178,-0.06315,0.01565,0.0176,-0.0082499999999999,0.0231,True,0.0580214152834985,-0.119883346145625,0.3189053896956089,0.0606231255926445,-0.1212393544879864,0.0237067595746602,-0.1212393544879864,0.006406642,0.006406642,39.75244966838958,0.29940671722905843,0.03971095756756912,-0.1258660091806233,0.04247711083241367,-0.11155538486235936,0.0005990590722184969
2.0,18.0,29.0,31.0,0.0,-9.0,633.83,100890.0,294.9,1423.5,3412.5,1644.8,-173.3,584.1,-1386.7,585.486,1.1918340759998889,1491.568898580019,50.02979902072832,540010.0943183695,0.0,0.0,0.0,0.0,0.0,0.0,0.0,0.0,0.0,100890.0,1.52847105963934e-05,inf,inf,13.097404418315447,37.3651629671605,104.60832596237216,9.852043344744065,-6.2251496461350255,9.064641644084602,0.0404336269395255,0.1153517912171989,0.3229413929385904,0.0217778474012106,-0.1164868544357078,0.0200373034875905,0.3229413929385904,0.0404336269395255,-0.1153517912171989,0.3072913929385904,0.040180817646637695,-0.04445640645207111,0.0366900921555898,-0.11963319220813001,-0.11963319220813001,-0.0030626965124095004,1425.8,3413.5,1646.8,-175.0,583.8000000000001,-1385.6,-2.3,-1.0,-2.0,1.7,0.3,-1.1,tailOff_alfa0_V50_balance,raw_tailOff_alfa0_V50_balance.txt,0,0,50,0.0,-9,inf,inf,0.0178,-0.06315,0.01565,0.0176,-0.0082499999999999,0.0231,True,0.0579808176466377,-0.1076064064520711,0.3229413929385904,0.0542900921555898,-0.1278831922081299,0.0200373034875905,-0.1278831922081299,0.006406642,0.006406642,49.711316413120734,0.303391498778761,0.03967087516312463,-0.11388783945274543,0.036224451140549126,-0.11811490436038846,-0.00302382724201486
23.0,19.0,8.0,33.0,4.995,-9.0,102.69,100872.0,294.04999999999995,453.2,3.4,303.0,230.0,278.9,91.6,245.302,1.1950660165511644,239.5646562188622,20.023058776185497,217194.2181037733,0.0,0.0,0.0,0.0,0.0,0.0,0.0,0.0,0.0,100872.0,1.520941473035213e-05,inf,inf,4.199057916502189,1.1779739634858006,39.50976132161615,0.0238332370953217,-0.8177168165329878,-0.5958524066325611,0.0807104744681739,0.0226419447872944,0.7594207190760197,0.0003280138966756,-0.0952687846265562,-0.0082006430331482,0.763564031873128,0.0142821035029604,-0.0226419447872944,0.7539707190760198,0.0654587751163877,0.0544127150217624,-0.010101748020264801,-0.11146727142907499,-0.11146727142907499,-0.0304253424703203,456.9,2.9,303.8,228.5,277.9,91.9,-3.7,0.5,-0.8,1.5,1.0,-0.3,tailOff_alfa5_betaSweep_balance,raw_tailOff_alfa5_betaSweep_balance.txt,0,0,20,5.0,-9,inf,inf,0.0178,-0.06415,0.00545,0.0175,-0.0065499999999999,0.0229,True,0.0832587751163877,-0.0097372849782376,0.7594207190760197,0.0073982519797352,-0.1180172714290749,-0.0075253424703203,-0.1180172714290749,0.006406642,0.006406642,19.8955948227789,0.7444019316918753,0.06462802521368215,-0.02235459151195943,-0.009973544793576405,-0.11005261885224463,-0.03003920859824493
44.0,19.0,17.0,23.0,4.995,-9.0,230.32,100869.0,293.85,981.8,179.8,718.2,478.6,611.1,113.7,360.879,1.195843835378437,538.0312151854482,29.99725395460726,325769.4326897676,0.0,0.0,0.0,0.0,0.0,0.0,0.0,0.0,0.0,100869.0,1.5191529742659524e-05,inf,inf,9.056311671356882,4.262818128924827,88.42292152277926,0.5775117225447581,-1.626935763807639,-0.7344645151117276,0.0775076676451747,0.0364829637890574,0.7567599992476972,0.0035390384954762,-0.0843982368881784,-0.0045008578892357,0.7606345520878821,0.0113231256831528,-0.0364829637890574,0.7513099992476973,0.0644606125632854,0.0402410725597823,-0.0033387368515377016,-0.09969400308071309,-0.09969400308071309,-0.0261507606790381,985.5,179.3,719.0,477.1,610.1,114.0,-3.7,0.5,-0.8,1.5,1.0,-0.3,tailOff_alfa5_betaSweep_balance,raw_tailOff_alfa5_betaSweep_balance.txt,0,0,30,5.0,-9,inf,inf,0.0178,-0.06415,0.00545,0.0175,-0.0065499999999999,0.0229,True,0.0822606125632854,-0.0239089274402177,0.7567599992476972,0.0141612631484623,-0.106244003080713,-0.0032507606790381,-0.106244003080713,0.006406642,0.006406642,29.806295688783084,0.7417749795705497,0.06364253053348765,-0.03601995147994712,-0.003296364300116708,-0.09842876731648788,-0.02581887634647673
2.0,18.0,58.0,36.0,4.995,-9.0,407.74,100879.0,294.15,1197.2,2179.6,1698.0,549.9,796.1,-856.6,473.852,1.194742642061333,955.4376294478546,39.99253986937239,433575.91977945965,0.0,0.0,0.0,0.0,0.0,0.0,0.0,0.0,0.0,100879.0,1.5217530201144966e-05,inf,inf,11.026344080125735,24.19995545562766,157.4489043633164,6.866310813737869,-1.3098424616877704,5.605628820047655,0.0531410314876994,0.1166307332261091,0.7588188001094337,0.0236948013648026,-0.0382637177550792,0.0193443415276355,0.7605639602758375,-0.0131302306389381,-0.1166307332261091,0.7533688001094339,0.052931843567076,-0.042731726530025604,0.0371684044962029,-0.046691675218913195,-0.046691675218913195,0.0011307903395127994,1200.9,2179.1,1698.8,548.4,795.1,-856.3000000000001,-3.7,0.5,-0.8,1.5,1.0,-0.3,tailOff_alfa5_betaSweep_balance,raw_tailOff_alfa5_betaSweep_balance.txt,0,0,40,5.0,-9,inf,inf,0.0178,-0.06415,0.00545,0.0175,-0.0065499999999999,0.0229,True,0.070731843567076,-0.1068817265300256,0.7588188001094338,0.0546684044962029,-0.0532416752189131,0.0240307903395128,-0.0532416752189131,0.006406642,0.006406642,39.73795303049321,0.7438076517946433,0.05226007536158807,-0.11515055016268037,0.036696693127268185,-0.04609910218991436,0.001116439261863388
65.0,19.0,25.0,59.0,4.995,-8.995,633.68,100875.0,294.67999999999995,1907.2,3071.4,2605.4,924.6,1244.5,-1137.4,587.513,1.1925465362691263,1491.21163260932,50.008861967710864,540418.2330017007,0.0,0.0,0.0,0.0,0.0,0.0,0.0,0.0,0.0,100875.0,1.5266775470516725e-05,inf,inf,17.5464685360332,34.961132708813025,247.15665394107765,9.576388815036587,-2.3696745404412134,7.446431570399929,0.0541815244552085,0.1079560518376871,0.7631919928660161,0.0211735872790077,-0.044352679358975,0.016464209193914,0.7650111394410456,-0.0124744578320915,-0.1079560518376871,0.7577419928660161,0.05259394163190731,-0.0340072193075749,0.0324718355339701,-0.0530739028542066,-0.0530739028542066,-0.0021473287772173014,1910.9,3070.9,2606.2000000000003,923.1,1243.5,-1137.1,-3.7,0.5,-0.8,1.5,1.0,-0.3,tailOff_alfa5_betaSweep_balance,raw_tailOff_alfa5_betaSweep_balance.txt,0,0,50,5.0,-9,inf,inf,0.0178,-0.06415,0.00545,0.0175,-0.0065499999999999,0.0229,True,0.0703939416319073,-0.0981572193075749,0.763191992866016,0.0499718355339701,-0.0596239028542065,0.0207526712227827,-0.0596239028542065,0.006406642,0.006406642,49.69051264241444,0.7481253435209879,0.05192646180485705,-0.10658596082389754,0.032059729224883926,-0.05240033174698774,-0.002120076614774935
2.0,19.0,46.0,27.0,10.0,-9.0,407.23,100854.0,294.54999999999995,1979.0,2092.2,2129.9,943.4,1543.7,-737.2,477.039,1.1928244960834244,954.2336050430564,39.99945524256167,432500.2524571382,0.0,0.0,0.0,0.0,0.0,0.0,0.0,0.0,0.0,100854.0,1.5258015485518858e-05,inf,inf,18.206219547337422,24.282667327596464,226.57146099363732,6.335080380455033,0.8118170563891738,4.826634494612588,0.0878548718716073,0.117177024105416,1.093330036123286,0.0218891742386827,0.023745094693061,0.0166771433184913,1.091975734574996,-0.1033346094022746,-0.117177024105416,1.1037800361232861,0.0858037576930034,-0.033740850612141896,0.0315856153501304,0.0043329382756022005,0.0043329382756022005,0.0024120688664566008,1982.1,2091.7,2130.9,942.7,1542.6,-736.5,-3.1,0.5,-1.0,0.7,1.1,-0.7,tailOff_alfa10_betaSweep_balance,raw_tailOff_alfa10_betaSweep_balance.txt,0,0,40,10.0,-9,inf,inf,0.0192999999999999,-0.06825,-0.01045,0.0196,-0.0053499999999999,0.0229,True,0.1051037576930033,-0.1019908506121419,1.093330036123286,0.0511856153501304,-0.0010170617243977,0.0253120688664566,-0.0010170617243977,0.006406642,0.006406642,39.744824381397194,1.0897717514282645,0.08471480570408377,-0.11568990795938641,0.031184756231817223,0.004277948122723759,0.002381456836632256
24.0,14.0,53.0,7.0,-0.0,-8.0,102.86,101042.0,293.51,380.6,-33.7,118.3,80.8,180.0,91.0,244.303,1.199282455403412,239.96120360486427,20.004365155922805,218066.71553658295,0.0,0.0,0.0,0.0,0.0,0.0,0.0,0.0,0.0,101042.0,1.513441822331888e-05,inf,inf,3.5244310634341427,0.539385843424791,16.673638208132,-0.0805929764226145,-1.409455760736945,-0.5988278499012334,0.0676314610804167,0.0103504514687163,0.3199559001853352,-0.0011073581827383,-0.1639384627991128,-0.0082279740626835,0.3199559001853352,0.0676314610804167,-0.0103504514687163,0.3043059001853352,0.052413780777512894,0.0574127585744924,-0.014590052712937802,-0.1742505908557332,-0.1742505908557332,-0.0305279740626835,383.3,-37.400000000000006,120.3,80.3,177.3,92.2,-2.7,3.7,-2.0,0.5,2.7,-1.2,tailOff_alfa0_balance,raw_tailOff_alfa0_balance.txt,0,0,20,-0.0,-8,inf,inf,0.016,-0.0582499999999999,0.01565,0.0164,-0.0087499999999999,0.0223,True,0.0684137807775129,-0.0008372414255075,0.3199559001853352,0.0018099472870622,-0.1830005908557331,-0.0082279740626835,-0.1830005908557331,0.006406642,0.006406642,19.877020203452517,0.30044389548814676,0.05174858740651063,-0.010219091898738005,-0.014404887548295001,-0.172039143098845,-0.030140537673333422
24.0,18.0,39.0,39.0,0.0,-8.0,229.53,100883.0,294.73,814.4,168.4,316.4,131.0,384.1,68.1,359.512,1.1924387847076852,536.1791397883329,29.98830422455684,323995.3414609255,0.0,0.0,0.0,0.0,0.0,0.0,0.0,0.0,0.0,100883.0,1.5270156294362348e-05,inf,inf,7.523545303602841,3.5172350532897303,36.9495131936237,0.6181508770196912,-2.944883220959751,-0.4501461434833135,0.064612033257114,0.0302059333818879,0.3173215656928827,0.0038011633365692,-0.1532952171876384,-0.0027680604854214,0.3173215656928827,0.064612033257114,-0.0302059333818879,0.3016715656928827,0.052187086807138905,0.0373302857131087,-0.004085204679188201,-0.1627563105496648,-0.1627563105496648,-0.0250680604854214,818.3,166.4,319.4,129.0,383.5,70.1,-3.9,2.0,-3.0,2.0,0.6,-2.0,tailOff_alfa0_V50_balance,raw_tailOff_alfa0_V50_balance.txt,0,0,30,0.0,-8,inf,inf,0.016,-0.0582499999999999,0.01565,0.0164,-0.0087499999999999,0.0223,True,0.0681870868071389,-0.0209197142868912,0.3173215656928827,0.0123147953208118,-0.1715063105496647,-0.0027680604854214,-0.1715063105496647,0.006406642,0.006406642,29.79740293144532,0.29784299384131974,0.05152477045290784,-0.02982258407274613,-0.004033358561020948,-0.16069073891448768,-0.024749916909220154
45.0,15.0,11.0,50.0,-0.0,-8.0,231.22,101030.0,293.23,812.3,171.1,320.5,132.7,381.2,65.7,360.162,1.2002850626531754,540.141244881828,30.00036009807119,327547.72175699146,0.0,0.0,0.0,0.0,0.0,0.0,0.0,0.0,0.0,101030.0,1.5110617927132722e-05,inf,inf,7.493182859545952,3.493743878934682,37.21325981396349,0.5953560805742415,-2.9776761508972767,-0.429384275448175,0.0638792444990151,0.0297841015817582,0.317242347720524,0.0036341379436955,-0.1538652556092358,-0.002621022508626,0.317242347720524,0.0638792444990151,-0.0297841015817582,0.301592347720524,0.051402721859153094,0.0376460277913436,-0.004371124617055801,-0.1631198102846483,-0.1631198102846483,-0.024921022508626,815.0,167.4,322.5,132.2,378.5,66.9,-2.7,3.7,-2.0,0.5,2.7,-1.2,tailOff_alfa0_balance,raw_tailOff_alfa0_balance.txt,0,0,30,-0.0,-8,inf,inf,0.016,-0.0582499999999999,0.01565,0.0164,-0.0087499999999999,0.0223,True,0.0674027218591531,-0.0206039722086563,0.317242347720524,0.0120288753829442,-0.1718698102846482,-0.002621022508626,-0.1718698102846482,0.006406642,0.006406642,29.809382058978095,0.2977647812394818,0.050750360031310074,-0.029406105821110008,-0.004315649833974749,-0.16104962540443363,-0.024604745019663626
3.0,14.0,35.0,50.0,-0.0,-8.0,409.45,101065.0,293.65,917.7,2236.0,1020.4,-102.8,392.6,-984.7,473.07,1.1989835480985749,959.4748281186756,40.00600441988468,435834.27638141497,0.0,0.0,0.0,0.0,0.0,0.0,0.0,0.0,0.0,101065.0,1.5143774567638396e-05,inf,inf,8.455437018221868,23.482923994385533,65.94950101863708,6.502743938822326,-3.847820525054943,6.431415135104029,0.0405791788578814,0.1126988198032371,0.3165036403980094,0.0223457544968104,-0.1119313295800009,0.0221006432097237,0.3165036403980094,0.0405791788578814,-0.1126988198032371,0.3008536403980094,0.0398689093052692,-0.04770451247994151,0.0377102513833243,-0.1146186915926549,-0.1146186915926549,-0.0001993567902763005,920.4,2232.3,1022.4,-103.3,389.9,-983.5,-2.7,3.7,-2.0,0.5,2.7,-1.2,tailOff_alfa0_balance,raw_tailOff_alfa0_balance.txt,0,0,40,-0.0,-8,inf,inf,0.016,-0.0582499999999999,0.01565,0.0164,-0.0087499999999999,0.0223,True,0.0558689093052692,-0.1059545124799414,0.3165036403980094,0.0541102513833243,-0.1233686915926548,0.0221006432097237,-0.1233686915926548,0.006406642,0.006406642,39.75133186758587,0.2970354489936504,0.03936292531049633,-0.11126853740916384,0.03723166333134813,-0.11316404373651136,-0.000196826714914651
3.0,18.0,29.0,51.0,0.0,-8.0,632.9,100888.0,294.98999999999995,1463.7,3134.6,1526.5,-89.0,619.4,-1335.1,584.909,1.1914468340794255,1489.3538831290628,50.00076109455164,539394.1723357136,0.0,0.0,0.0,0.0,0.0,0.0,0.0,0.0,0.0,100888.0,1.5293282292220372e-05,inf,inf,13.48341549991403,33.53311757091303,103.43719148300274,9.075186659169407,-6.174765790374243,8.718112639454386,0.041687206808119,0.1036756604517998,0.3198008392629033,0.0200904479375707,-0.1157158975917083,0.0192999653533149,0.3198008392629033,0.041687206808119,-0.1036756604517998,0.3041508392629033,0.0397103729362663,-0.038614958209261196,0.0329117405773528,-0.1187155605711066,-0.1187155605711066,-0.0030000346466851,1467.6,3132.6,1529.5,-91.0,618.8,-1333.1,-3.9,2.0,-3.0,2.0,0.6,-2.0,tailOff_alfa0_V50_balance,raw_tailOff_alfa0_V50_balance.txt,0,0,50,0.0,-8,inf,inf,0.016,-0.0582499999999999,0.01565,0.0164,-0.0087499999999999,0.0223,True,0.0557103729362663,-0.0968649582092611,0.3198008392629033,0.0493117405773528,-0.1274655605711065,0.0192999653533149,-0.1274655605711065,0.006406642,0.006406642,49.68246333826525,0.3002908024736996,0.039206400957038944,-0.10235989270820656,0.03249405134876744,-0.11720891856293081,-0.0029619606300782266
24.0,19.0,8.0,53.0,4.995,-8.0,102.61,100874.0,294.03,446.6,-28.9,286.8,242.5,281.4,94.9,244.984,1.1951710015785717,239.378046609759,20.014379646440045,217130.5612934581,0.0,0.0,0.0,0.0,0.0,0.0,0.0,0.0,0.0,100874.0,1.520727916347783e-05,inf,inf,4.15233043660698,0.6731113263804693,39.36172089043162,-0.0576273819087918,-0.7501782520894005,-0.6215253067887109,0.0798745398362521,0.0129480199791474,0.7571650164372021,-0.0007937368189232,-0.0874682811213456,-0.0085606443248029,0.7612441118840686,0.0136457448399589,-0.0129480199791474,0.7517150164372022,0.0648992223970578,0.0575443766579919,-0.012709778952410499,-0.10293115726654449,-0.10293115726654449,-0.0303155372992932,451.8,-31.7,288.40000000000003,240.9,279.29999999999995,95.7,-5.2,2.8,-1.6,1.6,2.1,-0.8,tailOff_alfa5_betaSweep_balance,raw_tailOff_alfa5_betaSweep_balance.txt,0,0,20,5.0,-8,inf,inf,0.016,-0.05925,0.00545,0.0163,-0.0070499999999999,0.0220999999999999,True,0.0808992223970578,-0.0017056233420081,0.7571650164372021,0.0035902210475895,-0.1099811572665444,-0.0082155372992933,-0.1099811572665444,0.006406642,0.006406642,19.886970943142927,0.7421748566090179,0.06407557388551509,-0.012783694167691553,-0.01254847670363865,-0.10162483815604308,-0.029930796985758838
45.0,19.0,17.0,43.0,4.995,-8.0,230.35,100868.0,293.86,971.2,78.8,675.6,511.7,616.5,132.7,360.928,1.195791286028432,538.1015483009018,29.999873712035395,325774.99571269343,0.0,0.0,0.0,0.0,0.0,0.0,0.0,0.0,0.0,100868.0,1.5192597030825134e-05,inf,inf,8.973109813427522,2.8559276831686686,87.99298759026055,0.3073937701532986,-1.483140195180236,-0.8639131727294264,0.0767855540247657,0.0244390176835478,0.7529820143627143,0.0018834876438308,-0.0769287019590112,-0.0052934377471836,0.7568080412836352,0.0109326990742734,-0.0244390176835478,0.7475320143627143,0.0634395361667935,0.0457353048191353,-0.007100721638757199,-0.091520938284177,-0.091520938284177,-0.0265723646573953,976.4,76.0,677.2,510.1,614.4,133.5,-5.2,2.8,-1.6,1.6,2.1,-0.8,tailOff_alfa5_betaSweep_balance,raw_tailOff_alfa5_betaSweep_balance.txt,0,0,30,5.0,-8,inf,inf,0.016,-0.05925,0.00545,0.0163,-0.0070499999999999,0.0220999999999999,True,0.0794395361667935,-0.0135146951808647,0.7529820143627143,0.0091992783612428,-0.0985709382841769,-0.0044723646573954,-0.0985709382841769,0.006406642,0.006406642,29.80889876920685,0.7380449418182475,0.06263441281389631,-0.02412885741050988,-0.007010605014973019,-0.09035942845696261,-0.026235129667670276
3.0,18.0,58.0,56.0,4.995,-8.0,407.92,100877.0,294.2,1230.8,1947.7,1608.1,605.2,830.7,-792.7,473.67,1.1945159100444038,955.8625849850516,40.00522890941642,433574.2194111096,0.0,0.0,0.0,0.0,0.0,0.0,0.0,0.0,0.0,100877.0,1.522241819612764e-05,inf,inf,11.350342809750591,21.258955670747564,156.20067816456626,6.105512183283682,-1.2153858998706628,5.182382220168737,0.0546782110729904,0.1024111504683288,0.7524683433428452,0.0210600110768704,-0.0354886249389343,0.0178758183891841,0.754371461032672,-0.011045962099344,-0.1024111504683288,0.7470183433428452,0.052398963865059295,-0.03455475600189731,0.03187887184379411,-0.043849841031707304,-0.043849841031707304,-9.719166142869995e-05,1236.0,1944.9,1609.6999999999998,603.6,828.6,-791.9000000000001,-5.2,2.8,-1.6,1.6,2.1,-0.8,tailOff_alfa5_betaSweep_balance,raw_tailOff_alfa5_betaSweep_balance.txt,0,0,40,5.0,-8,inf,inf,0.016,-0.05925,0.00545,0.0163,-0.0070499999999999,0.0220999999999999,True,0.0683989638650593,-0.0938047560018973,0.7524683433428452,0.0481788718437941,-0.0508998410317072,0.0220028083385712,-0.0508998410317072,0.006406642,0.006406642,39.750561293907296,0.7375377898960703,0.05173395853834227,-0.1011114308641007,0.0314742909509267,-0.04329333426686219,-9.595818336358001e-05
66.0,19.0,26.0,18.0,4.995,-8.0,633.8,100873.0,294.73,1937.2,2770.9,2469.1,1004.6,1287.4,-1087.0,587.123,1.192320584536724,1491.497445219292,50.01839292019061,540347.9898010804,0.0,0.0,0.0,0.0,0.0,0.0,0.0,0.0,0.0,100873.0,1.527167009451644e-05,inf,inf,17.837971031617485,30.760233511152343,244.78488649349708,8.639991988389912,-2.1328135655607987,7.109415083491693,0.055071096242851,0.094965945237979,0.7557233958382747,0.0190995344531349,-0.0399117546963142,0.0157160467869936,0.7576483598589056,-0.0109379825303122,-0.094965945237979,0.7502733958382748,0.051751853204262496,-0.0271273279496434,0.028023405362704503,-0.048383706640417204,-0.048383706640417204,-0.002584451970063101,1942.4,2768.1,2470.7,1003.0,1285.3000000000002,-1086.2,-5.2,2.8,-1.6,1.6,2.1,-0.8,tailOff_alfa5_betaSweep_balance,raw_tailOff_alfa5_betaSweep_balance.txt,0,0,50,5.0,-8,inf,inf,0.016,-0.05925,0.00545,0.0163,-0.0070499999999999,0.0220999999999999,True,0.0677518532042625,-0.0863773279496434,0.7557233958382747,0.0443234053627045,-0.0554337066404171,0.0195155480299368,-0.0554337066404171,0.006406642,0.006406642,49.69998292220195,0.7407515318943347,0.05109506048338083,-0.09376071416504007,0.027667754936353695,-0.04776965971527091,-0.0025516521931216655
3.0,19.0,47.0,12.0,10.0,-7.995,407.13,100853.0,294.59,2041.7,1854.4,2019.1,991.7,1597.6,-682.5,476.896,1.1926507064317655,953.9975246491616,39.99742077746285,432369.8801523363,0.0,0.0,0.0,0.0,0.0,0.0,0.0,0.0,0.0,100853.0,1.5261839936320923e-05,inf,inf,18.80093184559967,21.13497107496276,224.04195468172037,5.584300330780186,0.860822600233135,4.460707861925336,0.0907471320001851,0.1020129228545994,1.0813913375171378,0.0192998296129977,0.0251847041706805,0.0154165959187389,1.080720647327451,-0.0984131559472507,-0.1020129228545994,1.0918413375171376,0.0865537280318341,-0.02504966107556389,0.026245385873968498,0.005457355650859101,0.005457355650859101,0.0008349730840820982,2046.6,1851.4,2020.6,990.8,1594.6,-681.0,-4.9,3.0,-1.5,0.9,3.0,-1.5,tailOff_alfa10_betaSweep_balance,raw_tailOff_alfa10_betaSweep_balance.txt,0,0,40,10.0,-8,inf,inf,0.0175,-0.0633499999999999,-0.01045,0.0184,-0.0058499999999999,0.0220999999999999,True,0.1040537280318341,-0.0883996610755638,1.0813913375171376,0.0446453858739685,-0.0003926443491408,0.022934973084082,-0.0003926443491408,0.006406642,0.006406642,39.74280286741475,1.077984569141935,0.0854552580251253,-0.10071825723359619,0.02591230063486187,0.005388095300846139,0.0008243762801069303
25.0,14.0,53.0,47.0,-0.0,-7.0,102.97,101043.0,293.47,371.9,-56.9,105.6,93.5,178.7,88.7,244.228,1.1994577885272577,240.21779451517284,20.013594724759,218222.22164941297,0.0,0.0,0.0,0.0,0.0,0.0,0.0,0.0,0.0,101043.0,1.513061107829773e-05,inf,inf,3.445478541271511,0.1061416319754917,16.661472516578847,-0.1431513954877401,-1.3624201594643397,-0.5931578343919098,0.0660457924200274,0.002034610899068,0.3193809341897284,-0.0019648181726796,-0.1582983277324127,-0.0081413617262316,0.3193809341897284,0.0660457924200274,-0.002034610899068,0.3019309341897284,0.0521014537929542,0.0580795121389438,-0.0162913570514225,-0.16896353037034698,-0.16896353037034698,-0.0291413617262316,374.7,-63.8,108.6,92.9,174.5,91.2,-2.8,6.9,-3.0,0.6,4.2,-2.5,tailOff_alfa0_balance,raw_tailOff_alfa0_balance.txt,0,0,20,-0.0,-7,inf,inf,0.0136999999999999,-0.05205,0.01745,0.0149,-0.00795,0.021,True,0.0658014537929541,0.0060295121389438,0.3193809341897284,-0.0013913570514225,-0.176913530370347,-0.0081413617262316,-0.176913530370347,0.006406642,0.006406642,19.88619101816202,0.2980990706426954,0.05144022422377336,-0.002008789260892842,-0.01608460030625966,-0.166819181714779,-0.028771523100688586
25.0,18.0,39.0,58.0,0.0,-7.0,229.75,100878.0,294.7,773.5,207.2,313.0,137.4,364.9,10.4,359.36,1.1925010670129024,536.6949018176438,30.001940443176785,324185.090135162,0.0,0.0,0.0,0.0,0.0,0.0,0.0,0.0,0.0,100878.0,1.5268158073119952e-05,inf,inf,7.148415217413336,3.395224944202655,36.65953998572904,0.6298522791182855,-2.8258607920930725,-0.0863674963190264,0.0613314287476757,0.0291300925330196,0.3145287306591138,0.0038693961117814,-0.1469581699261973,-0.0005305848141233,0.3145287306591138,0.0613314287476757,-0.0291300925330196,0.2970787306591138,0.050724338828499894,0.0306114597109746,-0.0028202008406581006,-0.15629461516938908,-0.15629461516938908,-0.021530584814123302,777.5,202.0,317.0,135.20000000000002,362.2,14.1,-4.0,5.2,-4.0,2.2,2.7,-3.7,tailOff_alfa0_V50_balance,raw_tailOff_alfa0_V50_balance.txt,0,0,30,0.0,-7,inf,inf,0.0136999999999999,-0.05205,0.01745,0.0149,-0.00795,0.021,True,0.0644243388284998,-0.0214385402890254,0.3145287306591138,0.0120797991593419,-0.1642446151693891,-0.0005305848141233,-0.1642446151693891,0.006406642,0.006406642,29.810952343830802,0.2933084473601652,0.050080586490151756,-0.028760396926974702,-0.0027844091294655046,-0.1543110501528652,-0.021257336021922046
46.0,15.0,12.0,32.0,-0.0,-7.0,231.35,101031.0,293.25,768.7,221.2,321.2,134.6,360.2,3.3,359.887,1.2002150814507395,540.4460331452117,30.009697985444674,327613.28668387857,0.0,0.0,0.0,0.0,0.0,0.0,0.0,0.0,0.0,101031.0,1.5112296231153772e-05,inf,inf,7.093188022415846,3.4890875960860366,36.874892202689054,0.5931281308297228,-2.848132426969377,-0.0322316305579196,0.0604351938766641,0.0297276322939352,0.314180485898299,0.0036184963950363,-0.1470883533460599,-0.0001966354872037,0.314180485898299,0.0604351938766641,-0.0297276322939352,0.296730485898299,0.049907606134631806,0.0299091503655582,-0.0029026822021062,-0.15617219213055458,-0.15617219213055458,-0.021196635487203703,771.5,214.3,324.2,134.0,356.0,5.8,-2.8,6.9,-3.0,0.6,4.2,-2.5,tailOff_alfa0_balance,raw_tailOff_alfa0_balance.txt,0,0,30,-0.0,-7,inf,inf,0.0136999999999999,-0.05205,0.01745,0.0149,-0.00795,0.021,True,0.0636076061346317,-0.0221408496344418,0.314180485898299,0.0119973177978938,-0.1641221921305546,-0.0001966354872037,-0.1641221921305546,0.006406642,0.006406642,29.818660502684438,0.2929646222405773,0.049274219107959004,-0.029350353195877796,-0.0028658437040943244,-0.15419018080835845,-0.020927624910128742
4.0,14.0,36.0,31.0,-0.0,-7.0,409.43,101060.0,293.69,966.6,1939.5,922.6,-30.2,424.4,-880.6,472.717,1.198760939531318,959.4276078567,40.00873423743121,435737.1977058756,0.0,0.0,0.0,0.0,0.0,0.0,0.0,0.0,0.0,101060.0,1.5148182045108403e-05,inf,inf,8.907374037988133,20.002392588955665,65.21313517868036,5.578406823741282,-3.928591319227851,5.740922648027195,0.042750210684923,0.0959998416742737,0.3129850903782899,0.019170344955268,-0.1142865394157897,0.0197288349526255,0.3129850903782899,0.042750210684923,-0.0959998416742737,0.2955350903782899,0.040430994769018,-0.038024333305373303,0.031328185288398994,-0.11838581319318951,-0.11838581319318951,-0.0012711650473745013,969.4,1932.6,925.6,-30.8,420.2,-878.1,-2.8,6.9,-3.0,0.6,4.2,-2.5,tailOff_alfa0_balance,raw_tailOff_alfa0_balance.txt,0,0,40,-0.0,-7,inf,inf,0.0136999999999999,-0.05205,0.01745,0.0149,-0.00795,0.021,True,0.0541309947690179,-0.0900743333053733,0.3129850903782899,0.046228185288399,-0.1263358131931895,0.0197288349526255,-0.1263358131931895,0.006406642,0.006406642,39.75404430750092,0.2917843977149868,0.03991787723953582,-0.09478148922284377,0.030930593264502974,-0.1168833560723972,-0.0012550324473136014
4.0,18.0,30.0,16.0,0.0,-7.0,633.33,100888.0,295.04,1520.7,2741.4,1387.6,6.7,658.6,-1210.7,584.453,1.191244921316058,1490.378020109025,50.02218813624959,539463.2546302583,0.0,0.0,0.0,0.0,0.0,0.0,0.0,0.0,0.0,100888.0,1.5297876730261953e-05,inf,inf,14.01040670851643,28.76571958258328,101.76082744213429,7.833352141219368,-6.245491856013404,7.8917344693189,0.0432867606452167,0.088874994442653,0.3144017637881482,0.0173293857371368,-0.1169608862711475,0.0174585424334821,0.3144017637881482,0.0432867606452167,-0.088874994442653,0.2969517637881482,0.0400952449132912,-0.0308872046132308,0.027479066729284202,-0.1212113882475024,-0.1212113882475024,-0.0035414575665179,1524.7,2736.2000000000003,1391.6,4.5,655.9,-1207.0,-4.0,5.2,-4.0,2.2,2.7,-3.7,tailOff_alfa0_V50_balance,raw_tailOff_alfa0_V50_balance.txt,0,0,50,0.0,-7,inf,inf,0.0136999999999999,-0.05205,0.01745,0.0149,-0.00795,0.021,True,0.0537952449132911,-0.0829372046132308,0.3144017637881482,0.0423790667292842,-0.1291613882475024,0.0174585424334821,-0.1291613882475024,0.006406642,0.006406642,49.70375397845356,0.2931830918501747,0.039586388449792655,-0.08774706479754563,0.02713032460920629,-0.11967307121033853,-0.003496512247519958
25.0,19.0,9.0,12.0,4.995,-7.0,102.4,100869.0,293.98999999999995,437.9,-45.5,272.0,250.3,283.4,89.2,244.94,1.195274366563331,238.888199203968,19.993026572991464,216940.4796044736,0.0,0.0,0.0,0.0,0.0,0.0,0.0,0.0,0.0,100869.0,1.5204365014080502e-05,inf,inf,4.077079364912031,0.2915893907071498,38.99720754212164,-0.1063988649188049,-0.6694990711104531,-0.591712880256022,0.0785878214962063,0.0056205368932217,0.7516914219394633,-0.0014685010243018,-0.0782214249680052,-0.0081667315850755,0.7556792714236241,0.0128404924186103,-0.0056205368932217,0.7444414219394633,0.06498701093269621,0.0570488039418583,-0.013973707689951301,-0.09412163572968389,-0.09412163572968389,-0.0288637725026028,443.6,-52.0,274.5,248.8,279.4,91.0,-5.7,6.5,-2.5,1.5,4.0,-1.8,tailOff_alfa5_betaSweep_balance,raw_tailOff_alfa5_betaSweep_balance.txt,0,0,20,5.0,-7,inf,inf,0.0136999999999999,-0.05305,0.00725,0.0148,-0.00625,0.0208,True,0.0786870109326961,0.0039988039418583,0.7516914219394633,0.0008262923100487,-0.1003716357296839,-0.0080637725026028,-0.1003716357296839,0.006406642,0.006406642,19.865753800332595,0.73499357269776,0.064162248279966,-0.005549205578682209,-0.013796364678518191,-0.09292711995107521,-0.028497456815277183
46.0,19.0,17.0,59.0,4.995,-7.0,230.19,100868.0,293.87,939.0,86.8,663.0,528.0,603.7,94.0,360.773,1.195750594862745,537.7264393143222,29.98992574052788,325647.3194596747,0.0,0.0,0.0,0.0,0.0,0.0,0.0,0.0,0.0,100868.0,1.519351373159486e-05,inf,inf,8.68172624214982,2.460248463185672,87.92167372168286,0.3462061874935065,-1.3665194014701152,-0.6196141742771681,0.07434392357082,0.0210677598683428,0.7528966024808418,0.0021227819702497,-0.0709291658599483,-0.0037991978340693,0.7565103639171891,0.0085077779108732,-0.0210677598683428,0.7456466024808418,0.06265728930030631,0.0411995211707112,-0.006439028219922,-0.08563322139415469,-0.08563322139415469,-0.0238567897738762,944.7,80.3,665.5,526.5,599.7,95.8,-5.7,6.5,-2.5,1.5,4.0,-1.8,tailOff_alfa5_betaSweep_balance,raw_tailOff_alfa5_betaSweep_balance.txt,0,0,30,5.0,-7,inf,inf,0.0136999999999999,-0.05305,0.00725,0.0148,-0.00625,0.0208,True,0.0763572893003062,-0.0118504788292888,0.7528966024808418,0.008360971780078,-0.0918832213941547,-0.0030567897738762,-0.0918832213941547,0.006406642,0.006406642,29.79901412507558,0.736183458061132,0.06186209359281756,-0.020800384876529545,-0.00635730927455971,-0.08454643371419783,-0.02355401866720218
4.0,18.0,59.0,17.0,4.995,-7.0,407.63,100881.0,294.23,1276.1,1672.8,1519.2,676.3,858.1,-699.0,473.332,1.1944414763607334,955.1779358734956,39.99214523964963,433371.2579049336,0.0,0.0,0.0,0.0,0.0,0.0,0.0,0.0,0.0,100881.0,1.5224566529311983e-05,inf,inf,11.77276145762697,17.983068353143462,155.80604408793587,5.233926468265671,-1.3281321797214467,4.561536854907147,0.0567537866859204,0.0866922538901381,0.7511052544783507,0.0180665526310935,-0.0388085537664263,0.0157455872121109,0.7531942666652512,-0.0088595863771016,-0.0866922538901381,0.7438552544783508,0.0531958806260863,-0.0260795162566001,0.0261686660820679,-0.0485547770066542,-0.0485547770066542,-0.0015471168810278976,1281.8,1666.3,1521.7,674.8,854.1,-697.2,-5.7,6.5,-2.5,1.5,4.0,-1.8,tailOff_alfa5_betaSweep_balance,raw_tailOff_alfa5_betaSweep_balance.txt,0,0,40,5.0,-7,inf,inf,0.0136999999999999,-0.05305,0.00725,0.0148,-0.00625,0.0208,True,0.0668958806260862,-0.0791295162566001,0.7511052544783507,0.0409686660820679,-0.0548047770066542,0.0192528831189721,-0.0548047770066542,0.006406642,0.006406642,39.737560912927314,0.7344148444006162,0.05252076147550822,-0.08559202582512307,0.025836554508593478,-0.04793855899459321,-0.0015274821231806449
67.0,19.0,26.0,41.0,4.995,-7.0,633.57,100872.0,294.79,1994.1,2424.2,2345.7,1091.1,1324.8,-981.8,586.569,1.1920660882895278,1490.9496388875862,50.0145445365362,540106.1545738794,0.0,0.0,0.0,0.0,0.0,0.0,0.0,0.0,0.0,100872.0,1.527733254225612e-05,inf,inf,18.367557861385563,26.481223921381638,243.4667827578869,7.520086922403139,-2.228678866409524,6.412702749096159,0.0567269225451471,0.0817854147854359,0.7519301930093912,0.0166299844035525,-0.0417210242531833,0.0141811055912646,0.7540137332985759,-0.0089581749105239,-0.0817854147854359,0.7446801930093913,0.0525712234666599,-0.021212525901701904,0.023496016139031302,-0.0514596757555932,-0.0514596757555932,-0.003338361514952898,1999.8,2417.7,2348.2,1089.6,1320.8,-980.0,-5.7,6.5,-2.5,1.5,4.0,-1.8,tailOff_alfa5_betaSweep_balance,raw_tailOff_alfa5_betaSweep_balance.txt,0,0,50,5.0,-7,inf,inf,0.0136999999999999,-0.05305,0.00725,0.0148,-0.00625,0.0208,True,0.0662712234666598,-0.0742625259017019,0.7519301930093912,0.0382960161390313,-0.0577096757555932,0.0174616384850471,-0.0577096757555932,0.006406642,0.006406642,49.69615903681228,0.7352293134781239,0.05190403196021349,-0.08074746035908238,0.023197823679933765,-0.05080659111489824,-0.0032959937270006794
4.0,19.0,47.0,50.0,10.0,-7.0,407.17,100854.0,294.61,2239.2,1696.9,1853.8,915.2,1769.3,-696.0,476.897,1.1925815665502617,954.0919566956612,40.0005597786632,432356.0676438852,0.0,0.0,0.0,0.0,0.0,0.0,0.0,0.0,0.0,100854.0,1.526352529619387e-05,inf,inf,20.622841103821,18.41944046651664,213.4719690974028,4.137042468466545,1.1563236044298897,4.533824284778937,0.0995311546021893,0.0888969743562159,1.0302708270166874,0.0142965648991686,0.0338266973403191,0.0156677417799858,1.0319021017660888,-0.0808855988963561,-0.0888969743562159,1.0389208270166872,0.0944230803643167,-0.018954553330094305,0.019133914183774803,0.0108235459764255,0.0108235459764255,0.0008869371093422999,2244.4,1690.3000000000002,1856.5,914.2,1765.3,-693.0,-5.2,6.6,-2.7,1.0,4.0,-3.0,tailOff_alfa10_betaSweep_balance,raw_tailOff_alfa10_betaSweep_balance.txt,0,0,40,10.0,-7,inf,inf,0.0152,-0.05715,-0.00865,0.0169,-0.00505,0.0208,True,0.1096230803643167,-0.0761045533300943,1.0302708270166872,0.0360339141837748,0.0057735459764255,0.0216869371093423,0.0057735459764255,0.006406642,0.006406642,39.74592188617849,1.0257356830168447,0.09322473889388218,-0.08776876575979876,0.01889108199942237,0.01068618227307393,0.0008756808199298879
26.0,14.0,54.0,24.0,-0.0,-6.0,102.78,101040.0,293.42,356.3,-68.3,94.7,102.3,174.9,80.0,244.136,1.1996265628047782,239.7745927371001,19.99371706553031,218064.8904495956,0.0,0.0,0.0,0.0,0.0,0.0,0.0,0.0,0.0,101040.0,1.5126488948508548e-05,inf,inf,3.342603187550512,-0.2200879069224528,16.432831727403705,-0.1804741199119081,-1.3135641166912446,-0.5469805422698908,0.0641922268980617,-0.0042266257961175,0.3155804035465477,-0.0024816682600218,-0.1529038973428336,-0.0075214343821888,0.3155804035465477,0.0641922268980617,0.0042266257961175,0.2995304035465477,0.051798772463295006,0.0562633867291501,-0.0165729552865908,-0.1638466670364459,-0.1638466670364459,-0.0268214343821888,363.5,-78.7,98.2,101.4,169.9,84.0,-7.2,10.4,-3.5,0.9,5.0,-4.0,tailOff_alfa0_balance,raw_tailOff_alfa0_balance.txt,0,0,20,-0.0,-6,inf,inf,0.0116,-0.04535,0.01605,0.0129,-0.00715,0.0193,True,0.063398772463295,0.0109133867291501,0.3155804035465477,-0.0036729552865908,-0.1709966670364459,-0.0075214343821888,-0.1709966670364459,0.006406642,0.006406642,19.86643989729383,0.2957290055955287,0.051141384281074405,0.004172984875360058,-0.01636262472407418,-0.1617672574774198,-0.026481038400690386
26.0,18.0,40.0,19.0,0.0,-6.0,229.94,100877.0,294.67,709.4,360.4,338.0,113.0,331.7,-109.2,358.951,1.1926106516953323,537.1403362659074,30.01300905388601,324360.00251461065,0.0,0.0,0.0,0.0,0.0,0.0,0.0,0.0,0.0,100877.0,1.5265554501500177e-05,inf,inf,6.595553213861049,4.321569217302035,35.867277180350506,0.7939073486640357,-2.686042900836965,0.6862775802879346,0.0565410986528143,0.0370471230429811,0.30747614213772,0.0048731974781711,-0.1395711379036759,0.0042125396360323,0.30747614213772,0.0565410986528143,-0.0370471230429811,0.29142614213772,0.0485038394385719,0.014415979126996301,0.0024150390751606996,-0.148357414390449,-0.148357414390449,-0.0150874603639677,717.4,351.7,342.5,110.5,328.1,-104.5,-8.0,8.7,-4.5,2.5,3.6,-4.7,tailOff_alfa0_V50_balance,raw_tailOff_alfa0_V50_balance.txt,0,0,30,0.0,-6,inf,inf,0.0116,-0.04535,0.01605,0.0129,-0.00715,0.0193,True,0.0601038394385719,-0.0309340208730037,0.30747614213772,0.0153150390751607,-0.155507414390449,0.0042125396360323,-0.155507414390449,0.006406642,0.006406642,29.8219504933335,0.28772759692668753,0.047888267884982724,-0.03657695088029161,0.0023843893498465213,-0.14647458191533205,-0.014895982503174332
47.0,15.0,13.0,17.0,-0.0,-6.0,231.37,101028.0,293.27,701.3,384.8,346.1,110.2,326.9,-124.1,359.559,1.2000975943482564,540.4929237860937,30.012468792578005,327594.1812630994,0.0,0.0,0.0,0.0,0.0,0.0,0.0,0.0,0.0,101028.0,1.5114572991768658e-05,inf,inf,6.51363230608717,4.491383664779839,36.07649231173597,0.8386138669490639,-2.6802157632657924,0.7879982668377025,0.0554924638332763,0.0382640489771342,0.307351313485961,0.0051156872112124,-0.1384044920360436,0.0048069234423523,0.307351313485961,0.0554924638332763,-0.0382640489771342,0.291301313485961,0.0475881525481034,0.0130961074542243,0.0030005229949557986,-0.14689520768625722,-0.14689520768625722,-0.014493076557647701,708.5,374.4,349.6,109.3,321.9,-120.1,-7.2,10.4,-3.5,0.9,5.0,-4.0,tailOff_alfa0_balance,raw_tailOff_alfa0_balance.txt,0,0,30,-0.0,-6,inf,inf,0.0116,-0.04535,0.01605,0.0129,-0.00715,0.0193,True,0.0591881525481034,-0.0322538925457757,0.307351313485961,0.0159005229949558,-0.1540452076862572,0.0048069234423523,-0.1540452076862572,0.006406642,0.006406642,29.821413671252387,0.28760435249935257,0.04698420215292748,-0.03777843257339987,0.0029624427806271125,-0.14503093235760509,-0.014309142136040174
5.0,14.0,37.0,13.0,-0.0,-6.0,409.19,101063.0,293.72,1012.5,1604.3,817.6,38.3,452.0,-745.2,472.179,1.1986740823637103,958.8609676005082,39.99836694790603,435558.3231439652,0.0,0.0,0.0,0.0,0.0,0.0,0.0,0.0,0.0,101063.0,1.5150476187422077e-05,inf,inf,9.371360259626526,16.287869255639272,63.65412255726011,4.462945388986998,-4.067596850906908,4.845112124833706,0.0450036537435558,0.0782184878068395,0.3056832745250759,0.0153460952003385,-0.1184002729090379,0.0166601975698585,0.3056832745250759,0.0450036537435558,-0.0782184878068395,0.28963327452507587,0.0413331773491072,-0.027735835979254803,0.024492208165372495,-0.12393468630142969,-0.12393468630142969,-0.0026398024301415024,1019.7,1593.9,821.1,37.4,447.0,-741.2,-7.2,10.4,-3.5,0.9,5.0,-4.0,tailOff_alfa0_balance,raw_tailOff_alfa0_balance.txt,0,0,40,-0.0,-6,inf,inf,0.0116,-0.04535,0.01605,0.0129,-0.00715,0.0193,True,0.0529331773491072,-0.0730858359792548,0.3056832745250759,0.0373922081653725,-0.1310846863014297,0.0166601975698585,-0.1310846863014297,0.006406642,0.006406642,39.74374301467103,0.28595748294168344,0.04080861004701166,-0.07722580193669037,0.024181372841701222,-0.122361807364974,-0.0026063001898673347
5.0,18.0,30.0,43.0,0.0,-6.0,633.19,100889.0,295.08,1571.0,2267.7,1240.9,111.5,690.7,-1027.9,583.477,1.1910952463695557,1490.0445782833244,50.01973458271627,539312.5500218092,0.0,0.0,0.0,0.0,0.0,0.0,0.0,0.0,0.0,100889.0,1.53014009837859e-05,inf,inf,14.511716046403528,23.42041380550261,99.98317162607243,6.263712566073878,-6.366006287715885,6.689097634379984,0.0448456467238956,0.0723762510436743,0.3089786196711525,0.0138600409773857,-0.1192444686702991,0.0148013125341018,0.3089786196711525,0.0448456467238956,-0.0723762510436743,0.29292861967115247,0.040565355877533904,-0.0219421198313121,0.021359502169154998,-0.124734347315186,-0.124734347315186,-0.0044986874658982014,1579.0,2259.0,1245.4,109.0,687.1,-1023.2,-8.0,8.7,-4.5,2.5,3.6,-4.7,tailOff_alfa0_V50_balance,raw_tailOff_alfa0_V50_balance.txt,0,0,50,0.0,-6,inf,inf,0.0116,-0.04535,0.01605,0.0129,-0.00715,0.0193,True,0.0521653558775339,-0.0672921198313121,0.3089786196711525,0.034259502169155,-0.131884347315186,0.0148013125341018,-0.131884347315186,0.006406642,0.006406642,49.70131604389418,0.28921100622881724,0.040050533145385946,-0.07145771012374694,0.021088424619700178,-0.12315131972703015,-0.004441593758172192
26.0,19.0,10.0,2.0,4.995,-6.0,102.07,100871.0,293.96,420.8,-26.5,266.6,253.1,280.6,64.7,244.526,1.1954200518887983,238.1184472409481,19.95957320658556,216620.96861006072,0.0,0.0,0.0,0.0,0.0,0.0,0.0,0.0,0.0,100871.0,1.5201312851504155e-05,inf,inf,3.955725324775599,0.2700293466067283,38.75689242113194,-0.0093701485076498,-0.5908961332690055,-0.4448535355566896,0.0764951440730143,0.0052217816144237,0.7494741990825635,-0.0001297434337887,-0.0692609664495406,-0.0061596489307579,0.7532882619849831,0.0109488133076019,-0.0052217816144237,0.7436241990825636,0.0650219204776383,0.049152743709014,-0.010926752127469701,-0.0853713498677785,-0.0853713498677785,-0.0250731549730531,430.4,-35.9,269.6,251.3,275.6,68.4,-9.6,9.4,-3.0,1.8,5.0,-3.7,tailOff_alfa5_betaSweep_balance,raw_tailOff_alfa5_betaSweep_balance.txt,0,0,20,5.0,-6,inf,inf,0.0116,-0.04635,0.0058499999999999,0.0128,-0.00545,0.0191,True,0.0766219204776383,0.002802743709014,0.7494741990825635,0.0018732478725303,-0.0908213498677785,-0.0059731549730531,-0.0908213498677785,0.006406642,0.006406642,19.83251339331439,0.7341867213732889,0.06419671478116014,-0.005155510979807959,-0.010788078615008717,-0.0842878856497207,-0.024754946741729653
47.0,19.0,18.0,25.0,4.995,-6.0,230.19,100872.0,293.87,860.1,318.0,702.0,494.6,565.7,-71.9,360.548,1.1957980132945514,537.7264393143222,29.989331121147806,325653.77629615547,0.0,0.0,0.0,0.0,0.0,0.0,0.0,0.0,0.0,100872.0,1.5192911244731047e-05,inf,inf,7.991611040027402,4.080817600156418,87.31448785113744,0.8681952821073151,-1.1454728213231036,0.4494743334079732,0.0684342841269315,0.0349451230447183,0.7476971088900449,0.0053233863463166,-0.0594557469467924,0.0027559761942912,0.7508160711805705,0.0030732952135788,-0.0349451230447183,0.741847108890045,0.0601121539686503,0.0187496405502993,0.0020751918032689987,-0.0732941530621002,-0.0732941530621002,-0.0150593249567972,869.7,308.6,705.0,492.8,560.7,-68.2,-9.6,9.4,-3.0,1.8,5.0,-3.7,tailOff_alfa5_betaSweep_balance,raw_tailOff_alfa5_betaSweep_balance.txt,0,0,30,5.0,-6,inf,inf,0.0116,-0.04635,0.0058499999999999,0.0128,-0.00545,0.0191,True,0.0717121539686503,-0.0276003594497007,0.7476971088900449,0.014875191803269,-0.0787441530621002,0.0040406750432028,-0.0787441530621002,0.006406642,0.006406642,29.798423290958176,0.7324321845741375,0.05934925906308438,-0.03450162776822075,0.00204885514503493,-0.0723639628711447,-0.014868204167866663
5.0,18.0,59.0,36.0,4.995,-6.0,407.77,100879.0,294.26,1323.5,1359.2,1421.6,748.6,886.4,-581.0,473.227,1.1942960244761132,955.5084551624864,40.00149950760588,433385.6890488613,0.0,0.0,0.0,0.0,0.0,0.0,0.0,0.0,0.0,100879.0,1.522762051988251e-05,inf,inf,12.245871878119738,14.413185326397096,154.9467023825832,4.213198258615367,-1.471054161542483,3.776210454496949,0.0590141230677962,0.0694586307219762,0.7467041836108904,0.0145381557479966,-0.0429699224276063,0.0130302758984648,0.7490067145388214,-0.0062246380800618,-0.0694586307219762,0.7408541836108904,0.0543512414569248,-0.0165594734799399,0.020051186815953602,-0.054153228186443705,-0.054153228186443705,-0.003258895500990299,1333.1,1349.8,1424.6,746.8000000000001,881.4,-577.3,-9.6,9.4,-3.0,1.8,5.0,-3.7,tailOff_alfa5_betaSweep_balance,raw_tailOff_alfa5_betaSweep_balance.txt,0,0,40,5.0,-6,inf,inf,0.0116,-0.04635,0.0058499999999999,0.0128,-0.00545,0.0191,True,0.0659512414569248,-0.0629094734799399,0.7467041836108903,0.0328511868159536,-0.0596032281864437,0.0158411044990097,-0.0596032281864437,0.006406642,0.006406642,39.74685563293995,0.7314518607006398,0.053661459399866995,-0.06857711788260905,0.019796713348234924,-0.05346595915387947,-0.0032175362315025715
68.0,19.0,27.0,7.0,4.995,-6.0,633.4,100871.0,294.85,2059.2,1977.5,2199.7,1193.2,1363.1,-817.9,585.85,1.1918116956188949,1490.5447417021078,50.01308965299528,539890.3061916206,0.0,0.0,0.0,0.0,0.0,0.0,0.0,0.0,0.0,100871.0,1.5282995843343416e-05,inf,inf,19.00407258324307,21.35441679454817,241.71618527176503,6.126297514617394,-2.413987800260436,5.326960551507298,0.0587086974298853,0.0659695435750038,0.7467263831405797,0.0135514267721884,-0.0452022960426908,0.0117832860157128,0.7490022367151242,-0.0065308366896385,-0.0659695435750038,0.7408763831405798,0.0536827800549356,-0.013121425590001096,0.018197104188805997,-0.056299516678885206,-0.056299516678885206,-0.004662582454686299,2068.8,1968.1,2202.7,1191.4,1358.1,-814.1999999999999,-9.6,9.4,-3.0,1.8,5.0,-3.7,tailOff_alfa5_betaSweep_balance,raw_tailOff_alfa5_betaSweep_balance.txt,0,0,50,5.0,-6,inf,inf,0.0116,-0.04635,0.0058499999999999,0.0128,-0.00545,0.0191,True,0.0652827800549356,-0.0594714255900011,0.7467263831405797,0.030997104188806,-0.0617495166788852,0.0144374175453137,-0.0617495166788852,0.006406642,0.006406642,49.69471341485372,0.731473778491829,0.05300148157007537,-0.06513231141156932,0.017966161240248,-0.05558500868633274,-0.004603408724140621
