run,hr,min,sec,AoA,AoS,dPb,pBar,temp,B1,B2,B3,B4,B5,B6,rpmWT,rho,q,V,Re,rpsM1,rpsM2,iM1,iM2,dPtQ,tM1,tM2,vM1,vM2,pInf,nu,J_M1,J_M2,FX,FY,FZ,MX,MY,MZ,CFX,CFY,CFZ,CMX,CMY,CMZ,CN,CT,CY,CL,CD,CYaw,CMroll,CMpitch,CMpitch25c,CMyaw,B1_zeroed,B2_zeroed,B3_zeroed,B4_zeroed,B5_zeroed,B6_zeroed,B1_zero,B2_zero,B3_zero,B4_zero,B5_zero,B6_zero,config,source_file,dR,dE,V_round,AoA_round,AoS_round,J,J_round
12.0,17.0,57.0,54.0,-5.0,0.0,407.72,100915.0,294.47999999999996,1121.3,-208.7,-434.2,-310.9,341.7,37.7,469.692,1.1938296721452584,955.3904123510412,40.00684031216697,433024.1480544492,0.0,0.0,0.0,0.0,0.0,0.0,0.0,0.0,0.0,100915.0,1.5242369196334385e-05,inf,inf,10.340560091340055,-2.8600675539611564,-37.32885604937706,-1.0352828947914534,-6.435674417786958,-0.25240428323118846,0.04983838551446642,-0.013784664282460632,-0.17991384433430446,-0.003572811597218428,-0.18801115931312348,-0.0008710594513373578,-0.18357291934599518,0.03396821067742105,0.013784664282460632,-0.17991384433430446,0.04983838551446643,0.013784664282460632,-0.007505597805346179,-0.2020582562061264,-0.2020582562061264,-0.00021358885565484138,1123.3999999999999,-208.7,-434.2,-310.9,341.7,37.7,-2.1,0.0,0.0,0.0,0.0,0.0,tailOff_beta0_V50_balance,raw_tailOff_beta0_V50_balance.txt,0,0,40,-5.0,0,inf,inf
1.0,17.0,48.0,14.0,-5.0,0.0,636.1,100928.0,293.51,1708.0,-375.6,-699.4,-454.1,502.0,58.9,579.823,1.197929372527816,1496.975777806503,49.99272128063193,544353.6256422393,0.0,0.0,0.0,0.0,0.0,0.0,0.0,0.0,0.0,100928.0,1.5151512822215702e-05,inf,inf,15.741475949407821,-5.2583522581249,-58.45032994302479,-1.59593277554035,-10.03000475119778,-0.3960746841334055,0.04842074398440692,-0.016174679508376855,-0.17979308109807754,-0.0035150521790805636,-0.18700654504652894,-0.0008723570333784233,-0.18332906004983926,0.032566488910931064,0.016174679508376855,-0.17979308109807754,0.04842074398440692,0.016174679508376855,-0.008119240780182673,-0.20065407546628586,-0.20065407546628586,-0.00016139899075073275,1710.1,-375.6,-699.4,-454.1,502.0,58.9,-2.1,0.0,0.0,0.0,0.0,0.0,tailOff_beta0_V50_balance,raw_tailOff_beta0_V50_balance.txt,0,0,50,-5.0,0,inf,inf
13.0,17.0,58.0,34.0,-4.0,0.0,407.8,100914.0,294.46999999999997,1088.8,-235.4,-293.3,-142.0,352.2,32.7,469.599,1.1938583833317382,955.579280960412,40.010313425957314,433083.5187481865,0.0,0.0,0.0,0.0,0.0,0.0,0.0,0.0,0.0,100914.0,1.5241602699869977e-05,inf,inf,10.038951048091791,-3.3533991891370514,-18.0503861854097,-1.0891908659775886,-6.003376361724332,-0.2221679276141826,0.04837515760025636,-0.016159179728435058,-0.08698023053221889,-0.003758107695969496,-0.1753473824705788,-0.000766560778872372,-0.09014283147326371,0.04218988398029036,0.016159179728435058,-0.08698023053221889,0.04837515760025636,0.016159179728435058,-0.008345843919050555,-0.18898206423264838,-0.18898206423264838,-0.00018251683313043104,1090.8,-235.9,-293.2,-141.5,350.7,32.900000000000006,-2.0,0.5,-0.1,-0.5,1.5,-0.2,tailOff_beta0_V50_balance,raw_tailOff_beta0_V50_balance.txt,0,0,40,-4.0,0,inf,inf
2.0,17.0,48.0,52.0,-4.0,0.0,635.66,100928.0,293.69,1643.4,-359.0,-443.2,-210.6,506.9,54.7,579.932,1.197195172224588,1495.927711092845,49.99053942453157,543738.4198462554,0.0,0.0,0.0,0.0,0.0,0.0,0.0,0.0,0.0,100928.0,1.5167993792393146e-05,inf,inf,15.14314378973106,-5.051867135871497,-27.654200279015804,-1.5682418060362713,-9.360707633441313,-0.3695486645973555,0.046612910387337544,-0.015550418946216438,-0.0851238538930985,-0.0034564826029674575,-0.1746499697776429,-0.0008145035575598424,-0.08816804872289642,0.040561423801297986,0.015550418946216438,-0.0851238538930985,0.04661291038733754,0.015550418946216438,-0.00787713481811335,-0.18778795693185626,-0.18778795693185626,-0.00026303831971177317,1645.4,-359.5,-443.09999999999997,-210.1,505.4,54.900000000000006,-2.0,0.5,-0.1,-0.5,1.5,-0.2,tailOff_beta0_V50_balance,raw_tailOff_beta0_V50_balance.txt,0,0,50,-4.0,0,inf,inf
14.0,17.0,59.0,12.0,-3.0,0.0,407.54,100914.0,294.46999999999997,1069.2,-229.0,-134.0,14.3,376.2,28.5,469.297,1.1938583833317382,954.9654601455939,39.99746095580221,432944.39979302813,0.0,0.0,0.0,0.0,0.0,0.0,0.0,0.0,0.0,100914.0,1.5241602699869977e-05,inf,inf,9.853903717667134,-3.2999129864654573,1.88362416430546,-1.0678900218799228,-5.558064216215684,-0.19670679426597623,0.047513982301328736,-0.015911664222345818,0.009082541068947354,-0.0036869803257189348,-0.16244499582935223,-0.0006791467899635892,0.006583404063421859,0.04792420951187214,0.015911664222345818,0.009082541068947354,0.04751398230132873,0.015911664222345818,-0.00819607484209133,-0.17583695277718428,-0.17583695277718428,-0.00024926662859181667,1070.9,-229.5,-133.5,15.700000000000001,370.2,29.0,-1.7,0.5,-0.5,-1.4,6.0,-0.5,tailOff_beta0_V50_balance,raw_tailOff_beta0_V50_balance.txt,0,0,40,-3.0,0,inf,inf
3.0,17.0,49.0,27.0,-3.0,0.0,635.46,100929.0,293.84,1603.6,-333.3,-180.3,29.3,535.1,51.3,580.11,1.1965958815827593,1495.4513230552018,49.995093693202506,543301.218741322,0.0,0.0,0.0,0.0,0.0,0.0,0.0,0.0,0.0,100929.0,1.518158261748072e-05,inf,inf,14.77099467205532,-4.681173895650017,3.8740991526207704,-1.53328945685291,-8.666355388918905,-0.348595819445921,0.04548186253930996,-0.01441395873274219,0.011928867962866676,-0.003380522444106955,-0.16174641156501832,-0.0007685672045104529,0.009532183096201378,0.04604383993913504,0.01441395873274219,0.011928867962866676,0.04548186253930996,0.01441395873274219,-0.007473162633606347,-0.1745656095259651,-0.1745656095259651,-0.0003763987972790723,1605.3,-333.8,-179.8,30.7,529.1,51.8,-1.7,0.5,-0.5,-1.4,6.0,-0.5,tailOff_beta0_V50_balance,raw_tailOff_beta0_V50_balance.txt,0,0,50,-3.0,0,inf,inf
15.0,17.0,59.0,49.0,-2.0,0.0,407.56,100915.0,294.45,1066.0,-195.6,37.1,155.0,413.4,27.5,469.368,1.1939513053263224,955.0126769092324,39.99689323356046,432994.67529715865,0.0,0.0,0.0,0.0,0.0,0.0,0.0,0.0,0.0,100915.0,1.5239616666514118e-05,inf,inf,9.824142651330252,-2.7879448074515865,21.92959518166481,-1.0240749445087562,-5.100255769592437,-0.18596020697678303,0.047368137051954674,-0.013442369112460962,0.10573584962330816,-0.0035355302686722184,-0.1490573035131603,-0.0006420115481395272,0.10401831405775638,0.051029409597971635,0.013442369112460962,0.10573584962330816,0.04736813705195468,0.013442369112460962,-0.007342246017213854,-0.16240815354454244,-0.16240815354454244,-0.0003853797613842664,1067.9,-196.2,38.6,156.9,403.29999999999995,27.5,-1.9,0.6,-1.5,-1.9,10.1,0.0,tailOff_beta0_V50_balance,raw_tailOff_beta0_V50_balance.txt,0,0,40,-2.0,0,inf,inf
4.0,17.0,50.0,6.0,-2.0,0.0,635.11,100926.0,293.96,1590.2,-320.8,71.5,269.5,585.6,49.0,580.631,1.1960718557060885,1494.617652897129,49.992104086087274,542859.4391149166,0.0,0.0,0.0,0.0,0.0,0.0,0.0,0.0,0.0,100926.0,1.5193028839388024e-05,inf,inf,14.646413650125773,-4.518737853785467,35.31086096128027,-1.5499651595439885,-7.938111414311949,-0.33009120922363766,0.04512341593606375,-0.013921557355485906,0.10878749598900499,-0.0034191943272979908,-0.14823730945694039,-0.000728175070980597,0.10714644108012202,0.04889255682781101,0.013921557355485906,0.10878749598900499,0.04512341593606375,0.013921557355485906,-0.007363966361522884,-0.16095547817878178,-0.16095547817878178,-0.0004707327666506916,1592.1000000000001,-321.40000000000003,73.0,271.4,575.5,49.0,-1.9,0.6,-1.5,-1.9,10.1,0.0,tailOff_beta0_V50_balance,raw_tailOff_beta0_V50_balance.txt,0,0,50,-2.0,0,inf,inf
16.0,18.0,0.0,32.0,-1.0,0.0,407.6,100912.0,294.44,1074.0,-181.0,195.1,301.1,460.7,25.9,469.544,1.1939563602513905,955.107110547568,39.99878599973795,433028.3627135485,0.0,0.0,0.0,0.0,0.0,0.0,0.0,0.0,0.0,100912.0,1.5239152227102349e-05,inf,inf,9.896630198534028,-2.5680465453693775,41.781911353247324,-0.9725317077262662,-4.63571607061076,-0.17647878010584458,0.047712925431477204,-0.012380882266564003,0.20143596161422497,-0.003357249725043519,-0.13546752340316956,-0.0006092175003440872,0.20057257657465222,0.05122120079500774,0.012380882266564003,0.201435961614225,0.047712925431477204,0.012380882266564003,-0.006856427646976636,-0.14891555306275872,-0.14891555306275872,-0.00048946355156511,1076.0,-181.3,197.6,304.5,445.2,26.099999999999998,-2.0,0.3,-2.5,-3.4,15.5,-0.2,tailOff_beta0_V50_balance,raw_tailOff_beta0_V50_balance.txt,0,0,40,-1.0,0,inf,inf
5.0,17.0,50.0,42.0,-1.0,0.0,634.71,100924.0,294.06,1606.1,-340.9,302.2,515.9,659.1,49.9,580.82,1.195641417656547,1493.6649008844786,49.985162728889854,542446.0935652658,0.0,0.0,0.0,0.0,0.0,0.0,0.0,0.0,0.0,100924.0,1.5202494827504629e-05,inf,inf,14.790671390528955,-4.821545675217341,66.42988540144222,-1.5991911989365102,-7.211182506156353,-0.33796304999373417,0.045596918517588805,-0.014863938186233711,0.20479111406138797,-0.003530036295567499,-0.13474844201802766,-0.0007460157571101911,0.20396414742853172,0.049164071643388374,0.014863938186233711,0.20479111406138797,0.04559691851758881,0.014863938186233711,-0.007731325449920846,-0.14760006884797408,-0.14760006884797408,-0.0006109719012460424,1608.1,-341.2,304.7,519.3,643.6,50.1,-2.0,0.3,-2.5,-3.4,15.5,-0.2,tailOff_beta0_V50_balance,raw_tailOff_beta0_V50_balance.txt,0,0,50,-1.0,0,inf,inf
17.0,18.0,1.0,22.0,0.0,0.0,407.59,100912.0,294.40999999999997,1095.5,-171.6,348.3,446.1,520.2,25.8,469.504,1.1940780228674959,955.0835021241018,39.99625391840414,433079.16933904984,0.0,0.0,0.0,0.0,0.0,0.0,0.0,0.0,0.0,100912.0,1.523639986254577e-05,inf,inf,10.09243018499959,-2.4222480104842172,61.56499026043126,-0.955634903507658,-4.153204850486796,-0.17432720475878158,0.04865810505259234,-0.011678257465952304,0.29682006303162856,-0.0032990022810427265,-0.12137030699359161,-0.0006018049822543074,0.29682006303162856,0.04865810505259234,0.011678257465952304,0.29682006303162856,0.04865810505259234,0.011678257465952304,-0.006590553812503348,-0.1350847383349777,-0.1350847383349777,-0.0006018049822543074,1097.5,-171.9,352.40000000000003,450.6,498.50000000000006,25.8,-2.0,0.3,-4.1,-4.5,21.7,0.0,tailOff_beta0_V50_balance,raw_tailOff_beta0_V50_balance.txt,0,0,40,0.0,0,inf,inf
6.0,17.0,51.0,26.0,-0.0,0.0,634.49,100925.0,294.15999999999997,1643.0,-347.8,532.0,749.8,751.2,52.5,581.146,1.1952468010257107,1493.1408935893353,49.98464336190064,542118.9391367037,0.0,0.0,0.0,0.0,0.0,0.0,0.0,0.0,0.0,100925.0,1.5211511075007764e-05,inf,inf,15.12715350725449,-4.902581720558917,97.17580247998589,-1.6197067027457204,-6.456111979013965,-0.35387790443180994,0.046650596928488094,-0.015119061470823748,0.2996802531634367,-0.00357657671728469,-0.12068150169806798,-0.0007814201618149426,0.2996802531634367,0.046650596928488094,0.015119061470823748,0.2996802531634367,0.046650596928488094,0.015119061470823748,-0.007837929070889363,-0.13383011091576993,-0.13383011091576993,-0.0007814201618149426,1645.0,-348.1,536.1,754.3,729.5,52.5,-2.0,0.3,-4.1,-4.5,21.7,0.0,tailOff_beta0_V50_balance,raw_tailOff_beta0_V50_balance.txt,0,0,50,-0.0,0,inf,inf
18.0,18.0,2.0,11.0,1.0,0.0,407.58,100908.0,294.39,1134.4,-168.3,493.9,586.2,594.8,28.9,469.802,1.194111810380327,955.0598937098905,39.995193741816365,433102.67894836393,0.0,0.0,0.0,0.0,0.0,0.0,0.0,0.0,0.0,100908.0,1.5235168955000883e-05,inf,inf,10.444683633283486,-2.3317672240897354,80.90446181943635,-0.9522477266667705,-3.6552242490089384,-0.19442363344738595,0.05035765092849941,-0.011242305084573731,0.39007008636225154,-0.0032873904728084043,-0.10682031625416726,-0.0006711976121182096,0.3908895389899827,0.04354231952812995,0.011242305084573731,0.39007008636225154,0.05035765092849942,0.011242305084573731,-0.006443370227653764,-0.12101376964545582,-0.12101376964545582,-0.000783547701509771,1136.0,-168.60000000000002,499.4,591.7,565.6999999999999,28.9,-1.6,0.3,-5.5,-5.5,29.1,0.0,tailOff_beta0_V50_balance,raw_tailOff_beta0_V50_balance.txt,0,0,40,1.0,0,inf,inf
7.0,17.0,52.0,25.0,1.0,0.0,634.38,100923.0,294.27,1704.4,-348.7,757.8,969.8,866.3,61.0,582.026,1.1947763331717318,1492.878891621521,49.99009716864608,541808.1011449689,0.0,0.0,0.0,0.0,0.0,0.0,0.0,0.0,0.0,100923.0,1.52218986690495e-05,inf,inf,15.685323477170437,-4.812734068339481,127.34024124615277,-1.6199577449863838,-5.65216714522937,-0.40914788662510765,0.048380425456948456,-0.014844585269555321,0.39277322257626174,-0.003577758850147182,-0.10567222696859645,-0.0009036238611299695,0.3935577561607069,0.041518218965732975,0.014844585269555321,0.39277322257626174,0.04838042545694846,0.014844585269555321,-0.007744796708794225,-0.11930839349171132,-0.11930839349171132,-0.0010386515747751314,1706.0,-349.0,763.3,975.3,837.1999999999999,61.0,-1.6,0.3,-5.5,-5.5,29.1,0.0,tailOff_beta0_V50_balance,raw_tailOff_beta0_V50_balance.txt,0,0,50,1.0,0,inf,inf
19.0,18.0,2.0,47.0,2.0,0.0,407.68,100912.0,294.39,1188.4,-162.0,634.4,720.5,683.6,30.4,470.094,1.1941591450539062,955.2959782684723,39.999343931004056,433164.7908010217,0.0,0.0,0.0,0.0,0.0,0.0,0.0,0.0,0.0,100912.0,1.5234565055803363e-05,inf,inf,10.939548003656354,-2.2101070362723,99.9978475560863,-0.9085803800274216,-3.1298553213837312,-0.20734349486625805,0.052730538931075335,-0.010653103316430306,0.482007153478147,-0.0031358650192013383,-0.09144432412262371,-0.0007156232148557152,0.48355379701319173,0.03587660984809754,0.010653103316430306,0.48200715347814704,0.05273053893107534,0.010653103316430306,-0.0061097595282279165,-0.10630658304090417,-0.10630658304090417,-0.0009284148090371813,1190.0,-162.5,641.4,728.3,646.6,30.9,-1.6,0.5,-7.0,-7.8,37.0,-0.5,tailOff_beta0_V50_balance,raw_tailOff_beta0_V50_balance.txt,0,0,40,2.0,0,inf,inf
8.0,17.0,53.0,2.0,2.0,0.0,634.54,100926.0,294.34999999999997,1782.8,-342.2,979.2,1181.2,997.3,63.7,582.507,1.1944871163694981,1493.2599857630817,50.00252972974022,541697.860688123,0.0,0.0,0.0,0.0,0.0,0.0,0.0,0.0,0.0,100926.0,1.5228782928214358e-05,inf,inf,16.403600417917136,-4.673270530111842,157.1713515097282,-1.6171804846938531,-4.817354484490563,-0.4299063911736012,0.05058299440084554,-0.014410739778816156,0.4846617444244837,-0.0035707136172371764,-0.09004168601156357,-0.0009492277575879067,0.4861318226311973,0.03363772965599268,0.014410739778816156,0.48466174442448373,0.05058299440084554,0.014410739778816156,-0.0075946463623219225,-0.10429865312942203,-0.10429865312942203,-0.0012136988493637747,1784.3999999999999,-342.7,986.2,1189.0,960.3,64.2,-1.6,0.5,-7.0,-7.8,37.0,-0.5,tailOff_beta0_V50_balance,raw_tailOff_beta0_V50_balance.txt,0,0,50,2.0,0,inf,inf
20.0,18.0,3.0,25.0,3.0,0.0,407.8,100910.0,294.38,1254.4,-165.8,763.7,852.1,783.0,32.9,470.332,1.194176042139894,955.579280960412,40.00499156663663,433243.4529268427,0.0,0.0,0.0,0.0,0.0,0.0,0.0,0.0,0.0,100910.0,1.5233949608754198e-05,inf,inf,11.543091900028452,-2.2446429204874865,118.49054523618237,-0.9228999925628436,-2.5892802199771108,-0.22060382416830582,0.055623230672517295,-0.01081636462960159,0.5709758691402493,-0.003184343234046161,-0.07562802691341228,-0.0007611640487116152,0.5731044615221836,0.02566443286494137,0.01081636462960159,0.5709758691402493,0.05562323067251729,0.01081636462960159,-0.006184589397245526,-0.09130559958542238,-0.09130559958542238,-0.0010837972999116043,1255.8000000000002,-166.20000000000002,773.2,861.3000000000001,737.5,32.9,-1.4,0.4,-9.5,-9.2,45.5,0.0,tailOff_beta0_V50_balance,raw_tailOff_beta0_V50_balance.txt,0,0,40,3.0,0,inf,inf
9.0,17.0,53.0,41.0,3.0,0.0,634.36,100923.0,294.39,1877.3,-325.0,1194.5,1380.0,1143.2,63.4,582.824,1.1942893154062488,1492.8312550204132,49.999491088270474,541518.3805491694,0.0,0.0,0.0,0.0,0.0,0.0,0.0,0.0,0.0,100923.0,1.5232904579840363e-05,inf,inf,17.268195531002327,-4.407596180107709,186.2120309996734,-1.6182432086399354,-3.9514857557847627,-0.4244399633144993,0.0532643975786424,-0.013595395933632652,0.5743780023388103,-0.003574086255963256,-0.07387885273587566,-0.0009374271007377573,0.5763784804298502,0.023130778575628844,0.013595395933632652,0.5743780023388102,0.05326439757864239,0.013595395933632652,-0.007346778161003539,-0.08889158129863056,-0.08889158129863056,-0.001320643049836972,1878.7,-325.4,1204.0,1389.2,1097.7,63.4,-1.4,0.4,-9.5,-9.2,45.5,0.0,tailOff_beta0_V50_balance,raw_tailOff_beta0_V50_balance.txt,0,0,50,3.0,0,inf,inf
21.0,18.0,4.0,9.0,4.0,0.0,407.58,100908.0,294.34999999999997,1333.2,-174.6,885.5,977.9,894.2,35.9,470.813,1.1942740813924393,955.0598937098905,39.99247649242523,433177.58848616696,0.0,0.0,0.0,0.0,0.0,0.0,0.0,0.0,0.0,100908.0,1.5231499443185497e-05,inf,inf,12.265410361899884,-2.36811939620488,136.340647553482,-0.9762810413933671,-2.0338282011906674,-0.2392723507681551,0.05913604233364239,-0.011417572240395827,0.6573482718983439,-0.003370359313425933,-0.05943661916686413,-0.0008260262789757859,0.6598721263305862,0.013137692437261761,0.011417572240395827,0.6573482718983438,0.05913604233364238,0.011417572240395827,-0.00651476616101085,-0.07610428823267437,-0.07610428823267437,-0.0012784612351358058,1334.5,-176.1,895.9,988.6,839.2,35.699999999999996,-1.3,1.5,-10.4,-10.7,55.0,0.2,tailOff_beta0_V50_balance,raw_tailOff_beta0_V50_balance.txt,0,0,40,4.0,0,inf,inf
10.0,17.0,54.0,19.0,4.0,0.0,634.13,100925.0,294.42999999999995,1991.9,-304.0,1401.2,1566.5,1305.1,62.8,583.057,1.1941507284914006,1492.2834367684477,49.993216914620156,541330.7626867057,0.0,0.0,0.0,0.0,0.0,0.0,0.0,0.0,0.0,100925.0,1.5236271937174564e-05,inf,inf,18.318711983698698,-4.100365791660841,214.24655017824807,-1.608813106915408,-3.087128953772634,-0.4189284534093297,0.05652549795998708,-0.012652375254219611,0.661094128550715,-0.003554563137052093,-0.05773961628739425,-0.000925593924583402,0.6634267558943596,0.010272209467274786,0.012652375254219611,0.661094128550715,0.05652549795998707,0.012652375254219611,-0.007038760889608326,-0.07367149567258621,-0.07367149567258621,-0.001414338363490444,1993.2,-305.5,1411.6000000000001,1577.2,1250.1,62.599999999999994,-1.3,1.5,-10.4,-10.7,55.0,0.2,tailOff_beta0_V50_balance,raw_tailOff_beta0_V50_balance.txt,0,0,50,4.0,0,inf,inf
22.0,18.0,5.0,0.0,5.0,0.0,407.67,100906.0,294.33,1419.5,-163.3,1008.0,1089.8,1012.5,36.1,471.339,1.194331561276754,955.2723697709672,39.9959624070949,433258.9457373078,0.0,0.0,0.0,0.0,0.0,0.0,0.0,0.0,0.0,100906.0,1.5229966669309492e-05,inf,inf,13.053911002776575,-2.1922934493480284,153.64621263530879,-0.9692178012253592,-1.4692212561202567,-0.2411027689667568,0.06292369425671818,-0.010567499862565324,0.740619980135493,-0.0033452310653929594,-0.042926989050876566,-0.0008321601931786243,0.7432858588211628,-0.0018650338595760652,0.010567499862565324,0.740619980135493,0.06292369425671818,0.010567499862565324,-0.006227121095179663,-0.06066221905412871,-0.06066221905412871,-0.0013717229366375424,1420.4,-165.3,1020.8,1102.3999999999999,947.0,36.0,-0.9,2.0,-12.8,-12.6,65.5,0.1,tailOff_beta0_V50_balance,raw_tailOff_beta0_V50_balance.txt,0,0,40,5.0,0,inf,inf
11.0,17.0,55.0,2.0,5.0,0.0,634.66,100924.0,294.46999999999997,2133.2,-276.1,1601.3,1739.1,1486.7,64.1,583.324,1.1939766878666225,1493.5458079240689,50.01800294116751,541463.3737414227,0.0,0.0,0.0,0.0,0.0,0.0,0.0,0.0,0.0,100924.0,1.5240092493903126e-05,inf,inf,19.61211308257764,-3.646360575126867,241.5988323233843,-1.5817612398482992,-2.2364720972180514,-0.42746313920221934,0.0604653571695588,-0.011241955092534383,0.7448641371112158,-0.0034918400155060435,-0.04179413855016071,-0.000943652466008898,0.7472996073034914,-0.004683918885483307,0.011241955092534383,0.7448641371112157,0.0604653571695588,0.011241955092534383,-0.006552828793414096,-0.05883647894829179,-0.05883647894829179,-0.0015111782440675116,2134.1,-278.1,1614.1,1751.6999999999998,1421.2,63.99999999999999,-0.9,2.0,-12.8,-12.6,65.5,0.1,tailOff_beta0_V50_balance,raw_tailOff_beta0_V50_balance.txt,0,0,50,5.0,0,inf,inf
