run,hr,min,sec,AoA,AoS,dPb,pBar,temp,B1,B2,B3,B4,B5,B6,rpmWT,rho,q,V,Re,rpsM1,rpsM2,iM1,iM2,dPtQ,tM1,tM2,vM1,vM2,pInf,nu,J_M1,J_M2,FX,FY,FZ,MX,MY,MZ,CFX,CFY,CFZ,CMX,CMY,CMZ,CN,CT,CY,CL,CD,CYaw,CMroll,CMpitch,CMpitch25c,CMyaw,B1_zeroed,B2_zeroed,B3_zeroed,B4_zeroed,B5_zeroed,B6_zeroed,B1_zero,B2_zero,B3_zero,B4_zero,B5_zero,B6_zero,config,source_file,dR,dE,V_round,AoA_round,AoS_round,J,J_round
22.0,18.0,39.0,1.0,0.0,-10.0,229.65,100884.0,294.78999999999996,835.5,355.7,393.1,63.1,381.8,37.6,359.961,1.192207899625275,536.4604639763018,29.999074787617214,323998.0007564202,0.0,0.0,0.0,0.0,0.0,0.0,0.0,0.0,0.0,100884.0,1.5275515326537995e-05,inf,inf,7.679918190672924,6.135252112393879,37.378169480497306,1.1140404219553826,-3.1327406509155917,-0.23396037452633411,0.06592037268649334,0.05266177265609162,0.32083451949862457,0.006846918900186424,-0.16298857503004982,-0.0014379260201594444,0.32083451949862457,0.06592037268649334,-0.05266177265609162,0.32083451949862457,0.07406351495755334,-0.040414769410950874,0.02168979583974314,-0.181568427743803,-0.181568427743803,-0.0014379260201594444,835.4,355.7,393.1,63.1,381.8,37.6,0.1,0.0,0.0,0.0,0.0,0.0,tailOff_alfa0_V50_balance,raw_tailOff_alfa0_V50_balance.txt,0,0,30,0.0,-10,inf,inf
1.0,18.0,29.0,12.0,0.0,-10.0,633.35,100886.0,294.78,1407.5,3554.4,1732.8,-237.6,560.3,-1360.4,585.896,1.1922719796384158,1490.425654803632,50.001437239583964,540072.0228653919,0.0,0.0,0.0,0.0,0.0,0.0,0.0,0.0,0.0,100886.0,1.5274294066748413e-05,inf,inf,12.926990280967221,39.921759698167364,105.45761677386376,10.138846457721407,-6.35292653846686,8.904455911933553,0.039938144677658764,0.12333891957508604,0.32581300554366405,0.022429014114931454,-0.11896903998220784,0.019698312640137064,0.32581300554366405,0.039938144677658764,-0.12333891957508604,0.32581300554366405,0.06074897313910337,-0.11452993820302027,0.057192454705249654,-0.1302257246083781,-0.1302257246083781,0.019698312640137064,1407.4,3554.4,1732.8,-237.6,560.3,-1360.4,0.1,0.0,0.0,0.0,0.0,0.0,tailOff_alfa0_V50_balance,raw_tailOff_alfa0_V50_balance.txt,0,0,50,0.0,-10,inf,inf
23.0,18.0,39.0,21.0,0.0,-9.0,229.93,100885.0,294.76,825.5,269.4,355.7,96.2,384.0,48.5,359.861,1.192341058638124,537.116892264284,30.01574683811783,324239.76081558905,0.0,0.0,0.0,0.0,0.0,0.0,0.0,0.0,0.0,100885.0,1.527260864824914e-05,inf,inf,7.610442516659136,4.923004843030476,37.18335175949628,0.919271992260495,-3.034375033472074,-0.31423851236313627,0.06524419544006647,0.04220483755418664,0.318772248000408,0.0056429626144469044,-0.15767792147762805,-0.0019289570357998087,0.318772248000408,0.06524419544006647,-0.04220483755418664,0.318772248000408,0.07104322231256315,-0.03147878515833489,0.017538521356112446,-0.1760671916273725,-0.1760671916273725,-0.0019289570357998087,827.8,270.4,357.7,94.5,383.7,49.6,-2.3,-1.0,-2.0,1.7,0.3,-1.1,tailOff_alfa0_V50_balance,raw_tailOff_alfa0_V50_balance.txt,0,0,30,0.0,-9,inf,inf
2.0,18.0,29.0,31.0,0.0,-9.0,633.83,100890.0,294.9,1423.5,3412.5,1644.8,-173.3,584.1,-1386.7,585.486,1.1918340759998887,1491.5688985800193,50.02979902072832,540010.0943183695,0.0,0.0,0.0,0.0,0.0,0.0,0.0,0.0,0.0,100890.0,1.52847105963934e-05,inf,inf,13.097404418315449,37.3651629671605,104.60832596237215,9.852043344744065,-6.2251496461350255,9.064641644084602,0.04043362693952555,0.11535179121719898,0.3229413929385904,0.021777847401210648,-0.11648685443570783,0.020037303487590568,0.3229413929385904,0.04043362693952555,-0.11535179121719898,0.3229413929385904,0.057980817646637775,-0.1076064064520711,0.05429009215558982,-0.12788319220812994,-0.12788319220812994,0.020037303487590568,1425.8,3413.5,1646.8,-175.0,583.8000000000001,-1385.6000000000001,-2.3,-1.0,-2.0,1.7,0.3,-1.1,tailOff_alfa0_V50_balance,raw_tailOff_alfa0_V50_balance.txt,0,0,50,0.0,-9,inf,inf
24.0,18.0,39.0,39.0,0.0,-8.0,229.53,100883.0,294.72999999999996,814.4,168.4,316.4,131.0,384.1,68.1,359.512,1.1924387847076852,536.1791397883329,29.988304224556842,323995.3414609255,0.0,0.0,0.0,0.0,0.0,0.0,0.0,0.0,0.0,100883.0,1.5270156294362348e-05,inf,inf,7.523545303602841,3.5172350532897303,36.9495131936237,0.6181508770196912,-2.944883220959751,-0.45014614348331355,0.06461203325711402,0.03020593338188794,0.3173215656928827,0.003801163336569287,-0.15329521718763844,-0.0027680604854214623,0.3173215656928827,0.06461203325711402,-0.03020593338188794,0.3173215656928827,0.06818708680713892,-0.020919714286891267,0.012314795320811828,-0.17150631054966475,-0.17150631054966475,-0.0027680604854214623,818.3,166.4,319.4,129.0,383.5,70.1,-3.9,2.0,-3.0,2.0,0.6,-2.0,tailOff_alfa0_V50_balance,raw_tailOff_alfa0_V50_balance.txt,0,0,30,0.0,-8,inf,inf
3.0,18.0,29.0,51.0,0.0,-8.0,632.9,100888.0,294.98999999999995,1463.7,3134.6,1526.5,-89.0,619.4,-1335.1,584.909,1.1914468340794255,1489.3538831290628,50.000761094551635,539394.1723357136,0.0,0.0,0.0,0.0,0.0,0.0,0.0,0.0,0.0,100888.0,1.5293282292220372e-05,inf,inf,13.48341549991403,33.53311757091303,103.43719148300274,9.075186659169407,-6.174765790374243,8.718112639454386,0.04168720680811906,0.10367566045179988,0.31980083926290337,0.02009044793757071,-0.11571589759170833,0.01929996535331494,0.31980083926290337,0.04168720680811906,-0.10367566045179988,0.31980083926290337,0.055710372936266316,-0.09686495820926119,0.04931174057735289,-0.1274655605711065,-0.1274655605711065,0.01929996535331494,1467.6000000000001,3132.6,1529.5,-91.0,618.8,-1333.1,-3.9,2.0,-3.0,2.0,0.6,-2.0,tailOff_alfa0_V50_balance,raw_tailOff_alfa0_V50_balance.txt,0,0,50,0.0,-8,inf,inf
25.0,18.0,39.0,58.0,0.0,-7.0,229.75,100878.0,294.7,773.5,207.2,313.0,137.4,364.9,10.4,359.36,1.1925010670129024,536.6949018176438,30.001940443176785,324185.090135162,0.0,0.0,0.0,0.0,0.0,0.0,0.0,0.0,0.0,100878.0,1.5268158073119952e-05,inf,inf,7.148415217413336,3.395224944202655,36.65953998572904,0.6298522791182855,-2.8258607920930725,-0.08636749631902649,0.061331428747675734,0.029130092533019677,0.31452873065911385,0.0038693961117814463,-0.14695816992619734,-0.000530584814123343,0.31452873065911385,0.061331428747675734,-0.029130092533019677,0.31452873065911385,0.0644243388284998,-0.021438540289025462,0.012079799159341912,-0.16424461516938912,-0.16424461516938912,-0.000530584814123343,777.5,202.0,317.0,135.20000000000002,362.2,14.100000000000001,-4.0,5.2,-4.0,2.2,2.7,-3.7,tailOff_alfa0_V50_balance,raw_tailOff_alfa0_V50_balance.txt,0,0,30,0.0,-7,inf,inf
4.0,18.0,30.0,16.0,0.0,-7.0,633.33,100888.0,295.03999999999996,1520.7,2741.4,1387.6,6.7,658.6,-1210.7,584.453,1.191244921316058,1490.3780201090253,50.02218813624959,539463.2546302583,0.0,0.0,0.0,0.0,0.0,0.0,0.0,0.0,0.0,100888.0,1.5297876730261953e-05,inf,inf,14.01040670851643,28.76571958258328,101.76082744213427,7.833352141219368,-6.245491856013404,7.8917344693189,0.04328676064521674,0.08887499444265304,0.3144017637881482,0.017329385737136868,-0.11696088627114751,0.017458542433482115,0.3144017637881482,0.04328676064521674,-0.08887499444265304,0.3144017637881482,0.05379524491329116,-0.08293720461323081,0.042379066729284265,-0.12916138824750242,-0.12916138824750242,0.017458542433482115,1524.7,2736.2000000000003,1391.6,4.5,655.9,-1207.0,-4.0,5.2,-4.0,2.2,2.7,-3.7,tailOff_alfa0_V50_balance,raw_tailOff_alfa0_V50_balance.txt,0,0,50,0.0,-7,inf,inf
26.0,18.0,40.0,19.0,0.0,-6.0,229.94,100877.0,294.66999999999996,709.4,360.4,338.0,113.0,331.7,-109.2,358.951,1.1926106516953323,537.1403362659074,30.01300905388601,324360.00251461065,0.0,0.0,0.0,0.0,0.0,0.0,0.0,0.0,0.0,100877.0,1.5265554501500177e-05,inf,inf,6.595553213861049,4.321569217302035,35.867277180350506,0.7939073486640357,-2.6860429008369655,0.6862775802879346,0.056541098652814384,0.03704712304298118,0.30747614213772007,0.004873197478171196,-0.13957113790367595,0.0042125396360323366,0.30747614213772007,0.056541098652814384,-0.03704712304298118,0.30747614213772007,0.060103839438571977,-0.030934020873003794,0.015315039075160769,-0.155507414390449,-0.155507414390449,0.0042125396360323366,717.4,351.7,342.5,110.5,328.09999999999997,-104.5,-8.0,8.7,-4.5,2.5,3.6,-4.7,tailOff_alfa0_V50_balance,raw_tailOff_alfa0_V50_balance.txt,0,0,30,0.0,-6,inf,inf
5.0,18.0,30.0,43.0,0.0,-6.0,633.19,100889.0,295.08,1571.0,2267.7,1240.9,111.5,690.7,-1027.9,583.477,1.1910952463695557,1490.0445782833244,50.01973458271627,539312.5500218092,0.0,0.0,0.0,0.0,0.0,0.0,0.0,0.0,0.0,100889.0,1.53014009837859e-05,inf,inf,14.511716046403528,23.420413805502612,99.98317162607245,6.263712566073878,-6.366006287715885,6.689097634379984,0.044845646723895696,0.07237625104367439,0.30897861967115253,0.013860040977385716,-0.11924446867029917,0.014801312534101831,0.30897861967115253,0.044845646723895696,-0.07237625104367439,0.30897861967115253,0.05216535587753393,-0.06729211983131211,0.03425950216915508,-0.13188434731518603,-0.13188434731518603,0.014801312534101831,1579.0,2259.0,1245.4,109.0,687.1,-1023.2,-8.0,8.7,-4.5,2.5,3.6,-4.7,tailOff_alfa0_V50_balance,raw_tailOff_alfa0_V50_balance.txt,0,0,50,0.0,-6,inf,inf
27.0,18.0,40.0,45.0,0.0,-5.0,229.88,100881.0,294.64,598.0,706.9,387.7,62.0,285.3,-339.7,358.29,1.1927793768314503,536.99967239499,30.00695641248713,324365.98208525864,0.0,0.0,0.0,0.0,0.0,0.0,0.0,0.0,0.0,100881.0,1.5262194580626467e-05,inf,inf,5.665135414372244,6.954416679013202,34.655114025053855,1.9069505299075935,-2.32679381623429,2.17046445216003,0.04857771198823735,0.059633111261954266,0.29716256097916,0.011708394891499127,-0.1209356439107162,0.013326331493812994,0.29716256097916,0.04857771198823735,-0.059633111261954266,0.29716256097916,0.05359022723249924,-0.05517236270055736,0.028516164310208474,-0.13462741622828234,-0.13462741622828234,0.013326331493812994,616.3,692.6,393.5,59.0,280.3,-332.09999999999997,-18.3,14.3,-5.8,3.0,5.0,-7.6,tailOff_alfa0_V50_balance,raw_tailOff_alfa0_V50_balance.txt,0,0,30,0.0,-5,inf,inf
6.0,18.0,31.0,6.0,0.0,-5.0,632.77,100884.0,295.13,1613.7,1725.7,1081.0,231.6,722.9,-803.0,582.529,1.1908344347593764,1489.0442636899363,50.008417258363295,539001.9316031974,0.0,0.0,0.0,0.0,0.0,0.0,0.0,0.0,0.0,100884.0,1.5306754895821067e-05,inf,inf,15.00114641942636,17.494395733917855,98.36290834580217,4.528171213032203,-6.47946630517829,5.198994123794351,0.046389279069219455,0.05409935901946294,0.3041757128244842,0.010026449878021152,-0.12145127237294356,0.011511811622388811,0.3041757128244842,0.046389279069219455,-0.05409935901946294,0.3041757128244842,0.050927823674568315,-0.04985040255254462,0.025274514801295257,-0.13452622837633837,-0.13452622837633837,0.011511811622388811,1632.0,1711.4,1086.8,228.6,717.9,-795.4,-18.3,14.3,-5.8,3.0,5.0,-7.6,tailOff_alfa0_V50_balance,raw_tailOff_alfa0_V50_balance.txt,0,0,50,0.0,-5,inf,inf
28.0,18.0,41.0,7.0,0.0,-4.0,230.19,100880.0,294.59999999999997,605.9,513.9,339.6,111.5,294.5,-257.1,357.678,1.1929295039917849,537.7264393143222,30.02536553203596,324639.880048685,0.0,0.0,0.0,0.0,0.0,0.0,0.0,0.0,0.0,100880.0,1.5258673281338502e-05,inf,inf,5.792649957303759,4.8418180223394,35.00980631057456,1.2471059275885152,-2.3539637515650447,1.6186778831978963,0.04960399737180204,0.041461771421565104,0.2997982534793743,0.007646697470206533,-0.12218244774530178,0.009925011020084423,0.2997982534793743,0.04960399737180204,-0.041461771421565104,0.2997982534793743,0.05237539149684585,-0.037900572689973745,0.019332820816742473,-0.13616348164455822,-0.13616348164455822,0.009925011020084423,630.1,495.0,346.40000000000003,108.5,288.5,-247.8,-24.2,18.9,-6.8,3.0,6.0,-9.3,tailOff_alfa0_V50_balance,raw_tailOff_alfa0_V50_balance.txt,0,0,30,0.0,-4,inf,inf
7.0,18.0,31.0,30.0,0.0,-4.0,632.39,100884.0,295.15999999999997,1634.8,1241.0,946.0,359.8,743.0,-615.2,581.322,1.1907133985991827,1488.139231220449,49.9957583791348,538768.4300324979,0.0,0.0,0.0,0.0,0.0,0.0,0.0,0.0,0.0,100884.0,1.5309512470217875e-05,inf,inf,15.251127110927964,12.026252961281642,98.49204439382193,3.016702693269438,-6.493086669912985,3.957933799918049,0.047190997339550504,0.03721238878757674,0.30476028238105307,0.006683760827119996,-0.12178059035403956,0.008769138220762583,0.30476028238105307,0.047190997339550504,-0.03721238878757674,0.30476028238105307,0.049671847463259367,-0.03382986371190288,0.0171721830647837,-0.1350815130316751,-0.1350815130316751,0.008769138220762583,1659.0,1222.1,952.8,356.8,737.0,-605.9000000000001,-24.2,18.9,-6.8,3.0,6.0,-9.3,tailOff_alfa0_V50_balance,raw_tailOff_alfa0_V50_balance.txt,0,0,50,0.0,-4,inf,inf
29.0,18.0,41.0,30.0,0.0,-3.0,229.75,100881.0,294.59,615.2,345.0,294.6,155.1,296.8,-188.3,357.201,1.1929818241950458,536.6949018176438,29.99589462525845,324343.96538737835,0.0,0.0,0.0,0.0,0.0,0.0,0.0,0.0,0.0,100881.0,1.5257603940264013e-05,inf,inf,5.821704123162709,2.9834378293088784,34.956140048041505,0.7253060102705965,-2.350171667964443,1.1712876794320202,0.04994861388997546,0.025597072789734904,0.2999140295359072,0.004455800747314123,-0.12222007832191824,0.007195617357956143,0.2999140295359072,0.04994861388997546,-0.025597072789734904,0.2999140295359072,0.05121980833205305,-0.022947884420150475,0.011670411693133893,-0.1362982434097503,-0.1362982434097503,0.007195617357956143,633.2,325.7,301.1,151.79999999999998,291.1,-179.5,-18.0,19.3,-6.5,3.3,5.7,-8.8,tailOff_alfa0_V50_balance,raw_tailOff_alfa0_V50_balance.txt,0,0,30,0.0,-3,inf,inf
8.0,18.0,31.0,53.0,0.0,-3.0,632.87,100888.0,295.17999999999995,1653.5,791.3,813.5,483.2,752.9,-445.8,580.961,1.190679929484009,1489.2824323504417,50.01566121089656,538939.5589081935,0.0,0.0,0.0,0.0,0.0,0.0,0.0,0.0,0.0,100888.0,1.5310743892672773e-05,inf,inf,15.367653230186098,6.929506018541917,98.16233731922252,1.7941487613840126,-6.481751831730527,2.850903356009789,0.04751505832212021,0.02142525457092937,0.30350692541635477,0.003972037487162009,-0.12147468278596081,0.006311569723801257,0.30350692541635477,0.04751505832212021,-0.02142525457092937,0.30350692541635477,0.04857125177177344,-0.018909145990938098,0.010010809084764007,-0.1348669430134469,-0.1348669430134469,0.006311569723801257,1671.5,772.0,820.0,479.9,747.1999999999999,-437.0,-18.0,19.3,-6.5,3.3,5.7,-8.8,tailOff_alfa0_V50_balance,raw_tailOff_alfa0_V50_balance.txt,0,0,50,0.0,-3,inf,inf
30.0,18.0,41.0,49.0,0.0,-2.0,229.96,100880.0,294.56,625.5,206.4,258.3,187.8,299.2,-126.7,357.144,1.1930914987641899,537.1872242969189,30.008270085264623,324533.1453198203,0.0,0.0,0.0,0.0,0.0,0.0,0.0,0.0,0.0,100880.0,1.5255001020923343e-05,inf,inf,5.867184673698994,1.5414877729705194,34.8018968935561,0.33249079123478603,-2.3547959505018095,0.7707758700909606,0.05029268982359415,0.013213418486790683,0.298317012857352,0.0020407316569884446,-0.12234833004134281,0.004730797844643796,0.298317012857352,0.05029268982359415,-0.013213418486790683,0.298317012857352,0.05072319453072514,-0.011450179666604722,0.005764972879005325,-0.13652347395238917,-0.13652347395238917,0.004730797844643796,638.1,188.0,264.40000000000003,184.60000000000002,294.4,-118.3,-12.6,18.4,-6.1,3.2,4.8,-8.4,tailOff_alfa0_V50_balance,raw_tailOff_alfa0_V50_balance.txt,0,0,30,0.0,-2,inf,inf
9.0,18.0,32.0,12.0,0.0,-2.0,632.48,100889.0,295.21,1634.6,454.5,736.7,563.0,737.8,-284.7,580.557,1.1905707303232562,1488.3535798080945,50.00235456155969,538704.4832280023,0.0,0.0,0.0,0.0,0.0,0.0,0.0,0.0,0.0,100889.0,1.531334988059392e-05,inf,inf,15.144958553074542,3.5524290193237675,97.98768654805468,0.7835101777607849,-6.4310487725246155,1.8000956411277926,0.0468557349001007,0.01099056638534466,0.30315600061102493,0.0017356832864883767,-0.12059967238038803,0.003987690277764336,0.30315600061102493,0.0468557349001007,-0.01099056638534466,0.30315600061102493,0.0472107568877231,-0.009348629663618548,0.004833407045599803,-0.133806100344302,-0.133806100344302,0.003987690277764336,1647.1999999999998,436.1,742.8000000000001,559.8,733.0,-276.3,-12.6,18.4,-6.1,3.2,4.8,-8.4,tailOff_alfa0_V50_balance,raw_tailOff_alfa0_V50_balance.txt,0,0,50,0.0,-2,inf,inf
31.0,18.0,42.0,8.0,0.0,-1.0,229.9,100879.0,294.53999999999996,629.7,72.1,224.3,218.8,303.4,-65.0,357.045,1.1931606850082879,537.046560314943,30.003471029374552,324517.085092412,0.0,0.0,0.0,0.0,0.0,0.0,0.0,0.0,0.0,100879.0,1.525331621685139e-05,inf,inf,5.932880544878616,0.14596578750331113,34.70875508811972,-0.10195928545595695,-2.3742994599572085,0.3592611344398153,0.050869145909614985,0.0012515261155438796,0.2975965407634509,-0.0006259603135729124,-0.12339398657406182,0.0022056177753977013,0.2975965407634509,0.050869145909614985,-0.0012515261155438796,0.2975965407634509,0.05088324043473806,-0.0003635464925225007,-0.0002732139629900775,-0.13773160634405318,-0.13773160634405318,0.0022056177753977013,645.2,51.89999999999999,230.9,215.0,298.2,-55.4,-15.5,20.2,-6.6,3.8,5.2,-9.6,tailOff_alfa0_V50_balance,raw_tailOff_alfa0_V50_balance.txt,0,0,30,0.0,-1,inf,inf
10.0,18.0,32.0,29.0,0.0,-0.995,632.37,100888.0,295.25,1634.4,58.1,633.3,662.5,739.7,-115.2,580.41,1.1903976344964935,1488.0915983027755,50.00158860665264,538561.5637663694,0.0,0.0,0.0,0.0,0.0,0.0,0.0,0.0,0.0,100888.0,1.5317178985561736e-05,inf,inf,15.17098411099602,-0.694753800797935,97.79066813765033,-0.419565750730707,-6.438218757410274,0.6822845571053247,0.04694451644300277,-0.0021498197471420373,0.30259972555325265,-0.0009296132822824602,-0.12075538460173363,0.001511707725134142,0.30259972555325265,0.04694451644300277,0.0021498197471420373,0.30259972555325265,0.046900105934740345,0.0029646943051001226,-0.001535546359344709,-0.13398683590704563,-0.13398683590704563,0.001511707725134142,1649.9,37.900000000000006,639.9,658.7,734.5,-105.60000000000001,-15.5,20.2,-6.6,3.8,5.2,-9.6,tailOff_alfa0_V50_balance,raw_tailOff_alfa0_V50_balance.txt,0,0,50,0.0,-1,inf,inf
32.0,18.0,42.0,26.0,0.0,0.0,229.98,100879.0,294.53,633.1,-61.8,192.8,249.8,306.8,2.9,357.13,1.1932011956756226,537.2341123649497,30.008200187158376,324587.7700694933,0.0,0.0,0.0,0.0,0.0,0.0,0.0,0.0,0.0,100879.0,1.5252398235316404e-05,inf,inf,5.956193646811261,-1.1806082635817001,34.76518379054657,-0.49298982954002346,-2.367487270879029,-0.08854747965872334,0.05105120636942455,-0.010119126354769309,0.2979763045669838,-0.0030255639330582854,-0.12299699831507523,-0.0005434312125031284,0.2979763045669838,0.05105120636942455,0.010119126354769309,0.2979763045669838,0.05105120636942455,0.010119126354769309,-0.0058776697328483726,-0.1373859323660757,-0.1373859323660757,-0.0005434312125031284,647.7,-84.19999999999999,199.8,246.0,300.6,13.1,-14.6,22.4,-7.0,3.8,6.2,-10.2,tailOff_alfa0_V50_balance,raw_tailOff_alfa0_V50_balance.txt,0,0,30,0.0,0,inf,inf
11.0,18.0,32.0,45.0,0.0,-0.005,632.55,100888.0,295.27,1630.1,-331.4,527.8,762.8,739.5,46.5,580.288,1.1903170033701012,1488.5202958945356,50.01048420313586,538592.7207505493,0.0,0.0,0.0,0.0,0.0,0.0,0.0,0.0,0.0,100888.0,1.5319017768606163e-05,inf,inf,15.124358368030329,-4.941724106526905,97.47833755890454,-1.5639934986412019,-6.403998073157389,-0.38126327524415643,0.04678676092987242,-0.015287079208740822,0.30154639054640553,-0.0034642732342192247,-0.12007894762950805,-0.00084450489133529,0.30154639054640553,0.04678676092987242,0.015287079208740822,0.30154639054640553,0.046785426702397305,0.015291162065649606,-0.007772981885984463,-0.13326593507517706,-0.13326593507517706,-0.00084450489133529,1644.6999999999998,-353.79999999999995,534.8,759.0,733.3,56.7,-14.6,22.4,-7.0,3.8,6.2,-10.2,tailOff_alfa0_V50_balance,raw_tailOff_alfa0_V50_balance.txt,0,0,50,0.0,0,inf,inf
33.0,18.0,42.0,45.0,0.0,1.0,229.73,100881.0,294.53,615.6,-150.8,181.7,263.7,296.8,69.1,356.979,1.1932248517625321,536.6480141753365,29.99152962319785,324413.8822669836,0.0,0.0,0.0,0.0,0.0,0.0,0.0,0.0,0.0,100881.0,1.5252095851354403e-05,inf,inf,5.791571047237738,-1.823179144496487,34.70942872401069,-0.7804298462170752,-2.334539319921072,-0.5291422353347318,0.049694421906506,-0.01564374033898163,0.2978233334403195,-0.004794864059097662,-0.12141772954783414,-0.003250984183466754,0.2978233334403195,0.049694421906506,0.01564374033898163,0.2978233334403195,0.049959874119944535,0.01477407047277766,-0.009204098709101875,-0.1354242498706049,-0.1354242498706049,-0.003250984183466754,629.8000000000001,-176.70000000000002,189.5,259.7,289.8,80.69999999999999,-14.2,25.9,-7.8,4.0,7.0,-11.6,tailOff_alfa0_V50_balance,raw_tailOff_alfa0_V50_balance.txt,0,0,30,0.0,1,inf,inf
12.0,18.0,33.0,2.0,0.0,1.0,632.19,100883.0,295.28999999999996,1616.5,-586.2,485.8,801.6,733.4,218.0,580.144,1.1901773951603376,1487.6629037095904,49.99901122600927,538377.8491007594,0.0,0.0,0.0,0.0,0.0,0.0,0.0,0.0,0.0,100883.0,1.5321615971778956e-05,inf,inf,14.995863242440501,-6.931313032409978,97.15325792341686,-2.365470367713319,-6.35905512662138,-1.509237783708586,0.0464160007679389,-0.021454172116256744,0.3007139783469504,-0.005242578401768369,-0.11930495944101281,-0.0033449150393087134,0.3007139783469504,0.0464160007679389,0.021454172116256744,0.3007139783469504,0.046783358317749345,0.020640833631332487,-0.01128950049535711,-0.13238744703450997,-0.13238744703450997,-0.0033449150393087134,1630.7,-612.1,493.6,797.6,726.4,229.6,-14.2,25.9,-7.8,4.0,7.0,-11.6,tailOff_alfa0_V50_balance,raw_tailOff_alfa0_V50_balance.txt,0,0,50,0.0,1,inf,inf
34.0,18.0,43.0,4.0,0.0,1.995,229.73,100879.0,294.48999999999995,618.7,-275.8,160.5,286.0,299.9,152.9,357.142,1.1933632658573843,536.6480141753365,29.98979026565095,324466.74575509183,0.0,0.0,0.0,0.0,0.0,0.0,0.0,0.0,0.0,100879.0,1.5248726515124408e-05,inf,inf,5.813780700181118,-2.8222989053018965,34.86783639077153,-1.131155775171262,-2.3179024515583926,-1.0751455008796933,0.04988499124507809,-0.024216660972023338,0.2991825462274946,-0.00694968061242091,-0.12055245785755006,-0.006605560442693131,0.2991825462274946,0.04988499124507809,0.024216660972023338,0.2991825462274946,0.0506977916554931,0.022465372051485143,-0.013775218389929235,-0.13461269071406612,-0.13461269071406612,-0.006605560442693131,632.2,-304.0,168.5,282.0,292.9,164.4,-13.5,28.2,-8.0,4.0,7.0,-11.5,tailOff_alfa0_V50_balance,raw_tailOff_alfa0_V50_balance.txt,0,0,30,0.0,2,inf,inf
13.0,18.0,33.0,18.0,0.0,1.995,632.02,100885.0,295.33,1641.7,-809.8,473.5,809.7,752.0,434.5,579.998,1.1900397875060897,1487.2580282360136,49.99509729923584,538217.1710561148,0.0,0.0,0.0,0.0,0.0,0.0,0.0,0.0,0.0,100885.0,1.5324990314293505e-05,inf,inf,15.220982798996268,-7.868617923507768,97.36586863392543,-3.0248929336547294,-6.3568894751624825,-2.9179062367690096,0.04712562839567955,-0.02436199877154211,0.301454104787997,-0.006705877891377844,-0.11929679599125351,-0.006468699339590007,0.301454104787997,0.04712562839567955,0.02436199877154211,0.301454104787997,0.047945160882740694,0.022706681478375696,-0.013572379559088098,-0.13257929423802378,-0.13257929423802378,-0.006468699339590007,1655.2,-838.0,481.5,805.7,745.0,446.0,-13.5,28.2,-8.0,4.0,7.0,-11.5,tailOff_alfa0_V50_balance,raw_tailOff_alfa0_V50_balance.txt,0,0,50,0.0,2,inf,inf
35.0,18.0,43.0,23.0,0.0,3.005,229.61,100877.0,294.47999999999996,607.0,-440.1,120.3,328.8,294.3,228.9,357.173,1.1933801301788358,536.366689098901,29.9817166682907,324392.49091843114,0.0,0.0,0.0,0.0,0.0,0.0,0.0,0.0,0.0,100877.0,1.5248110941523684e-05,inf,inf,5.725901850480032,-4.5353249033793155,34.87718621958203,-1.5935372710342102,-2.3002343766258604,-1.579046599263413,0.04915671835514227,-0.03893564625209032,0.29941973592720805,-0.009795630231451996,-0.11969630181286199,-0.009706554647810364,0.29941973592720805,0.04915671835514227,0.03893564625209032,0.29941973592720805,0.05113025347722473,0.03630516062310487,-0.020769757700650263,-0.13355126879361034,-0.13355126879361034,-0.009706554647810364,622.6,-470.90000000000003,128.3,324.6,287.1,241.4,-15.6,30.8,-8.0,4.2,7.2,-12.5,tailOff_alfa0_V50_balance,raw_tailOff_alfa0_V50_balance.txt,0,0,30,0.0,3,inf,inf
14.0,18.0,33.0,35.0,0.0,3.005,631.79,100886.0,295.37,1624.1,-1239.5,363.6,928.5,744.3,618.1,580.25,1.189890422716634,1486.7102597937046,49.989026884719195,538028.0135331104,0.0,0.0,0.0,0.0,0.0,0.0,0.0,0.0,0.0,100886.0,1.5328516789468393e-05,inf,inf,15.079606465759229,-12.48837098179234,97.71867795962743,-4.186928972087647,-6.310149894575204,-4.1278781994901195,0.046705115503880075,-0.038679445016309245,0.30265790764196,-0.009285412686698497,-0.11846328689306855,-0.009154454937787118,0.30265790764196,0.046705115503880075,0.038679445016309245,0.30265790764196,0.04866859080493507,0.036177832301870425,-0.020187329077107317,-0.13162726233307273,-0.13162726233307273,-0.009154454937787118,1639.6999999999998,-1270.3,371.6,924.3,737.0999999999999,630.6,-15.6,30.8,-8.0,4.2,7.2,-12.5,tailOff_alfa0_V50_balance,raw_tailOff_alfa0_V50_balance.txt,0,0,50,0.0,3,inf,inf
36.0,18.0,43.0,41.0,0.0,4.0,229.48,100878.0,294.46999999999997,594.5,-640.1,72.7,372.8,286.8,323.3,357.682,1.1934324870061546,536.0619217700107,29.97254006556291,324315.94032045855,0.0,0.0,0.0,0.0,0.0,0.0,0.0,0.0,0.0,100878.0,1.5247041920484933e-05,inf,inf,5.598588696065914,-6.589594034968988,34.48302596136749,-2.293300846215989,-2.2632093865526532,-2.200695614205513,0.048091063919238286,-0.05660365587495445,0.296204185673109,-0.014105160358232966,-0.11783660399915649,-0.013535583257315562,0.296204185673109,0.048091063919238286,0.05660365587495445,0.296204185673109,0.051922387939442205,0.05311110917652346,-0.030059068783755367,-0.13139121311395316,-0.13139121311395316,-0.013535583257315562,608.7,-673.1,81.4,368.0,279.6,336.40000000000003,-14.2,33.0,-8.7,4.8,7.2,-13.1,tailOff_alfa0_V50_balance,raw_tailOff_alfa0_V50_balance.txt,0,0,30,0.0,4,inf,inf
15.0,18.0,34.0,3.0,0.0,4.0,631.66,100884.0,295.38,1594.2,-1693.0,258.6,1035.0,725.3,830.0,581.101,1.189826551325529,1486.400653709341,49.98516310790258,537943.4884338169,0.0,0.0,0.0,0.0,0.0,0.0,0.0,0.0,0.0,100884.0,1.5329740337901673e-05,inf,inf,14.792882715318552,-17.137819373494565,97.36153408216923,-5.675268202896047,-6.254875890266284,-5.519647550498959,0.04582660743747737,-0.05309094487379755,0.3016145593633244,-0.012588745630793296,-0.11745006197804428,-0.012243551582179817,0.3016145593633244,0.04582660743747737,0.05309094487379755,0.3016145593633244,0.049418413227136776,0.049764915461931805,-0.027552586033826376,-0.13036642731184908,-0.13036642731184908,-0.012243551582179817,1608.4,-1726.0,267.3,1030.2,718.0999999999999,843.1,-14.2,33.0,-8.7,4.8,7.2,-13.1,tailOff_alfa0_V50_balance,raw_tailOff_alfa0_V50_balance.txt,0,0,50,0.0,4,inf,inf
37.0,18.0,44.0,5.0,0.0,5.005,229.91,100877.0,294.46999999999997,577.7,-823.0,25.8,427.0,276.0,396.1,358.355,1.1934206565526662,537.0700042888018,30.000857713803587,324619.1316405982,0.0,0.0,0.0,0.0,0.0,0.0,0.0,0.0,0.0,100877.0,1.5247193065363552e-05,inf,inf,5.425275791938093,-8.642730126195485,34.683562984015666,-2.8202805740517936,-2.2202859479101926,-2.6748634173490906,0.04651485848006586,-0.07410044836776328,0.2973675598544297,-0.01731383897748893,-0.11538476078389708,-0.016421116012660737,0.2973675598544297,0.04651485848006586,0.07410044836776328,0.2973675598544297,0.05280222291032636,0.06975982915297538,-0.03819927030300396,-0.1284951117169975,-0.1284951117169975,-0.016421116012660737,589.8000000000001,-857.7,34.7,422.2,268.8,408.70000000000005,-12.1,34.7,-8.9,4.8,7.2,-12.6,tailOff_alfa0_V50_balance,raw_tailOff_alfa0_V50_balance.txt,0,0,30,0.0,5,inf,inf
16.0,18.0,34.0,38.0,0.0,5.005,632.05,100884.0,295.42999999999995,1544.2,-2237.9,125.5,1169.7,695.0,1061.8,582.236,1.1896251793336317,1487.3294766546455,50.00500977222548,537995.6910163217,0.0,0.0,0.0,0.0,0.0,0.0,0.0,0.0,0.0,100884.0,1.533433896843738e-05,inf,inf,14.31524403513917,-23.005180089182495,96.74212636790867,-7.5151392953247145,-6.145009896322266,-7.036886229058588,0.04431924485520731,-0.07122283118666421,0.2995085501712908,-0.01665949395545259,-0.11531501044516601,-0.015599306811404057,0.2995085501712908,0.04431924485520731,0.07122283118666421,0.2995085501712908,0.05036392994015882,0.06708473528130422,-0.03673386033681658,-0.1278065211608394,-0.1278065211608394,-0.015599306811404057,1556.3,-2272.6,134.4,1164.9,687.8,1074.3999999999999,-12.1,34.7,-8.9,4.8,7.2,-12.6,tailOff_alfa0_V50_balance,raw_tailOff_alfa0_V50_balance.txt,0,0,50,0.0,5,inf,inf
38.0,18.0,44.0,37.0,0.0,5.995,229.91,100873.0,294.42999999999995,540.8,-1024.6,-9.5,487.9,260.0,484.8,358.967,1.193535461333793,537.0700042888018,29.999414805384266,324668.8230903459,0.0,0.0,0.0,0.0,0.0,0.0,0.0,0.0,0.0,100873.0,1.5244126230600288e-05,inf,inf,5.099142378272672,-10.803448871195922,35.84247542882898,-3.542113764152797,-2.0973341078007217,-3.2617494076089844,0.043718678126467916,-0.09262587094411803,0.3073037641007435,-0.02174520787638573,-0.10899514746750226,-0.02002403751876665,0.3073037641007435,0.043718678126467916,0.09262587094411803,0.3073037641007435,0.05315358232199071,0.08755324934930439,-0.04785208454423319,-0.12131738666801255,-0.12131738666801255,-0.02002403751876665,554.3,-1062.3999999999999,-0.40000000000000036,482.9,251.8,498.3,-13.5,37.8,-9.1,5.0,8.2,-13.5,tailOff_alfa0_V50_balance,raw_tailOff_alfa0_V50_balance.txt,0,0,30,0.0,6,inf,inf
17.0,18.0,35.0,3.0,0.0,5.995,632.02,100890.0,295.45,1460.8,-2691.6,40.2,1321.3,653.5,1241.5,582.525,1.189615396894118,1487.2580282360136,50.0040142811532,537952.4410527631,0.0,0.0,0.0,0.0,0.0,0.0,0.0,0.0,0.0,100890.0,1.5335266511114333e-05,inf,inf,13.5619868446293,-28.06515419566437,99.78040743868813,-9.00744567792187,-5.90356923395005,-8.22302864589558,0.04198921717388978,-0.08689241982321552,0.3089297494269029,-0.019968584724876,-0.11078954530742073,-0.018229612487491765,0.3089297494269029,0.04198921717388978,0.08689241982321552,0.3089297494269029,0.050834768532656185,0.08203178219349672,-0.04445947117563996,-0.12262433080487159,-0.12262433080487159,-0.018229612487491765,1474.3,-2729.4,49.300000000000004,1316.3,645.3,1255.0,-13.5,37.8,-9.1,5.0,8.2,-13.5,tailOff_alfa0_V50_balance,raw_tailOff_alfa0_V50_balance.txt,0,0,50,0.0,6,inf,inf
39.0,18.0,44.0,58.0,0.0,7.0,229.91,100874.0,294.40999999999997,512.2,-1195.2,-52.0,543.2,244.2,547.9,359.2,1.193628374016329,537.0700042888018,29.998247197270796,324698.5031918929,0.0,0.0,0.0,0.0,0.0,0.0,0.0,0.0,0.0,100874.0,1.524213952980172e-05,inf,inf,4.815392961101028,-12.767406896900688,36.28568984045984,-4.03642956270514,-2.004403433632503,-3.6760460463756144,0.04128588678281805,-0.10946431992438864,0.31110376550601215,-0.02477983649415777,-0.10416568682146303,-0.022567424640784463,0.31110376550601215,0.04128588678281805,0.10946431992438864,0.31110376550601215,0.054318492838861615,0.10361690556886513,-0.055632679988821696,-0.11580223656048808,-0.11580223656048808,-0.022567424640784463,523.4000000000001,-1234.3,-42.2,538.2,235.89999999999998,561.4,-11.2,39.1,-9.8,5.0,8.3,-13.5,tailOff_alfa0_V50_balance,raw_tailOff_alfa0_V50_balance.txt,0,0,30,0.0,7,inf,inf
18.0,18.0,35.0,25.0,0.0,7.0,631.85,100877.0,295.47999999999996,1394.8,-3059.7,-45.2,1454.3,614.7,1357.2,582.984,1.189341345387382,1486.8531554370918,50.00296749905901,537775.0984100278,0.0,0.0,0.0,0.0,0.0,0.0,0.0,0.0,0.0,100877.0,1.53400025038541e-05,inf,inf,12.934828180868339,-32.53061036495893,101.80124953468156,-10.179278579581975,-5.747489591362186,-8.986166418813816,0.0400583785602513,-0.10074532777505193,0.3152722969910465,-0.022572563151128707,-0.1078898416571236,-0.01992683542251153,0.3152722969910465,0.0400583785602513,0.10074532777505193,0.3152722969910465,0.05203755642805062,0.09511249908595873,-0.05096793282783531,-0.11918041455999397,-0.11918041455999397,-0.01992683542251153,1406.0,-3098.7999999999997,-35.400000000000006,1449.3,606.4000000000001,1370.7,-11.2,39.1,-9.8,5.0,8.3,-13.5,tailOff_alfa0_V50_balance,raw_tailOff_alfa0_V50_balance.txt,0,0,50,0.0,7,inf,inf
40.0,18.0,45.0,18.0,0.0,8.0,229.81,100875.0,294.40999999999997,480.0,-1363.6,-95.5,597.0,225.5,607.7,359.408,1.1936402068808332,536.8355649666822,29.991550476221317,324629.2365805049,0.0,0.0,0.0,0.0,0.0,0.0,0.0,0.0,0.0,100875.0,1.5241988430525093e-05,inf,inf,4.516052149408281,-14.743753591657313,36.392268492599904,-4.559845942573683,-1.9429537849133234,-4.0754737473037865,0.038736328010630455,-0.1264641895929346,0.3121538022019939,-0.028005339751216305,-0.10101634063043964,-0.025030456813193287,0.3121538022019939,0.038736328010630455,0.1264641895929346,0.3121538022019939,0.055959762155277364,0.11984239390411747,-0.06364964697283365,-0.11193428966164423,-0.11193428966164423,-0.025030456813193287,490.8,-1405.1999999999998,-85.5,591.0,216.3,622.2,-10.8,41.6,-10.0,6.0,9.2,-14.5,tailOff_alfa0_V50_balance,raw_tailOff_alfa0_V50_balance.txt,0,0,30,0.0,8,inf,inf
19.0,18.0,35.0,47.0,0.0,8.0,631.69,100882.0,295.51,1376.0,-3289.9,-123.0,1558.5,595.5,1386.2,583.093,1.1892795482496608,1486.4721011284482,49.997858587400685,537650.0727246344,0.0,0.0,0.0,0.0,0.0,0.0,0.0,0.0,0.0,100882.0,1.534200199757296e-05,inf,inf,12.75930165507513,-35.87148260996449,102.88892767339456,-10.766943036811051,-5.822092563809889,-9.189650121642412,0.039524913093038176,-0.11112028471505937,0.3187224531923542,-0.023881830322830793,-0.10931827861980128,-0.020383284668723082,0.3187224531923542,0.039524913093038176,0.11112028471505937,0.3187224531923542,0.0546052139591815,0.10453806502246006,-0.055201412409161196,-0.12045849269724704,-0.12045849269724704,-0.020383284668723082,1386.8,-3331.5,-113.0,1552.5,586.3,1400.7,-10.8,41.6,-10.0,6.0,9.2,-14.5,tailOff_alfa0_V50_balance,raw_tailOff_alfa0_V50_balance.txt,0,0,50,0.0,8,inf,inf
41.0,18.0,45.0,38.0,0.0,8.995,229.74,100877.0,294.39,452.1,-1508.5,-137.0,649.2,210.1,651.8,359.608,1.193744966660089,536.6714579918627,29.985650203756148,324610.8973811335,0.0,0.0,0.0,0.0,0.0,0.0,0.0,0.0,0.0,100877.0,1.5239850797617187e-05,inf,inf,4.261740348344713,-16.539546700146396,36.722348411658864,-4.922675047161133,-1.882133082055729,-4.3712208013650224,0.036566152715819575,-0.14191094272622362,0.3150813729479795,-0.030242982993252968,-0.0978841267666211,-0.0268550645916947,0.3150813729479795,0.036566152715819575,0.14191094272622362,0.3150813729479795,0.05830399246914933,0.13444866548999115,-0.07024100343623108,-0.1081904054492314,-0.1081904054492314,-0.0268550645916947,463.1,-1552.5,-126.8,644.0,200.29999999999998,667.0999999999999,-11.0,44.0,-10.2,5.2,9.8,-15.3,tailOff_alfa0_V50_balance,raw_tailOff_alfa0_V50_balance.txt,0,0,30,0.0,9,inf,inf
20.0,18.0,36.0,5.0,0.0,8.995,631.38,100881.0,295.53999999999996,1400.1,-3384.5,-184.3,1637.1,594.2,1332.8,583.435,1.189147037929277,1485.733815147617,49.98822576739637,537444.4736931201,0.0,0.0,0.0,0.0,0.0,0.0,0.0,0.0,0.0,100881.0,1.5344914078159594e-05,inf,inf,12.983777286678905,-38.06559141481138,103.97389873392281,-10.801829444927558,-6.080994576459505,-8.853367515888623,0.04024026485195492,-0.11797564348626623,0.32224345276131855,-0.02397111654085567,-0.11423627920460577,-0.019647144549393997,0.32224345276131855,0.04024026485195492,0.11797564348626623,0.32224345276131855,0.05819067764631365,0.11023328175472634,-0.057222901845676924,-0.1255781172986876,-0.1255781172986876,-0.019647144549393997,1411.1,-3428.5,-174.10000000000002,1631.8999999999999,584.4000000000001,1348.1,-11.0,44.0,-10.2,5.2,9.8,-15.3,tailOff_alfa0_V50_balance,raw_tailOff_alfa0_V50_balance.txt,0,0,50,0.0,9,inf,inf
42.0,18.0,45.0,58.0,0.0,10.0,229.94,100875.0,294.39,426.7,-1630.1,-175.5,698.1,193.0,680.8,360.001,1.1937212993232993,537.1403362659074,29.99904363563184,324749.4498814523,0.0,0.0,0.0,0.0,0.0,0.0,0.0,0.0,0.0,100875.0,1.5240152950792854e-05,inf,inf,4.026731115012094,-18.143825553665472,36.924175694749714,-5.219931124608688,-1.8635525643061217,-4.57493188165459,0.03451959128216544,-0.1555399217177579,0.3165365198241698,-0.03204121392184656,-0.09683320838340764,-0.028082050816132097,0.3165365198241698,0.03451959128216544,0.1555399217177579,0.3165365198241698,0.061004385086234805,0.1471826566906046,-0.07588060254861571,-0.10656265765111489,-0.10656265765111489,-0.028082050816132097,437.5,-1676.8999999999999,-164.6,692.1,182.6,697.9,-10.8,46.8,-10.9,6.0,10.4,-17.1,tailOff_alfa0_V50_balance,raw_tailOff_alfa0_V50_balance.txt,0,0,30,0.0,10,inf,inf
21.0,18.0,36.0,23.0,0.0,10.0,631.35,100882.0,295.56,1407.8,-3413.1,-236.4,1702.4,587.5,1237.9,583.774,1.189078357366549,1485.6623685892118,49.98846741783322,537387.9578186045,0.0,0.0,0.0,0.0,0.0,0.0,0.0,0.0,0.0,100882.0,1.5346602055395228e-05,inf,inf,13.053631405550155,-39.712447357997036,104.60548771063858,-10.65934257698197,-6.246908561014055,-8.252292271767278,0.040458707401163016,-0.12308561793449653,0.32421651020736103,-0.02365605126677323,-0.11735874785509638,-0.018314135945952107,0.32421651020736103,0.040458707401163016,0.12308561793449653,0.32421651020736103,0.0612176419768511,0.11419009001521915,-0.05834809803781363,-0.1287621546300776,-0.1287621546300776,-0.018314135945952107,1418.6,-3459.9,-225.5,1696.4,577.1,1255.0,-10.8,46.8,-10.9,6.0,10.4,-17.1,tailOff_alfa0_V50_balance,raw_tailOff_alfa0_V50_balance.txt,0,0,50,0.0,10,inf,inf
