run,hr,min,sec,AoA,AoS,dPb,pBar,temp,B1,B2,B3,B4,B5,B6,rpmWT,rho,q,V,Re,rpsM1,rpsM2,iM1,iM2,dPtQ,tM1,tM2,vM1,vM2,pInf,nu,J_M1,J_M2,FX,FY,FZ,MX,MY,MZ,CFX,CFY,CFZ,CMX,CMY,CMZ,CN,CT,CY,CL,CD,CYaw,CMroll,CMpitch,CMpitch25c,CMyaw,B1_zeroed,B2_zeroed,B3_zeroed,B4_zeroed,B5_zeroed,B6_zeroed,B1_zero,B2_zero,B3_zero,B4_zero,B5_zero,B6_zero,config,source_file,dR,dE,V_round,AoA_round,AoS_round,J,J_round
1.0,19.0,45.0,41.0,10.0,-9.995,407.22,100856.0,294.47999999999996,2258.8,1261.3,1997.0,1041.2,1662.6,-192.7,477.301,1.1931316990921288,954.2099969620201,39.99381071752838,432630.03363398707,0.0,0.0,0.0,0.0,0.0,0.0,0.0,0.0,0.0,100856.0,1.5251285867455426e-05,inf,inf,20.76027393339195,17.760724778879965,227.35697312334656,3.230973554189155,-0.32412620883929577,1.2784809995011126,0.10018204638986838,0.08570723871102229,1.0971477014986428,0.011164040328602973,-0.009480704892077224,0.004417558113181466,1.0978759924259316,-0.0918576429993295,-0.08570723871102229,1.0971477014986426,0.11353711376581972,-0.06701863161880586,0.03401717551656618,-0.03771731203837639,-0.03771731203837639,0.010257466017070926,2259.6000000000004,1262.3,1997.0,1041.1000000000001,1662.6,-192.2,-0.8,-1.0,0.0,0.1,0.0,-0.5,tailOff_alfa10_betaSweep_balance,raw_tailOff_alfa10_betaSweep_balance.txt,0,0,40,10.0,-10,inf,inf
2.0,19.0,46.0,27.0,10.0,-9.0,407.23,100854.0,294.54999999999995,1979.0,2092.2,2129.9,943.4,1543.7,-737.2,477.039,1.1928244960834244,954.2336050430564,39.999455242561666,432500.2524571382,0.0,0.0,0.0,0.0,0.0,0.0,0.0,0.0,0.0,100854.0,1.5258015485518858e-05,inf,inf,18.206219547337422,24.282667327596464,226.57146099363734,6.335080380455033,0.8118170563891738,4.826634494612588,0.08785487187160738,0.11717702410541606,1.093330036123286,0.021889174238682703,0.023745094693061013,0.01667714331849133,1.0919757345749959,-0.10333460940227462,-0.11717702410541606,1.093330036123286,0.10510375769300334,-0.10199085061214191,0.05118561535013046,-0.0010170617243977047,-0.0010170617243977047,0.025312068866456615,1982.1,2091.7,2130.9,942.6999999999999,1542.6000000000001,-736.5,-3.1,0.5,-1.0,0.7,1.1,-0.7,tailOff_alfa10_betaSweep_balance,raw_tailOff_alfa10_betaSweep_balance.txt,0,0,40,10.0,-9,inf,inf
3.0,19.0,47.0,12.0,10.0,-7.995,407.13,100853.0,294.59,2041.7,1854.4,2019.1,991.7,1597.6,-682.5,476.896,1.1926507064317655,953.9975246491616,39.99742077746285,432369.8801523363,0.0,0.0,0.0,0.0,0.0,0.0,0.0,0.0,0.0,100853.0,1.5261839936320923e-05,inf,inf,18.80093184559967,21.134971074962756,224.04195468172034,5.584300330780186,0.860822600233135,4.460707861925336,0.09074713200018517,0.10201292285459942,1.0813913375171378,0.0192998296129977,0.025184704170680562,0.015416595918738923,1.080720647327451,-0.09841315594725078,-0.10201292285459942,1.0813913375171376,0.10405372803183416,-0.08839966107556389,0.0446453858739685,-0.00039264434914086654,-0.00039264434914086654,0.022934973084082,2046.6000000000001,1851.4,2020.6,990.8000000000001,1594.6,-681.0,-4.9,3.0,-1.5,0.9,3.0,-1.5,tailOff_alfa10_betaSweep_balance,raw_tailOff_alfa10_betaSweep_balance.txt,0,0,40,10.0,-8,inf,inf
4.0,19.0,47.0,50.0,10.0,-7.0,407.17,100854.0,294.60999999999996,2239.2,1696.9,1853.8,915.2,1769.3,-696.0,476.897,1.1925815665502617,954.0919566956612,40.000559778663195,432356.06764388515,0.0,0.0,0.0,0.0,0.0,0.0,0.0,0.0,0.0,100854.0,1.526352529619387e-05,inf,inf,20.622841103820996,18.41944046651664,213.47196909740276,4.137042468466545,1.1563236044298897,4.533824284778937,0.09953115460218939,0.08889697435621595,1.0302708270166874,0.014296564899168654,0.03382669734031912,0.01566774177998583,1.0319021017660888,-0.08088559889635616,-0.08889697435621595,1.0302708270166872,0.10962308036431678,-0.07610455333009439,0.03603391418377483,0.005773545976425529,0.005773545976425529,0.02168693710934239,2244.3999999999996,1690.3000000000002,1856.5,914.2,1765.3,-693.0,-5.2,6.6,-2.7,1.0,4.0,-3.0,tailOff_alfa10_betaSweep_balance,raw_tailOff_alfa10_betaSweep_balance.txt,0,0,40,10.0,-7,inf,inf
5.0,19.0,48.0,27.0,10.0,-6.0,407.23,100851.0,294.63,2290.6,1399.1,1744.9,977.7,1803.1,-591.4,476.557,1.1924651399397765,954.2336050430564,40.005481820085954,432344.3792605914,0.0,0.0,0.0,0.0,0.0,0.0,0.0,0.0,0.0,100851.0,1.5265816161027193e-05,inf,inf,21.12826239987424,14.936790074368107,211.44294022970433,3.235353897824881,1.051354837522684,3.8388112307509465,0.10195531154528538,0.07207810357030549,1.0203267281127186,0.011178899230983915,0.030751411265023072,0.013263984488431054,1.0225300265042874,-0.07677149569106297,-0.07207810357030549,1.0203267281127184,0.10893100308233077,-0.061026020139487394,0.028712590347850654,0.0020150040710699146,0.0020150040710699146,0.01804836375004193,2299.2,1390.0,1747.9,976.4000000000001,1798.1999999999998,-587.0,-8.6,9.1,-3.0,1.3,4.9,-4.4,tailOff_alfa10_betaSweep_balance,raw_tailOff_alfa10_betaSweep_balance.txt,0,0,40,10.0,-6,inf,inf
6.0,19.0,49.0,7.0,10.0,-5.0,407.14,100850.0,294.65999999999997,2314.5,1157.4,1663.6,1035.5,1826.2,-505.3,476.171,1.1923319095459772,954.0211326469042,40.00326248638058,432238.091510322,0.0,0.0,0.0,0.0,0.0,0.0,0.0,0.0,0.0,100850.0,1.5268722948777988e-05,inf,inf,21.451209339429134,12.087801798871048,210.58029801148672,2.457437322107245,0.9968152414889317,3.2545787929004724,0.10353675926566311,0.058343182666179105,1.0163903244947363,0.008492907821232533,0.029162658755181998,0.011247830183249607,1.0189280412170323,-0.07453052440022735,-0.058343182666179105,1.0163903244947363,0.10822771405758812,-0.04909734608636151,0.022605091133030313,-1.948417298583069e-05,-1.948417298583069e-05,0.015002283250274537,2334.2,1142.5,1667.8,1033.5,1820.2,-497.90000000000003,-19.7,14.9,-4.2,2.0,6.0,-7.4,tailOff_alfa10_betaSweep_balance,raw_tailOff_alfa10_betaSweep_balance.txt,0,0,40,10.0,-5,inf,inf
7.0,19.0,49.0,52.0,10.0,-4.0,407.06,100852.0,294.66999999999996,2341.9,870.7,1571.0,1099.2,1848.7,-394.3,475.282,1.1923150910988398,953.8322689240994,39.99958475620425,432180.92598572624,0.0,0.0,0.0,0.0,0.0,0.0,0.0,0.0,0.0,100852.0,1.5269338649187257e-05,inf,inf,21.75496299318696,8.822706683247429,209.36264097053692,1.5460316753062648,0.9558225014760957,2.5153798989747913,0.10502365274879603,0.042592252779103446,1.0107132478573535,0.0053441462197812515,0.02796891895437033,0.008694878761624947,1.0135954084738241,-0.07208040615757767,-0.042592252779103446,1.0107132478573535,0.10773890577185899,-0.035162420516529166,0.015575480480586379,-0.0016323093155784854,-0.0016323093155784854,0.011267437817690101,2367.1,850.6,1575.5,1097.2,1841.7,-385.1,-25.2,20.1,-4.5,2.0,7.0,-9.2,tailOff_alfa10_betaSweep_balance,raw_tailOff_alfa10_betaSweep_balance.txt,0,0,40,10.0,-4,inf,inf
8.0,19.0,50.0,52.0,10.0,-3.0,407.06,100849.0,294.71,2370.3,608.5,1490.2,1155.4,1865.2,-286.2,474.869,1.192117799712188,953.8322689240994,40.00289451597124,432099.85570183734,0.0,0.0,0.0,0.0,0.0,0.0,0.0,0.0,0.0,100849.0,1.527346716845375e-05,inf,inf,21.96379920415933,5.956660423087355,208.27739209301683,0.7294563862250218,0.9523011046492016,1.8118552335368587,0.10603182461787276,0.028756207767981032,1.0054741306364057,0.002521501759119842,0.027865877163341685,0.006263014821593961,1.0086109524235352,-0.0701777875265411,-0.028756207767981032,1.0054741306364057,0.1073914953187829,-0.023167521451084274,0.009377522383957261,-0.0020195073404724907,-0.0020195073404724907,0.007796255226541131,2389.7000000000003,587.9,1495.3,1152.9,1858.4,-277.7,-19.4,20.6,-5.1,2.5,6.8,-8.5,tailOff_alfa10_betaSweep_balance,raw_tailOff_alfa10_betaSweep_balance.txt,0,0,40,10.0,-3,inf,inf
9.0,19.0,52.0,54.0,10.0,-2.0,406.95,100848.0,294.75,2394.6,378.9,1416.4,1208.4,1879.2,-195.1,474.804,1.1919442003037832,953.5725822723756,40.00036121555825,431964.2815995506,0.0,0.0,0.0,0.0,0.0,0.0,0.0,0.0,0.0,100848.0,1.5277293280221807e-05,inf,inf,22.133888094491464,3.4232796853323597,207.39165460221676,0.1251879364429308,0.9689035623791789,1.2219228010072025,0.1068820402894644,0.016530630121910566,1.0014708255622498,0.0004328532481506865,0.028359413067362046,0.004224953844865613,1.004816104950829,-0.06864532191065321,-0.016530630121910566,1.0014708255622498,0.10739384130980603,-0.012790430696044238,0.004281045040631748,-0.0017656072471934417,-0.0017656072471934417,0.0049041629723581455,2408.1,359.5,1421.3000000000002,1206.3000000000002,1873.5,-187.7,-13.5,19.4,-4.9,2.1,5.7,-7.4,tailOff_alfa10_betaSweep_balance,raw_tailOff_alfa10_betaSweep_balance.txt,0,0,40,10.0,-2,inf,inf
10.0,19.0,53.0,38.0,10.0,-1.0,407.05,100849.0,294.75,2406.8,165.6,1350.2,1253.4,1890.7,-96.9,474.883,1.1919560195188426,953.8086610003958,40.00511406868835,432019.8915349586,0.0,0.0,0.0,0.0,0.0,0.0,0.0,0.0,0.0,100849.0,1.527714179341202e-05,inf,inf,22.27255280629301,1.2298576846599547,206.31920282957668,-0.3980489533201526,0.9626373296277819,0.5675640926348096,0.1075250162074832,0.005937373619722452,0.9960454834749397,-0.001375964344537295,0.028169029096000008,0.0019619394755123003,0.9995848375969504,-0.06707001347490708,-0.005937373619722452,0.9960454834749396,0.10761226108428706,-0.004059899043933361,-4.770490485391925e-05,-0.0021372158896005716,-0.0021372158896005716,0.001923849336631561,2423.1000000000004,144.7,1355.2,1250.5,1884.3,-87.7,-16.3,20.9,-5.0,2.9,6.4,-9.2,tailOff_alfa10_betaSweep_balance,raw_tailOff_alfa10_betaSweep_balance.txt,0,0,40,10.0,-1,inf,inf
11.0,19.0,54.0,16.0,10.0,-0.005,407.01,100847.0,294.76,2399.7,-39.5,1297.8,1297.7,1888.9,15.2,474.822,1.1918919437030173,953.7142293981293,40.00420893604298,431975.5721114147,0.0,0.0,0.0,0.0,0.0,0.0,0.0,0.0,0.0,100847.0,1.5278363495975234e-05,inf,inf,22.2040118949179,-0.6898748638177316,205.8013387706293,-0.8673609371523732,0.997871504103351,-0.17273947928108027,0.10720473560467793,-0.003330832856958644,0.9936437709729322,-0.0029985655862454557,0.029202955023141255,-0.0005971800616923713,0.9971639963614478,-0.06696837529643565,0.003330832856958644,0.9936437709729321,0.10720444452647197,0.0033401882223140565,-0.0037738539761015813,-0.0010130179238667207,-0.0010130179238667207,-0.0012434304204300946,2415.6,-63.2,1303.6,1294.7,1881.5,25.6,-15.9,23.7,-5.8,3.0,7.4,-10.4,tailOff_alfa10_betaSweep_balance,raw_tailOff_alfa10_betaSweep_balance.txt,0,0,40,10.0,0,inf,inf
12.0,19.0,54.0,56.0,10.0,1.0,406.93,100850.0,294.77,2381.5,-240.9,1245.9,1347.5,1878.8,114.0,474.554,1.1918869643003618,953.5253666378301,40.0003313051615,431920.57661127194,0.0,0.0,0.0,0.0,0.0,0.0,0.0,0.0,0.0,100850.0,1.5278827727417137e-05,inf,inf,22.032505932553494,-2.731014392632339,205.43452736751473,-1.3782227363986759,1.0431491239308386,-0.8223543794176589,0.10639774553209681,-0.013188412397632021,0.9920692014456736,-0.004765616762231215,0.030534062324490203,-0.0028435358897702834,0.9954732157278477,-0.06748968424749906,0.013188412397632021,0.9920692014456736,0.1066117101735292,0.011329507039507532,-0.007860162174587194,0.0005455419248354722,0.0005455419248354722,-0.004165239027997845,2396.9,-267.9,1252.1000000000001,1344.3,1871.1,124.9,-15.4,27.0,-6.2,3.2,7.7,-10.9,tailOff_alfa10_betaSweep_balance,raw_tailOff_alfa10_betaSweep_balance.txt,0,0,40,10.0,1,inf,inf
13.0,19.0,55.0,32.0,10.0,1.995,406.9,100845.0,294.77,2363.3,-473.1,1189.1,1415.0,1867.1,215.5,474.582,1.1918278722347049,953.4545432554229,39.99983733917689,431893.82905832236,0.0,0.0,0.0,0.0,0.0,0.0,0.0,0.0,0.0,100845.0,1.5279585267589056e-05,inf,inf,21.856492738060037,-5.208556086614349,205.8118324875857,-1.9708152986181737,1.0737506062011768,-1.4892221145715048,0.10555559582541994,-0.025154641584159962,0.9939650824360434,-0.006815188743371461,0.031432134243313106,-0.005149812769732258,0.9971940562640652,-0.0686482560868825,0.025154641584159962,0.9939650824360433,0.10636730579053695,0.021464763267955378,-0.01279959383730317,0.0016809762382461804,0.0016809762382461804,-0.007294201686918168,2377.7000000000003,-501.90000000000003,1195.3,1411.9,1859.1999999999998,226.7,-14.4,28.8,-6.2,3.1,7.9,-11.2,tailOff_alfa10_betaSweep_balance,raw_tailOff_alfa10_betaSweep_balance.txt,0,0,40,10.0,2,inf,inf
14.0,19.0,56.0,15.0,10.0,3.0,406.82,100847.0,294.77,2367.9,-712.8,1134.2,1472.3,1872.2,342.8,474.719,1.1918515090609676,953.2656813095513,39.99547892253374,431855.33410045574,0.0,0.0,0.0,0.0,0.0,0.0,0.0,0.0,0.0,100847.0,1.5279282242506155e-05,inf,inf,21.91034060767959,-7.496353947803299,206.0957099283587,-2.5809777721062357,1.0718350114122437,-2.330057484639436,0.1058366175868869,-0.03621069887847952,0.9955332611461266,-0.008926932721910207,0.031382274877801916,-0.008059064525218783,0.9987872097326274,-0.06864381505268673,0.03621069887847952,0.9955332611461265,0.10758669373282112,0.030622012787225476,-0.017442910165028896,0.0015519100551059824,0.0015519100551059824,-0.01096555878982635,2383.5,-744.6999999999999,1141.2,1468.8,1863.5,355.3,-15.6,31.9,-7.0,3.5,8.7,-12.5,tailOff_alfa10_betaSweep_balance,raw_tailOff_alfa10_betaSweep_balance.txt,0,0,40,10.0,3,inf,inf
15.0,19.0,57.0,0.0,10.0,4.005,406.91,100849.0,294.78,2335.1,-1023.5,1070.8,1561.3,1850.8,477.5,475.79,1.1918347131867117,953.4781510403038,40.00021774123891,431889.09740031447,0.0,0.0,0.0,0.0,0.0,0.0,0.0,0.0,0.0,100849.0,1.5279897978343665e-05,inf,inf,21.60386317487076,-10.806928203304384,207.12625341987277,-3.5971132959869885,1.1200341784526273,-3.21412392135377,0.10433294192093337,-0.052190601442549556,1.000288290729993,-0.012438709542021484,0.032786191491623304,-0.011114343808515744,1.0032088891934263,-0.07095034872852429,0.052190601442549556,1.0002882907299928,0.10772333230545417,0.04477616917312822,-0.02480634887376996,0.0033796421187510563,0.0033796421187510563,-0.015253069228769801,2350.1,-1056.5,1077.6,1557.5,1842.3999999999999,490.2,-15.0,33.0,-6.8,3.8,8.4,-12.7,tailOff_alfa10_betaSweep_balance,raw_tailOff_alfa10_betaSweep_balance.txt,0,0,40,10.0,4,inf,inf
16.0,19.0,57.0,38.0,10.0,5.005,406.8,100851.0,294.77,2282.5,-1290.4,1007.2,1660.3,1816.5,571.3,475.797,1.1918987827134933,953.218465915632,39.993695271186716,431853.203305682,0.0,0.0,0.0,0.0,0.0,0.0,0.0,0.0,0.0,100851.0,1.5278676228396526e-05,inf,inf,21.100511696489114,-13.947152963295808,208.46856225106978,-4.275593209935224,1.2037436996427893,-3.830118677428363,0.1019298350421922,-0.06737424292385796,1.007045064469699,-0.014788900509341167,0.03524617727238788,-0.013248043318956342,1.009445717227406,-0.07449024846083331,0.06737424292385796,1.007045064469699,0.10741909490478754,0.058224719244731264,-0.030964860501256672,0.006516950706453681,0.006516950706453681,-0.018423767370503722,2295.3,-1325.8000000000002,1014.3000000000001,1656.3,1808.0,583.9,-12.8,35.4,-7.1,4.0,8.5,-12.6,tailOff_alfa10_betaSweep_balance,raw_tailOff_alfa10_betaSweep_balance.txt,0,0,40,10.0,5,inf,inf
17.0,19.0,58.0,25.0,10.0,5.995,406.87,100852.0,294.78,2185.9,-1509.0,1015.4,1791.2,1737.2,621.5,476.15,1.1918701672233363,953.3837199563096,39.997642001223284,431874.13347046834,0.0,0.0,0.0,0.0,0.0,0.0,0.0,0.0,0.0,100852.0,1.527944345395213e-05,inf,inf,20.227817763668078,-16.859485249458867,215.08611297129093,-5.367214899724221,1.0865735911693406,-4.168011143258552,0.09769719208198138,-0.08142867352592897,1.0388322427378067,-0.018561505930640838,0.031809867121956235,-0.014414284689540913,1.0400149860954642,-0.08417837364321219,0.08142867352592897,1.0388322427378065,0.1056674344609307,0.07077968287115169,-0.038378738074111844,0.004273623538151541,0.004273623538151541,-0.020859697244111016,2200.4,-1547.8,1023.4,1786.9,1728.1000000000001,634.9,-14.5,38.8,-8.0,4.3,9.1,-13.4,tailOff_alfa10_betaSweep_balance,raw_tailOff_alfa10_betaSweep_balance.txt,0,0,40,10.0,6,inf,inf
18.0,19.0,59.0,15.0,10.0,7.0,406.83,100849.0,294.78999999999996,2094.6,-1774.7,992.6,1921.7,1669.1,701.8,476.25,1.191794283229346,953.2892890203932,39.996934387809866,431827.6809855875,0.0,0.0,0.0,0.0,0.0,0.0,0.0,0.0,0.0,100849.0,1.528081674783547e-05,inf,inf,19.365430899217703,-20.127867902053005,220.01277627781434,-6.321630336538267,1.1048959849704865,-4.699296312848915,0.09354126367144326,-0.09722407977226977,1.0627325167198145,-0.021864338309662976,0.03234946652736593,-0.016253244642859786,1.0628304918170572,-0.09242140318558983,0.09722407977226977,1.0627325167198143,0.10469265604177339,0.0850995738399087,-0.0456964074871629,0.005984583702152969,0.005984583702152969,-0.023941419221963762,2106.6,-1815.0,1000.6,1917.3,1659.5,715.5,-12.0,40.3,-8.0,4.4,9.6,-13.7,tailOff_alfa10_betaSweep_balance,raw_tailOff_alfa10_betaSweep_balance.txt,0,0,40,10.0,7,inf,inf
19.0,19.0,59.0,56.0,10.0,8.0,406.85,100850.0,294.81,1965.9,-1956.2,995.8,2053.8,1572.1,722.8,476.508,1.191725248352558,953.3365044698418,39.99908337276331,431803.23802507645,0.0,0.0,0.0,0.0,0.0,0.0,0.0,0.0,0.0,100850.0,1.5282502810122006e-05,inf,inf,18.17811468781237,-22.778109223748736,225.95453459536702,-7.031145224890735,1.0993428287714515,-4.850111740352121,0.08780179551953593,-0.1100201491041382,1.0913790667497354,-0.024317101117584332,0.032185285497945824,-0.016774032373020466,1.0900451881982194,-0.10304809712889514,0.1100201491041382,1.0913790667497352,0.10225915980008478,0.09672979242369915,-0.05157329108850009,0.007438088807865485,0.007438088807865485,-0.025474805144032497,1977.5,-1998.4,1004.3,2049.1000000000004,1562.6,737.8,-11.6,42.2,-8.5,4.7,9.5,-15.0,tailOff_alfa10_betaSweep_balance,raw_tailOff_alfa10_betaSweep_balance.txt,0,0,40,10.0,8,inf,inf
20.0,20.0,0.0,39.0,10.0,9.0,406.89,100850.0,294.83,1866.0,-2184.3,935.1,2159.3,1516.5,778.3,476.755,1.1916444068338286,953.430935479797,40.00242116103072,431787.3497008613,0.0,0.0,0.0,0.0,0.0,0.0,0.0,0.0,0.0,100850.0,1.5284340475009665e-05,inf,inf,17.258025599845386,-25.76077701569148,227.32918581051928,-7.483550210141013,1.3255586605765401,-5.221023301690729,0.08334943319580276,-0.12441435728085748,1.0979099941965471,-0.02587917296830451,0.0388043268063258,-0.01805503555156299,1.0957037515783705,-0.1085669017141408,0.12441435728085748,1.097909994196547,0.10178595678726278,0.10984388609554886,-0.05688460228116865,0.015312041653178798,0.015312041653178798,-0.02765864651552332,1877.4,-2228.7000000000003,944.0,2154.6000000000004,1505.3,793.8,-11.4,44.4,-8.9,4.7,11.2,-15.5,tailOff_alfa10_betaSweep_balance,raw_tailOff_alfa10_betaSweep_balance.txt,0,0,40,10.0,9,inf,inf
21.0,20.0,1.0,21.0,10.0,10.005,407.04,100849.0,294.84,1876.7,-2196.5,903.9,2211.4,1504.9,707.5,477.101,1.1915921745800397,953.7850530859469,40.01072608747996,431846.749215176,0.0,0.0,0.0,0.0,0.0,0.0,0.0,0.0,0.0,100849.0,1.5285410904135628e-05,inf,inf,17.35793509754698,-26.868011865663455,228.34268165938374,-7.318430964762165,1.0614198852940788,-4.771198525735381,0.08380083172423787,-0.12971368590020133,1.1023953329508318,-0.02529877099239327,0.03106040745609915,-0.01649335211919246,1.1001993324903407,-0.10890123184454001,0.12971368590020133,1.1023953329508318,0.1050621313599454,0.11318201386084144,-0.058055141280282545,0.0074408942878222,0.0074408942878222,-0.02632395052765831,1888.2,-2244.4,913.6,2206.4,1492.9,724.2,-11.5,47.9,-9.7,5.0,12.0,-16.7,tailOff_alfa10_betaSweep_balance,raw_tailOff_alfa10_betaSweep_balance.txt,0,0,40,10.0,10,inf,inf
