run,hr,min,sec,AoA,AoS,dPb,pBar,temp,B1,B2,B3,B4,B5,B6,rpmWT,rho,q,V,Re,rpsM1,rpsM2,iM1,iM2,dPtQ,tM1,tM2,vM1,vM2,pInf,nu,J_M1,J_M2,FX,FY,FZ,MX,MY,MZ,CFX,CFY,CFZ,CMX,CMY,CMZ,CN,CT,CY,CL,CD,CYaw,CMroll,CMpitch,CMpitch25c,CMyaw,B1_zeroed,B2_zeroed,B3_zeroed,B4_zeroed,B5_zeroed,B6_zeroed,B1_zero,B2_zero,B3_zero,B4_zero,B5_zero,B6_zero,config,source_file,dR,dE,V_round,AoA_round,AoS_round,J,J_round
21.0,13.0,12.0,31.0,-4.998,0.0,103.15,101147.0,292.63,307.7,-25.0,-89.7,-75.8,94.6,7.5,243.181,1.2041389584715274,240.63767296574176,19.992104056437825,219324.47149764915,0.0,0.0,0.0,0.0,0.0,0.0,0.0,0.0,0.0,101147.0,1.5038404147375851e-05,inf,inf,2.8281912665847067,-0.30540329828775836,-7.832253838570496,-0.10171872867665772,-1.746037409641608,-0.049792229458772014,0.05411852342620946,-0.005844009119222934,-0.14987317790375515,-0.0013936998712908454,-0.20251647822588095,-0.0006822285796411016,-0.15401817928196404,0.04085565424115249,0.005844009119222934,-0.14987317790375515,0.05411852342620946,0.005844009119222934,-0.003088725495802562,-0.21776994469408245,-0.21776994469408245,-0.0004147126671293468,307.3,-25.0,-89.7,-75.8,94.6,7.5,0.4,0.0,0.0,0.0,0.0,0.0,tailOff_beta0_balance,raw_tailOff_beta0_balance.txt,0,0,20,-5.0,0,inf,inf
1.0,12.0,50.0,49.0,-5.0,0.0,231.99,101148.0,292.62,649.7,-63.6,-218.3,-188.1,198.5,10.6,356.483,1.204192013981142,541.9465520150753,30.001664852283074,329158.1133075097,0.0,0.0,0.0,0.0,0.0,0.0,0.0,0.0,0.0,101148.0,1.5037343860404711e-05,inf,inf,5.9761978353525285,-0.8816877961267228,-20.06418014848969,-0.45074767590546927,-3.707173097331522,-0.07158233029782249,0.050777263191325375,-0.007491333873130611,-0.17047697954228266,-0.0027422623065514826,-0.1909223838840785,-0.0004354931521199995,-0.17425379325485024,0.035725992601422514,0.007491333873130611,-0.17047697954228266,0.050777263191325375,0.007491333873130611,-0.004873202865880687,-0.2052341062371836,-0.2052341062371836,-1.0806659385734197e-05,649.3000000000001,-63.6,-218.3,-188.1,198.5,10.6,0.4,0.0,0.0,0.0,0.0,0.0,tailOff_beta0_balance,raw_tailOff_beta0_balance.txt,0,0,30,-5.0,0,inf,inf
41.0,13.0,28.0,54.0,-4.997,0.0,410.45,101116.0,292.94,1125.6,-221.2,-443.3,-298.2,342.6,33.7,470.16,1.2024960343234867,961.8358884172457,39.996653922993055,437827.9351530938,0.0,0.0,0.0,0.0,0.0,0.0,0.0,0.0,0.0,101116.0,1.5071293672691132e-05,inf,inf,10.3571983180383,-3.108576007206715,-37.08449264391209,-0.9442320329884968,-6.441188360529154,-0.22691067661470862,0.04958406127868148,-0.014881999793547526,-0.17753833607125782,-0.0032367541067807055,-0.1869112590697547,-0.000777832183981831,-0.18118250839685823,0.03393138014966859,0.014881999793547526,-0.17753833607125782,0.04958406127868148,0.014881999793547526,-0.007470797492940681,-0.2008866739219886,-0.2008866739219886,-0.00012758387509466873,1125.1999999999998,-221.2,-443.3,-298.2,342.6,33.7,0.4,0.0,0.0,0.0,0.0,0.0,tailOff_beta0_balance,raw_tailOff_beta0_balance.txt,0,0,40,-5.0,0,inf,inf
22.0,13.0,13.0,15.0,-4.0,0.0,103.31,101144.0,292.60999999999996,296.2,-25.6,-51.1,-41.1,98.5,6.3,243.222,1.2041855448433303,241.01090077245823,20.007214854186145,219510.34815605334,0.0,0.0,0.0,0.0,0.0,0.0,0.0,0.0,0.0,101144.0,1.5037026925721918e-05,inf,inf,2.7219531504119012,-0.3270875346809401,-3.2305790677380144,-0.18770387990114043,-1.616539982853647,-0.042674387075732706,0.05200495694747376,-0.006249252731099925,-0.061722636669077756,-0.0025678433093382458,-0.18720619057693375,-0.0005837979448812925,-0.06519996584219157,0.047572722001885,0.006249252731099925,-0.06172263666907774,0.05200495694747375,0.006249252731099925,-0.004359391680240346,-0.20186394205938424,-0.20186394205938424,-0.00028038515775041984,295.8,-25.5,-50.5,-40.6,96.0,6.3999999999999995,0.4,-0.1,-0.6,-0.5,2.5,-0.1,tailOff_beta0_balance,raw_tailOff_beta0_balance.txt,0,0,20,-4.0,0,inf,inf
2.0,12.0,52.0,19.0,-4.002,0.0,231.82,101151.0,292.65,629.5,-59.4,-131.3,-103.5,205.8,9.0,356.419,1.204104282494714,541.5479729929513,29.991722882560527,328998.96000629466,0.0,0.0,0.0,0.0,0.0,0.0,0.0,0.0,0.0,101151.0,1.5039632683369563e-05,inf,inf,5.789287682960857,-0.8319148680286493,-9.344238404262988,-0.435719159272763,-3.4492915948457252,-0.06171769668342247,0.04922536869716877,-0.007073636403299747,-0.0794525347216537,-0.002652782707899336,-0.17777202383636137,-0.000375754967503431,-0.08269430106911672,0.043560242971752025,0.007073636403299747,-0.0794525347216537,0.04922536869716877,0.007073636403299747,-0.004661402573645807,-0.19164634011978535,-0.19164634011978535,-5.055291165623248e-05,629.1,-59.3,-130.70000000000002,-103.0,203.3,9.1,0.4,-0.1,-0.6,-0.5,2.5,-0.1,tailOff_beta0_balance,raw_tailOff_beta0_balance.txt,0,0,30,-4.0,0,inf,inf
42.0,13.0,29.0,32.0,-4.0,0.0,410.53,101115.0,293.03999999999996,1093.9,-248.7,-300.9,-129.1,353.2,30.8,470.149,1.2020737939567412,962.0247772392307,40.00760575821467,437678.4508569773,0.0,0.0,0.0,0.0,0.0,0.0,0.0,0.0,0.0,101115.0,1.508056932129142e-05,inf,inf,10.063846597612736,-3.5804795645947345,-17.69323177425089,-1.0046486847463647,-6.029261013278245,-0.20963110035261676,0.048170209127175886,-0.017137825753725272,-0.08468796363643212,-0.0034431815142814104,-0.17492354449347203,-0.0007184580445997673,-0.0878418519416448,0.04214533520692011,0.017137825753725272,-0.0846879636364321,0.04817020912717588,0.017137825753725272,-0.008303491773284787,-0.18850046092005338,-0.18850046092005338,-0.00013957573821530688,1093.5,-248.6,-300.29999999999995,-128.6,350.7,30.900000000000002,0.4,-0.1,-0.6,-0.5,2.5,-0.1,tailOff_beta0_balance,raw_tailOff_beta0_balance.txt,0,0,40,-4.0,0,inf,inf
23.0,13.0,13.0,55.0,-3.0,0.0,103.26,101143.0,292.59,288.2,-29.8,-14.9,-2.8,107.0,7.0,243.21,1.2042559505210984,240.89426682835068,20.001788440330923,219475.25287649073,0.0,0.0,0.0,0.0,0.0,0.0,0.0,0.0,0.0,101143.0,1.5035352390156756e-05,inf,inf,2.6488166721775857,-0.38839706759937287,1.6196013981631505,-0.2152613279117292,-1.475157364307944,-0.04669107817267763,0.050632132394956814,-0.007424210197354876,0.030958681769183604,-0.002946262963999579,-0.17091584588095884,-0.0006390567023993241,0.028266372906265328,0.052182995031618926,0.007424210197354876,0.0309586817691836,0.05063213239495681,0.007424210197354876,-0.005065338790668523,-0.18518666268831435,-0.18518666268831435,-0.00037447055197212356,287.9,-29.8,-13.1,-0.9999999999999998,101.0,7.0,0.3,0.0,-1.8,-1.8,6.0,0.0,tailOff_beta0_balance,raw_tailOff_beta0_balance.txt,0,0,20,-3.0,0,inf,inf
3.0,12.0,53.0,33.0,-2.998,0.0,231.86,101151.0,292.67999999999995,618.3,-61.0,-46.1,-15.7,221.7,8.8,356.449,1.2039808605715392,541.6417560516483,29.99585703441233,328984.4835743069,0.0,0.0,0.0,0.0,0.0,0.0,0.0,0.0,0.0,101151.0,1.5042367678880129e-05,inf,inf,5.68608961416579,-0.863001003518736,1.734890705018251,-0.42180289576012836,-3.1809319311390323,-0.0598317709452304,0.04833952111388495,-0.00733668620469292,0.014748938471982947,-0.0025676118718538444,-0.1639127284145537,-0.00036420984051370074,0.012200542494658573,0.04904474742932313,0.00733668620469292,0.014748938471982945,0.04833952111388495,0.00733668620469292,-0.004648182933767821,-0.17753736592715938,-0.17753736592715938,-0.00012127074773587973,618.0,-61.0,-44.300000000000004,-13.899999999999999,215.7,8.8,0.3,0.0,-1.8,-1.8,6.0,0.0,tailOff_beta0_balance,raw_tailOff_beta0_balance.txt,0,0,30,-3.0,0,inf,inf
43.0,13.0,30.0,28.0,-3.0,0.0,410.28,101114.0,293.13,1072.1,-232.9,-135.5,24.1,375.8,26.9,469.873,1.2016928354908905,961.4345016371849,40.00166913640772,437370.90301202674,0.0,0.0,0.0,0.0,0.0,0.0,0.0,0.0,0.0,101114.0,1.5088934246502226e-05,inf,inf,9.862158788008795,-3.3799656477553803,2.4882205797442776,-0.983845680859407,-5.571793480868724,-0.1832195191359267,0.047233819847135566,-0.016188006290235177,0.01191708277364958,-0.0033739546120909267,-0.16175054365004188,-0.0006283244960467329,0.009428723697174646,0.047792779461211604,0.016188006290235177,0.011917082773649577,0.04723381984713555,0.016188006290235177,-0.007958599375510625,-0.17506353597855073,-0.17506353597855073,-0.0002120942551803679,1071.8,-232.9,-133.7,25.900000000000002,369.8,26.9,0.3,0.0,-1.8,-1.8,6.0,0.0,tailOff_beta0_balance,raw_tailOff_beta0_balance.txt,0,0,40,-3.0,0,inf,inf
24.0,13.0,14.0,33.0,-2.0,0.0,103.23,101143.0,292.57,287.0,-37.4,17.0,36.7,120.4,7.5,243.277,1.2043382731071817,240.82428657294446,19.998199426119196,219462.48251218034,0.0,0.0,0.0,0.0,0.0,0.0,0.0,0.0,0.0,101143.0,1.5033529266110134e-05,inf,inf,2.635521133224621,-0.5072065876748362,6.277527747659905,-0.20813007931546074,-1.3460707581756166,-0.04823228712544736,0.050392627316047586,-0.009698071558875958,0.120029815836431,-0.0028494859695505498,-0.1560048314295547,-0.000660342925421095,0.11819801958487378,0.0545509096510352,0.009698071558875958,0.12002981583643102,0.05039262731604759,0.009698071558875958,-0.0056025608993263195,-0.17020814301949447,-0.17020814301949447,-0.0004650996959576995,286.5,-37.4,19.0,39.2,109.9,7.2,0.5,0.0,-2.0,-2.5,10.5,0.3,tailOff_beta0_balance,raw_tailOff_beta0_balance.txt,0,0,20,-2.0,0,inf,inf
4.0,12.0,54.0,17.0,-2.0,0.0,232.01,101152.0,292.69,617.0,-62.0,37.9,70.4,245.9,6.5,356.553,1.2039516279535234,541.9934438405794,30.00595787761402,329078.574533534,0.0,0.0,0.0,0.0,0.0,0.0,0.0,0.0,0.0,101152.0,1.5043130665734893e-05,inf,inf,5.671235773986578,-0.9112139179410845,12.71740608673525,-0.4277368531140482,-2.9108797321892736,-0.04305169024180462,0.04818195867471965,-0.0077415351940489825,0.10804515258055927,-0.0026020437379275143,-0.14989966772307822,-0.00026189555607689026,0.1062978082850011,0.05192332897353441,0.0077415351940489825,0.10804515258055927,0.04818195867471966,0.0077415351940489825,-0.004790244139981458,-0.16347989579451108,-0.16347989579451108,-9.477618159849587e-05,616.5,-62.0,39.9,72.9,235.4,6.2,0.5,0.0,-2.0,-2.5,10.5,0.3,tailOff_beta0_balance,raw_tailOff_beta0_balance.txt,0,0,30,-2.0,0,inf,inf
44.0,13.0,31.0,6.0,-2.0,0.0,410.35,101116.0,293.17999999999995,1067.2,-209.2,30.3,170.9,411.9,22.4,469.787,1.201511659372134,961.5997782227017,40.00812333111727,437317.8172064129,0.0,0.0,0.0,0.0,0.0,0.0,0.0,0.0,0.0,101116.0,1.5093200752114594e-05,inf,inf,9.813163526323281,-3.0616873694300506,22.51029971837928,-0.9431766137278297,-5.113002235438051,-0.15140936357453819,0.04699108389765097,-0.014661124076791028,0.10779229142469529,-0.003233930072341777,-0.14840620830156917,-0.0005191469836837209,0.10608666209567659,0.050724354918128295,0.014661124076791028,0.10779229142469529,0.04699108389765098,0.014661124076791028,-0.007379842083619715,-0.16165078478220038,-0.16165078478220038,-0.00026175366248029256,1066.7,-209.2,32.3,173.4,401.4,22.099999999999998,0.5,0.0,-2.0,-2.5,10.5,0.3,tailOff_beta0_balance,raw_tailOff_beta0_balance.txt,0,0,40,-2.0,0,inf,inf
25.0,13.0,15.0,16.0,-1.0,0.0,103.26,101142.0,292.54999999999995,290.4,-41.1,51.0,73.9,137.0,7.6,243.222,1.2044086988526044,240.89426682835068,20.000520043361465,219512.39833073568,0.0,0.0,0.0,0.0,0.0,0.0,0.0,0.0,0.0,101142.0,1.5031854844369362e-05,inf,inf,2.6681903760384995,-0.5626065477094029,11.087479509750992,-0.21836983533063337,-1.243345372624856,-0.050307985597360584,0.051002460756738095,-0.010754224521878228,0.21193717797108688,-0.0029888088331089194,-0.1440574620891711,-0.0006885609979127675,0.21101478323791292,0.05469350660405117,0.010754224521878228,0.21193717797108688,0.05100246075673809,0.010754224521878228,-0.006031019120046825,-0.15843265704454385,-0.15843265704454385,-0.0005833940547389515,290.09999999999997,-41.1,54.6,77.7,120.5,7.5,0.3,0.0,-3.6,-3.8,16.5,0.1,tailOff_beta0_balance,raw_tailOff_beta0_balance.txt,0,0,20,-1.0,0,inf,inf
5.0,12.0,55.0,18.0,-1.0,0.0,231.65,101151.0,292.69,626.0,-64.9,119.8,155.6,279.2,6.3,356.499,1.2039397255528992,541.1493966454817,29.982732819572178,328820.6120289133,0.0,0.0,0.0,0.0,0.0,0.0,0.0,0.0,0.0,101151.0,1.5043279385279588e-05,inf,inf,5.75480185149959,-0.9576713923890867,23.82553208868589,-0.4256008829967214,-2.6458917934119515,-0.0431886723824917,0.04896818161226843,-0.00814892117530732,0.2027338234110845,-0.0025930882503497044,-0.13646627647092466,-0.00026313864321589,0.20184833345982367,0.05249891660578088,0.00814892117530732,0.20273382341108453,0.04896818161226844,0.00814892117530732,-0.004893733521377523,-0.15026810381105862,-0.15026810381105862,-0.00017775829025364802,625.7,-64.9,123.39999999999999,159.4,262.7,6.2,0.3,0.0,-3.6,-3.8,16.5,0.1,tailOff_beta0_balance,raw_tailOff_beta0_balance.txt,0,0,30,-1.0,0,inf,inf
45.0,13.0,31.0,51.0,-1.0,0.0,410.11,101118.0,293.23999999999995,1074.7,-187.2,192.3,315.1,459.5,18.7,469.791,1.2012895775542207,961.033117531779,40.00003029011236,437079.3486818314,0.0,0.0,0.0,0.0,0.0,0.0,0.0,0.0,0.0,101118.0,1.5098380741436078e-05,inf,inf,9.88193124193841,-2.754460482698079,42.50834022556387,-0.9080289774671356,-4.64851804724801,-0.12810147979776554,0.04734828521132491,-0.013197721917414367,0.20367446074895265,-0.0031152529064025036,-0.1350039914093366,-0.00043948873566526046,0.20281709862444472,0.05089568330803593,0.013197721917414367,0.20367446074895265,0.04734828521132491,0.013197721917414367,-0.006841699125519856,-0.14834924614051084,-0.14834924614051084,-0.0003201333796694053,1074.4,-187.2,195.9,318.90000000000003,443.0,18.599999999999998,0.3,0.0,-3.6,-3.8,16.5,0.1,tailOff_beta0_balance,raw_tailOff_beta0_balance.txt,0,0,40,-1.0,0,inf,inf
26.0,13.0,16.0,5.0,-0.0,0.0,103.27,101140.0,292.53999999999996,297.3,-42.6,85.8,109.3,159.0,7.6,243.455,1.2044260525810213,240.91759359866245,20.001344291503734,219530.4157186848,0.0,0.0,0.0,0.0,0.0,0.0,0.0,0.0,0.0,101140.0,1.5031240575946731e-05,inf,inf,2.7302770231207014,-0.5866063132155459,15.98109127192624,-0.22806792194789305,-1.1016757522499547,-0.05038387832119118,0.05218419384825859,-0.011211894361716955,0.3054489920908089,-0.0031212434535663526,-0.12763086579476196,-0.0006895329647070274,0.3054489920908089,0.05218419384825859,0.011211894361716955,0.3054489920908089,0.05218419384825859,0.011211894361716955,-0.006281349159788233,-0.14233913572972925,-0.14233913572972925,-0.0006895329647070274,296.90000000000003,-42.6,90.8,114.8,136.5,7.5,0.4,0.0,-5.0,-5.5,22.5,0.1,tailOff_beta0_balance,raw_tailOff_beta0_balance.txt,0,0,20,-0.0,0,inf,inf
6.0,12.0,56.0,15.0,0.0,0.0,231.83,101151.0,292.69,648.2,-73.7,198.6,240.9,321.8,9.5,356.69,1.2039397255528992,541.5714187437433,29.99442174492518,328948.80446592905,0.0,0.0,0.0,0.0,0.0,0.0,0.0,0.0,0.0,101151.0,1.5043279385279588e-05,inf,inf,5.957054300311241,-1.0587493965751351,34.99079436544621,-0.41978255006508847,-2.385234209745407,-0.06425802762217711,0.050649668050671046,-0.009001983662055436,0.297508135748661,-0.0025556454346530276,-0.12292656160914722,-0.00039120429114302676,0.297508135748661,0.050649668050671046,0.009001983662055436,0.297508135748661,0.050649668050671046,0.009001983662055436,-0.005092881250476501,-0.13720232089311704,-0.13720232089311704,-0.00039120429114302676,647.8000000000001,-73.7,203.6,246.4,299.3,9.4,0.4,0.0,-5.0,-5.5,22.5,0.1,tailOff_beta0_balance,raw_tailOff_beta0_balance.txt,0,0,30,0.0,0,inf,inf
46.0,13.0,32.0,31.0,-0.0,0.0,409.85,101118.0,293.27,1095.7,-174.2,347.5,459.8,518.7,17.4,469.971,1.2011666918607415,960.4192411322717,39.98929829759527,436882.80996386515,0.0,0.0,0.0,0.0,0.0,0.0,0.0,0.0,0.0,101118.0,1.5101120277422455e-05,inf,inf,10.072183187473494,-2.5635766076126933,62.41778003996092,-0.8679610251320734,-4.161489967986029,-0.11935869546952506,0.048290704897081725,-0.012290971990387286,0.2992597076659,-0.0029796916743814066,-0.12093679109993316,-0.0004097558540735763,0.2992597076659,0.048290704897081725,0.012290971990387286,0.2992597076659,0.048290704897081725,0.012290971990387286,-0.0064439386132803395,-0.1345476696169312,-0.1345476696169312,-0.0004097558540735763,1095.3,-174.2,352.5,465.3,496.20000000000005,17.299999999999997,0.4,0.0,-5.0,-5.5,22.5,0.1,tailOff_beta0_balance,raw_tailOff_beta0_balance.txt,0,0,40,-0.0,0,inf,inf
27.0,13.0,16.0,43.0,1.0,0.0,103.22,101144.0,292.51,306.5,-42.0,119.9,141.9,183.0,8.0,243.432,1.204597218134788,240.8009598396521,19.995081411585637,219510.28771638867,0.0,0.0,0.0,0.0,0.0,0.0,0.0,0.0,0.0,101144.0,1.5027911808036259e-05,inf,inf,2.812615515020166,-0.5742886294096863,20.61798791165835,-0.24009412681715964,-0.9709567331111624,-0.051042526134058276,0.053783979845647915,-0.010981781158785179,0.3942655654057623,-0.003287420646149735,-0.11254134602627755,-0.0006988852933188367,0.3951441767265638,0.04689490539332212,0.010981781158785179,0.39426556540576235,0.05378397984564792,0.010981781158785179,-0.006369498921594445,-0.1277005203932689,-0.1277005203932689,-0.0008101717703851267,305.9,-41.9,126.0,148.4,153.3,7.6,0.6,-0.1,-6.1,-6.5,29.7,0.4,tailOff_beta0_balance,raw_tailOff_beta0_balance.txt,0,0,20,1.0,0,inf,inf
7.0,12.0,57.0,7.0,1.0,0.0,231.95,101151.0,292.69,672.2,-73.2,280.4,319.7,368.8,12.0,356.796,1.2039397255528992,541.8527684751257,30.002211877930034,329034.2388497078,0.0,0.0,0.0,0.0,0.0,0.0,0.0,0.0,0.0,101151.0,1.5043279385279588e-05,inf,inf,6.174915231235121,-1.0222622698391428,45.957996825282365,-0.42949508515887524,-2.0997029358418864,-0.07856360085671062,0.052474762841703874,-0.008687239931729575,0.3905535369761004,-0.0026134178758872983,-0.10815509919378788,-0.00047804858767371483,0.3914098646695439,0.04565067161833032,0.008687239931729575,0.3905535369761004,0.052474762841703874,0.008687239931729575,-0.005052828180492017,-0.12294526686205641,-0.12294526686205641,-0.0005663188518415837,671.6,-73.10000000000001,286.5,326.2,339.1,11.6,0.6,-0.1,-6.1,-6.5,29.7,0.4,tailOff_beta0_balance,raw_tailOff_beta0_balance.txt,0,0,30,1.0,0,inf,inf
47.0,13.0,33.0,7.0,1.0,0.0,410.05,101119.0,293.29999999999995,1134.9,-173.2,493.7,601.9,593.4,20.7,470.224,1.2010557089520575,960.8914531919856,40.00097592180848,436935.4386850143,0.0,0.0,0.0,0.0,0.0,0.0,0.0,0.0,0.0,101119.0,1.510371063160034e-05,inf,inf,10.429037182170724,-2.5094077973161286,81.90593321763923,-0.8752273040688013,-3.6644532093194355,-0.13887923531017443,0.049977055642590786,-0.012025349121472365,0.39250194532572064,-0.0030031600826281673,-0.10644010425940106,-0.0004765351513264192,0.3933143852659349,0.04311934041769821,0.012025349121472365,0.39250194532572064,0.049977055642590786,0.012025349121472365,-0.006383250127459889,-0.1205262857396317,-0.1205262857396317,-0.0005880277864217396,1134.3000000000002,-173.1,499.8,608.4,563.6999999999999,20.3,0.6,-0.1,-6.1,-6.5,29.7,0.4,tailOff_beta0_balance,raw_tailOff_beta0_balance.txt,0,0,40,1.0,0,inf,inf
28.0,13.0,17.0,25.0,2.0,0.0,103.27,101141.0,292.48999999999995,320.3,-39.8,154.5,173.7,211.5,8.0,243.677,1.2046438549546674,240.91759359866245,19.999536065291576,219579.31295274492,0.0,0.0,0.0,0.0,0.0,0.0,0.0,0.0,0.0,101141.0,1.502653472922421e-05,inf,inf,2.9390938630176073,-0.5507202922073725,25.44657498297333,-0.25975164521821065,-0.8309833892668577,-0.045841034292416705,0.05617534139837266,-0.01052599946501789,0.48636420057036206,-0.00355485381401275,-0.0962707304908817,-0.0006273614762123637,0.4880284117823899,0.03916725508417983,0.01052599946501789,0.48636420057036217,0.05617534139837266,0.01052599946501789,-0.006495770602215849,-0.11210391720980961,-0.11210391720980961,-0.0008545811886947404,319.7,-39.8,162.5,182.1,174.4,6.8,0.6,0.0,-8.0,-8.4,37.1,1.2,tailOff_beta0_balance,raw_tailOff_beta0_balance.txt,0,0,20,2.0,0,inf,inf
8.0,12.0,57.0,50.0,2.0,0.0,231.86,101153.0,292.69,699.9,-69.1,359.7,395.7,419.9,12.5,356.815,1.2039635303541478,541.6417560516483,29.996072918382023,328973.4173559821,0.0,0.0,0.0,0.0,0.0,0.0,0.0,0.0,0.0,101153.0,1.504298194913068e-05,inf,inf,6.428664576076382,-0.9623216470858814,56.800151673228314,-0.4179624735898335,-1.8014079843275592,-0.07658394808841382,0.05465242162823705,-0.008181047210681575,0.4828788002636343,-0.0025442343330638138,-0.09282616041178846,-0.0004661842208335009,0.4844919855538606,0.03776690175213182,0.008181047210681575,0.48287880026363433,0.05465242162823706,0.008181047210681575,-0.004830862636779084,-0.1082301076730065,-0.1082301076730065,-0.0006351658213527697,699.3,-69.1,367.7,404.09999999999997,382.79999999999995,11.3,0.6,0.0,-8.0,-8.4,37.1,1.2,tailOff_beta0_balance,raw_tailOff_beta0_balance.txt,0,0,30,2.0,0,inf,inf
48.0,13.0,34.0,0.0,2.0,0.0,410.12,101116.0,293.33,1189.7,-164.8,636.2,735.5,682.6,23.1,470.624,1.20089724301886,961.0567282874699,40.00705522446459,436909.62132752326,0.0,0.0,0.0,0.0,0.0,0.0,0.0,0.0,0.0,101116.0,1.510689870292135e-05,inf,inf,10.931242684150373,-2.3576050375191655,101.10108691858491,-0.8564125931826003,-3.135204576387176,-0.14914088182554414,0.052374669294534215,-0.011295951223023421,0.4844038455350062,-0.0029380959656025,-0.09105154133669573,-0.0005116578465639185,0.4859366093987993,0.03543731365118845,0.011295951223023421,0.4844038455350062,0.052374669294534215,0.011295951223023421,-0.006100307454342027,-0.10581349734158586,-0.10581349734158586,-0.0007249971551291072,1189.1000000000001,-164.8,644.2,743.9,645.5,21.900000000000002,0.6,0.0,-8.0,-8.4,37.1,1.2,tailOff_beta0_balance,raw_tailOff_beta0_balance.txt,0,0,40,2.0,0,inf,inf
29.0,13.0,18.0,15.0,3.0,0.0,103.32,101142.0,292.48999999999995,337.2,-41.0,185.0,206.5,243.0,7.5,243.847,1.2046557654939636,241.0342275890443,20.004277714484978,219633.5441004597,0.0,0.0,0.0,0.0,0.0,0.0,0.0,0.0,0.0,101142.0,1.502638616053139e-05,inf,inf,3.093199189104671,-0.5690226832234534,30.121995864674346,-0.24113087718229828,-0.7070298428530699,-0.047224835292955326,0.05909217164822757,-0.010870553111229817,0.5754476324357736,-0.0032984208229746795,-0.08187088184264216,-0.0006459868678455107,0.5777516467646396,0.028894585769442645,0.010870553111229817,0.5754476324357733,0.05909217164822756,0.010870553111229817,-0.006319790807727828,-0.09852618582554647,-0.09852618582554647,-0.0009780795871047008,336.5,-41.1,195.0,216.9,196.5,7.0,0.7,0.1,-10.0,-10.4,46.5,0.5,tailOff_beta0_balance,raw_tailOff_beta0_balance.txt,0,0,20,3.0,0,inf,inf
9.0,12.0,59.0,52.0,3.0,0.0,231.92,101149.0,292.69,734.5,-73.0,432.7,473.6,478.0,11.1,357.082,1.2039159207516503,541.7824309173394,30.000561124167525,329009.6295892012,0.0,0.0,0.0,0.0,0.0,0.0,0.0,0.0,0.0,101149.0,1.5043576833190796e-05,inf,inf,6.74503913809442,-1.0348239363624427,67.50797917452144,-0.41333061245013014,-1.5041251903603161,-0.07227954339211098,0.057327148166905824,-0.008795131342005868,0.5737609293812831,-0.00251538582758355,-0.07748711799116523,-0.0004398680707315439,0.5759748810863786,0.027220256408714064,0.008795131342005868,0.5737609293812831,0.05732714816690582,0.008795131342005868,-0.004964454245319375,-0.09364494486672313,-0.09364494486672313,-0.0007006477442674803,733.8,-73.1,442.7,484.0,431.5,10.6,0.7,0.1,-10.0,-10.4,46.5,0.5,tailOff_beta0_balance,raw_tailOff_beta0_balance.txt,0,0,30,3.0,0,inf,inf
49.0,13.0,34.0,45.0,3.0,0.0,409.83,101119.0,293.37,1253.5,-156.4,772.1,861.7,780.8,26.8,470.705,1.2007691292076164,960.3720201299071,39.994934524973246,436684.60092689894,0.0,0.0,0.0,0.0,0.0,0.0,0.0,0.0,0.0,101119.0,1.5110103972377258e-05,inf,inf,11.515370084664411,-2.1712684211861992,119.6212348418611,-0.8147183097334297,-2.6015378246794487,-0.1775504098537099,0.0552127250488537,-0.010410576947575885,0.5735477280164645,-0.0027970480914434573,-0.07560684001347844,-0.0006095567376886529,0.5756513115508353,0.025119889131359444,0.010410576947575885,0.5735477280164645,0.0552127250488537,0.010410576947575885,-0.005691543823574075,-0.09116871045695123,-0.09116871045695123,-0.0009086744329237522,1252.8,-156.5,782.1,872.1,734.3,26.3,0.7,0.1,-10.0,-10.4,46.5,0.5,tailOff_beta0_balance,raw_tailOff_beta0_balance.txt,0,0,40,3.0,0,inf,inf
30.0,13.0,19.0,14.0,4.0,0.0,103.29,101136.0,292.45,357.5,-39.2,216.0,237.6,278.9,7.5,243.908,1.2047490598991175,240.96424716705064,20.000599086212755,219633.41111479737,0.0,0.0,0.0,0.0,0.0,0.0,0.0,0.0,0.0,101136.0,1.5023632023741297e-05,inf,inf,3.27672453705257,-0.539981809522161,34.80483521009938,-0.21165801652954194,-0.5648473999437686,-0.04657534523232079,0.06261640142785396,-0.010318755014784494,0.6651012340226279,-0.002896103431620908,-0.06542578855973347,-0.00063728754227188,0.6678489802065736,0.016068754252780253,0.010318755014784494,0.6651012340226279,0.06261640142785395,0.010318755014784494,-0.0057458808203237335,-0.08307440716703002,-0.08307440716703002,-0.0010406348610711097,356.5,-39.2,228.0,249.79999999999998,222.39999999999998,6.9,1.0,0.0,-12.0,-12.2,56.5,0.6,tailOff_beta0_balance,raw_tailOff_beta0_balance.txt,0,0,20,4.0,0,inf,inf
10.0,13.0,0.0,38.0,4.0,0.0,231.91,101150.0,292.69,775.3,-74.6,502.9,546.2,541.7,10.0,357.287,1.2039278231522748,541.7589850832538,29.99976367993929,329004.1368278249,0.0,0.0,0.0,0.0,0.0,0.0,0.0,0.0,0.0,101150.0,1.5043428107764862e-05,inf,inf,7.116639706552641,-1.0735931818338453,77.82915882300588,-0.41714490588053943,-1.2002138880852442,-0.06467232049712665,0.06048805746847396,-0.009125032144136002,0.6615108851547344,-0.002538708149489191,-0.06183337702766484,-0.0003935902003785965,0.6641189114785511,0.01419604490885057,0.009125032144136002,0.6615108851547343,0.06048805746847395,0.009125032144136002,-0.005070720853785344,-0.07888211557242666,-0.07888211557242666,-0.0007491306510943535,774.3,-74.6,514.9,558.4000000000001,485.20000000000005,9.4,1.0,0.0,-12.0,-12.2,56.5,0.6,tailOff_beta0_balance,raw_tailOff_beta0_balance.txt,0,0,30,4.0,0,inf,inf
50.0,13.0,35.0,41.0,4.0,0.0,409.84,101120.0,293.39,1332.9,-164.3,895.5,988.2,892.8,31.0,471.241,1.2006991484006855,960.395630626462,39.99659167185248,436654.22045672627,0.0,0.0,0.0,0.0,0.0,0.0,0.0,0.0,0.0,101120.0,1.5111781380992519e-05,inf,inf,12.241321880106103,-2.2452564953007816,137.7057357767073,-0.8435321616428875,-2.046064531113453,-0.20456867276512486,0.05869200194055302,-0.010765062782426447,0.6602412215437743,-0.002895899098862685,-0.059462010936204644,-0.0007022971524432043,0.6627270542040578,0.012492931738268015,0.010765062782426447,0.6602412215437742,0.058692001940553004,0.010765062782426447,-0.005866628887396696,-0.07600452589917336,-0.07600452589917336,-0.0011142467454635225,1331.9,-164.3,907.5,1000.4000000000001,836.3,30.4,1.0,0.0,-12.0,-12.2,56.5,0.6,tailOff_beta0_balance,raw_tailOff_beta0_balance.txt,0,0,40,4.0,0,inf,inf
31.0,13.0,19.0,51.0,5.0,0.0,103.25,101133.0,292.42999999999995,380.5,-35.4,247.2,265.2,316.8,7.3,244.05,1.2047957166726424,240.87094006729373,19.996339157783805,219606.76055674336,0.0,0.0,0.0,0.0,0.0,0.0,0.0,0.0,0.0,101133.0,1.5022254956561647e-05,inf,inf,3.487850632038953,-0.4665085254591342,39.29727711043533,-0.1889280173859289,-0.4258291492782251,-0.04909481306423354,0.06667672365360008,-0.008918174347364013,0.7512402228932886,-0.0025860916681401435,-0.04934253074651716,-0.0006720214861248436,0.7541927864135651,0.0009480989816640362,0.008918174347364013,0.7512402228932886,0.06667672365360008,0.008918174347364013,-0.0050217291287057405,-0.06813556322543309,-0.06813556322543309,-0.0011139328690871475,379.5,-34.9,260.7,279.09999999999997,250.3,7.3,1.0,-0.5,-13.5,-13.9,66.5,0.0,tailOff_beta0_balance,raw_tailOff_beta0_balance.txt,0,0,20,5.0,0,inf,inf
11.0,13.0,1.0,29.0,5.0,0.0,231.85,101150.0,292.69,823.8,-76.1,568.7,613.3,612.9,10.2,357.598,1.2039278231522748,541.6183102730918,29.995868511450514,328961.4189397736,0.0,0.0,0.0,0.0,0.0,0.0,0.0,0.0,0.0,101150.0,1.5043428107764862e-05,inf,inf,7.561863213329362,-1.079712389584165,87.69023598872599,-0.39836984790406277,-0.8766498801089408,-0.07001830365152202,0.06428893928224416,-0.009179426061808053,0.7455189413090116,-0.002425074457912507,-0.04517553255060678,-0.000426236073500623,0.7482851669126117,-0.0009319566033209048,0.009179426061808053,0.7455189413090116,0.06428893928224416,0.009179426061808053,-0.004956100617186963,-0.06329556091677313,-0.06329556091677313,-0.0008614668453542041,822.8,-75.6,582.2,627.1999999999999,546.4,10.2,1.0,-0.5,-13.5,-13.9,66.5,0.0,tailOff_beta0_balance,raw_tailOff_beta0_balance.txt,0,0,30,5.0,0,inf,inf
51.0,13.0,36.0,25.0,5.0,0.0,409.64,101118.0,293.4,1419.4,-153.0,1018.5,1098.6,1011.5,33.5,471.614,1.2006344775800943,959.9234224537893,39.98783458940928,436523.59625062,0.0,0.0,0.0,0.0,0.0,0.0,0.0,0.0,0.0,101118.0,1.511299374197376e-05,inf,inf,13.03532275936847,-2.0189966433275695,154.9044204015749,-0.8045751768158315,-1.4756163896188852,-0.2244978778890376,0.06252964762523781,-0.009685003662304964,0.7430670495934423,-0.002763516081593875,-0.04290494234094554,-0.0007710945026732595,0.7456892730141903,-0.0024708571808203933,0.009685003662304964,0.7430670495934423,0.0625296476252378,0.009685003662304964,-0.005405154273191008,-0.0605291091314626,-0.0605291091314626,-0.001246929681916958,1418.4,-152.5,1032.0,1112.5,945.0,33.5,1.0,-0.5,-13.5,-13.9,66.5,0.0,tailOff_beta0_balance,raw_tailOff_beta0_balance.txt,0,0,40,5.0,0,inf,inf
32.0,13.0,20.0,43.0,6.0,0.0,103.22,101131.0,292.41999999999996,405.8,-33.3,274.5,290.1,358.0,7.4,244.073,1.2048130907574834,240.8009598396521,19.993290020014904,219582.252661361,0.0,0.0,0.0,0.0,0.0,0.0,0.0,0.0,0.0,101131.0,1.502164069113973e-05,inf,inf,,,,,,,,,,,,,,,,,,,,,,,,,,,,,,,,,,,tailOff_beta0_balance,raw_tailOff_beta0_balance.txt,0,0,20,6.0,0,inf,inf
12.0,13.0,2.0,24.0,6.0,0.0,231.88,101150.0,292.69,881.6,-73.9,631.2,672.6,690.5,11.9,358.077,1.2039278231522748,541.6886476365258,29.997816157764408,328982.7785645088,0.0,0.0,0.0,0.0,0.0,0.0,0.0,0.0,0.0,101150.0,1.5043428107764862e-05,inf,inf,,,,,,,,,,,,,,,,,,,,,,,,,,,,,,,,,,,tailOff_beta0_balance,raw_tailOff_beta0_balance.txt,0,0,30,6.0,0,inf,inf
52.0,13.0,37.0,24.0,6.0,0.0,409.9,101116.0,293.40999999999997,1520.0,-133.5,1136.9,1195.3,1141.2,38.1,472.148,1.200569811167725,960.537293800143,40.00169592677338,436639.8831576104,0.0,0.0,0.0,0.0,0.0,0.0,0.0,0.0,0.0,101116.0,1.5114206171506282e-05,inf,inf,,,,,,,,,,,,,,,,,,,,,,,,,,,,,,,,,,,tailOff_beta0_balance,raw_tailOff_beta0_balance.txt,0,0,40,6.0,0,inf,inf
33.0,13.0,21.0,27.0,7.0,0.0,103.38,101129.0,292.40999999999997,435.6,-28.6,300.9,312.2,403.5,8.0,244.134,1.204830466030662,241.1741886829129,20.008634018429778,219759.7591633946,0.0,0.0,0.0,0.0,0.0,0.0,0.0,0.0,0.0,101129.0,1.5021026422051003e-05,inf,inf,,,,,,,,,,,,,,,,,,,,,,,,,,,,,,,,,,,tailOff_beta0_balance,raw_tailOff_beta0_balance.txt,0,0,20,7.0,0,inf,inf
13.0,13.0,3.0,18.0,7.0,0.0,231.81,101148.0,292.69,950.8,-60.8,690.4,717.8,779.3,14.6,358.877,1.2039040183510261,541.5245272514143,29.993567983652536,328929.6853736768,0.0,0.0,0.0,0.0,0.0,0.0,0.0,0.0,0.0,101148.0,1.5043725561557477e-05,inf,inf,,,,,,,,,,,,,,,,,,,,,,,,,,,,,,,,,,,tailOff_beta0_balance,raw_tailOff_beta0_balance.txt,0,0,30,7.0,0,inf,inf
53.0,13.0,38.0,14.0,7.0,0.0,409.74,101114.0,293.40999999999997,1640.1,-128.7,1233.0,1286.4,1285.9,38.8,472.692,1.2005460647811756,960.1595260773826,39.994224591250415,436549.6947363919,0.0,0.0,0.0,0.0,0.0,0.0,0.0,0.0,0.0,101114.0,1.511450512528462e-05,inf,inf,,,,,,,,,,,,,,,,,,,,,,,,,,,,,,,,,,,tailOff_beta0_balance,raw_tailOff_beta0_balance.txt,0,0,40,7.0,0,inf,inf
34.0,13.0,22.0,32.0,8.0,0.0,103.38,101125.0,292.39,473.4,-26.1,318.1,326.2,456.1,11.9,244.357,1.204865220142518,241.1741886829129,20.008345443696374,219774.5647365994,0.0,0.0,0.0,0.0,0.0,0.0,0.0,0.0,0.0,101125.0,1.5019797872873886e-05,inf,inf,,,,,,,,,,,,,,,,,,,,,,,,,,,,,,,,,,,tailOff_beta0_balance,raw_tailOff_beta0_balance.txt,0,0,20,8.0,0,inf,inf
14.0,13.0,4.0,24.0,8.0,0.0,231.84,101145.0,292.69,1038.4,-54.4,732.4,751.8,882.4,18.7,359.651,1.203868311149153,541.59486450379,29.99596065080814,328946.1683034538,0.0,0.0,0.0,0.0,0.0,0.0,0.0,0.0,0.0,101145.0,1.504417176430289e-05,inf,inf,,,,,,,,,,,,,,,,,,,,,,,,,,,,,,,,,,,tailOff_beta0_balance,raw_tailOff_beta0_balance.txt,0,0,30,8.0,0,inf,inf
54.0,13.0,38.0,58.0,8.0,0.0,409.69,101113.0,293.44,1794.3,-130.4,1301.9,1355.3,1456.5,41.2,473.057,1.2004114543136788,960.0414741499001,39.99400807845365,436463.870593485,0.0,0.0,0.0,0.0,0.0,0.0,0.0,0.0,0.0,101113.0,1.5117395328416017e-05,inf,inf,,,,,,,,,,,,,,,,,,,,,,,,,,,,,,,,,,,tailOff_beta0_balance,raw_tailOff_beta0_balance.txt,0,0,40,8.0,0,inf,inf
35.0,13.0,23.0,19.0,9.0,0.0,103.23,101123.0,292.37,519.8,-38.3,319.2,335.3,516.6,21.6,244.392,1.2049238098648745,240.82428657294446,19.99333973968459,219632.04850233172,0.0,0.0,0.0,0.0,0.0,0.0,0.0,0.0,0.0,101123.0,1.5018272273356289e-05,inf,inf,,,,,,,,,,,,,,,,,,,,,,,,,,,,,,,,,,,tailOff_beta0_balance,raw_tailOff_beta0_balance.txt,0,0,20,9.0,0,inf,inf
15.0,13.0,5.0,56.0,9.0,0.0,231.94,101147.0,292.69,1163.6,-64.4,737.7,764.0,1015.3,27.3,360.31,1.2038921159504017,541.8293226132754,30.002155997106467,329020.6144230163,0.0,0.0,0.0,0.0,0.0,0.0,0.0,0.0,0.0,101147.0,1.5043874292864996e-05,inf,inf,,,,,,,,,,,,,,,,,,,,,,,,,,,,,,,,,,,tailOff_beta0_balance,raw_tailOff_beta0_balance.txt,0,0,30,9.0,0,inf,inf
55.0,13.0,39.0,52.0,9.0,0.0,409.58,101110.0,293.46,2085.3,-79.0,1307.3,1320.6,1722.6,12.7,473.66,1.2002940298946696,959.7817607238663,39.99055404906454,436360.4840878175,0.0,0.0,0.0,0.0,0.0,0.0,0.0,0.0,0.0,101110.0,1.5119671176491406e-05,inf,inf,,,,,,,,,,,,,,,,,,,,,,,,,,,,,,,,,,,tailOff_beta0_balance,raw_tailOff_beta0_balance.txt,0,0,40,9.0,0,inf,inf
36.0,13.0,24.0,5.0,10.0,0.0,103.31,101121.0,292.37,578.0,-49.4,314.4,338.1,585.1,27.7,244.733,1.2048999790091866,241.01090077245823,20.001282429261977,219714.9554325803,0.0,0.0,0.0,0.0,0.0,0.0,0.0,0.0,0.0,101121.0,1.5018569309031833e-05,inf,inf,,,,,,,,,,,,,,,,,,,,,,,,,,,,,,,,,,,tailOff_beta0_balance,raw_tailOff_beta0_balance.txt,0,0,20,10.0,0,inf,inf
16.0,13.0,7.0,3.0,10.0,0.0,231.86,101146.0,292.69,1347.7,-46.0,718.2,728.7,1186.2,15.2,360.638,1.2038802135497775,541.6417560516483,29.997110867869242,328962.03433341853,0.0,0.0,0.0,0.0,0.0,0.0,0.0,0.0,0.0,101146.0,1.5044023027113436e-05,inf,inf,,,,,,,,,,,,,,,,,,,,,,,,,,,,,,,,,,,tailOff_beta0_balance,raw_tailOff_beta0_balance.txt,0,0,30,10.0,0,inf,inf
56.0,13.0,40.0,50.0,10.0,0.0,409.62,101105.0,293.47999999999996,2419.0,-80.1,1276.6,1285.8,2014.9,26.8,474.341,1.2001528807574489,959.8762018401288,39.99487318360991,436333.2959415645,0.0,0.0,0.0,0.0,0.0,0.0,0.0,0.0,0.0,101105.0,1.5122246375507911e-05,inf,inf,,,,,,,,,,,,,,,,,,,,,,,,,,,,,,,,,,,tailOff_beta0_balance,raw_tailOff_beta0_balance.txt,0,0,40,10.0,0,inf,inf
37.0,13.0,24.0,54.0,11.0,0.0,103.31,101121.0,292.37,660.3,-17.0,316.1,314.6,668.1,9.1,245.065,1.2048999790091866,241.01090077245823,20.001282429261977,219714.9554325803,0.0,0.0,0.0,0.0,0.0,0.0,0.0,0.0,0.0,101121.0,1.5018569309031833e-05,inf,inf,,,,,,,,,,,,,,,,,,,,,,,,,,,,,,,,,,,tailOff_beta0_balance,raw_tailOff_beta0_balance.txt,0,0,20,11.0,0,inf,inf
17.0,13.0,8.0,18.0,11.0,0.0,231.98,101143.0,292.69,1511.3,-43.1,724.8,731.4,1338.1,16.5,360.881,1.2038445063479044,541.9231061162056,30.00534568093905,329042.5813352168,0.0,0.0,0.0,0.0,0.0,0.0,0.0,0.0,0.0,101143.0,1.5044469247505173e-05,inf,inf,,,,,,,,,,,,,,,,,,,,,,,,,,,,,,,,,,,tailOff_beta0_balance,raw_tailOff_beta0_balance.txt,0,0,30,11.0,0,inf,inf
57.0,13.0,41.0,35.0,11.0,0.0,409.63,101105.0,293.48999999999995,2681.4,-106.3,1285.4,1310.9,2258.8,50.7,474.934,1.2001119882949882,959.8998121423316,39.996046454941364,436319.73116415093,0.0,0.0,0.0,0.0,0.0,0.0,0.0,0.0,0.0,101105.0,1.5123160145283388e-05,inf,inf,,,,,,,,,,,,,,,,,,,,,,,,,,,,,,,,,,,tailOff_beta0_balance,raw_tailOff_beta0_balance.txt,0,0,40,11.0,0,inf,inf
38.0,13.0,25.0,36.0,12.0,0.0,103.21,101122.0,292.37,752.9,-8.9,319.5,309.6,756.9,6.0,245.263,1.2049118944370305,240.7776331156146,19.99150189815783,219609.68760404392,0.0,0.0,0.0,0.0,0.0,0.0,0.0,0.0,0.0,101122.0,1.5018420789725363e-05,inf,inf,,,,,,,,,,,,,,,,,,,,,,,,,,,,,,,,,,,tailOff_beta0_balance,raw_tailOff_beta0_balance.txt,0,0,20,12.0,0,inf,inf
18.0,13.0,8.0,59.0,12.0,0.0,231.92,101146.0,292.7,1694.0,-52.7,734.2,746.8,1501.6,26.8,361.047,1.2038390833750745,541.7824309173394,30.001518531043033,328990.4316824619,0.0,0.0,0.0,0.0,0.0,0.0,0.0,0.0,0.0,101146.0,1.5044934799196711e-05,inf,inf,,,,,,,,,,,,,,,,,,,,,,,,,,,,,,,,,,,tailOff_beta0_balance,raw_tailOff_beta0_balance.txt,0,0,30,12.0,0,inf,inf
58.0,13.0,42.0,22.0,12.0,0.0,409.7,101106.0,293.53,2968.5,-120.8,1306.7,1341.9,2515.3,67.4,475.572,1.199960314647003,960.0650845168869,40.00201736583128,436283.73413857986,0.0,0.0,0.0,0.0,0.0,0.0,0.0,0.0,0.0,101106.0,1.512666581685789e-05,inf,inf,,,,,,,,,,,,,,,,,,,,,,,,,,,,,,,,,,,tailOff_beta0_balance,raw_tailOff_beta0_balance.txt,0,0,40,12.0,0,inf,inf
39.0,13.0,26.0,26.0,13.0,0.0,103.1,101122.0,292.34999999999997,901.3,-64.4,277.1,312.0,883.9,38.0,245.943,1.2049943238466039,240.52103976202298,19.980163305456024,219511.7707950671,0.0,0.0,0.0,0.0,0.0,0.0,0.0,0.0,0.0,101122.0,1.5016598194741366e-05,inf,inf,,,,,,,,,,,,,,,,,,,,,,,,,,,,,,,,,,,tailOff_beta0_balance,raw_tailOff_beta0_balance.txt,0,0,20,13.0,0,inf,inf
19.0,13.0,9.0,45.0,13.0,0.0,231.95,101144.0,292.71,1870.2,-64.1,741.6,760.9,1665.3,38.2,361.318,1.2037741528359363,541.8527684751257,30.004275129130704,328994.21553694137,0.0,0.0,0.0,0.0,0.0,0.0,0.0,0.0,0.0,101144.0,1.5046144105273332e-05,inf,inf,,,,,,,,,,,,,,,,,,,,,,,,,,,,,,,,,,,tailOff_beta0_balance,raw_tailOff_beta0_balance.txt,0,0,30,13.0,0,inf,inf
59.0,13.0,43.0,11.0,13.0,0.0,409.53,101108.0,293.53,3301.8,-146.8,1319.9,1373.7,2803.7,91.2,476.341,1.1999840513256304,959.6637095367728,39.993259102343224,436196.8400935428,0.0,0.0,0.0,0.0,0.0,0.0,0.0,0.0,0.0,101108.0,1.5126366598876783e-05,inf,inf,,,,,,,,,,,,,,,,,,,,,,,,,,,,,,,,,,,tailOff_beta0_balance,raw_tailOff_beta0_balance.txt,0,0,40,13.0,0,inf,inf
40.0,13.0,27.0,3.0,14.0,0.0,103.2,101118.0,292.34999999999997,982.6,-56.2,283.4,312.7,969.2,31.3,246.643,1.2049466588746356,240.75430640083198,19.99024509912635,219613.84684477543,0.0,0.0,0.0,0.0,0.0,0.0,0.0,0.0,0.0,101118.0,1.5017192217494771e-05,inf,inf,,,,,,,,,,,,,,,,,,,,,,,,,,,,,,,,,,,tailOff_beta0_balance,raw_tailOff_beta0_balance.txt,0,0,20,14.0,0,inf,inf
20.0,13.0,10.0,33.0,14.0,0.0,231.74,101147.0,292.71,2189.2,-144.7,674.7,759.2,1919.6,89.0,361.955,1.2038098575980427,541.3604073197906,29.990195393444655,328849.58609759214,0.0,0.0,0.0,0.0,0.0,0.0,0.0,0.0,0.0,101147.0,1.504569783961725e-05,inf,inf,,,,,,,,,,,,,,,,,,,,,,,,,,,,,,,,,,,tailOff_beta0_balance,raw_tailOff_beta0_balance.txt,0,0,30,14.0,0,inf,inf
60.0,13.0,44.0,18.0,14.0,0.0,409.63,101108.0,293.54999999999995,3628.3,-162.1,1323.2,1387.4,3094.0,103.9,477.149,1.1999022946196978,959.8998121423316,39.9995411359773,436212.6493501199,0.0,0.0,0.0,0.0,0.0,0.0,0.0,0.0,0.0,101108.0,1.512819431068254e-05,inf,inf,,,,,,,,,,,,,,,,,,,,,,,,,,,,,,,,,,,tailOff_beta0_balance,raw_tailOff_beta0_balance.txt,0,0,40,14.0,0,inf,inf
