run,hr,min,sec,AoA,AoS,dPb,pBar,temp,B1,B2,B3,B4,B5,B6,rpmWT,rho,q,V,Re,rpsM1,rpsM2,iM1,iM2,dPtQ,tM1,tM2,vM1,vM2,pInf,nu,J_M1,J_M2,FX,FY,FZ,MX,MY,MZ,CFX,CFY,CFZ,CMX,CMY,CMZ,CN,CT,CY,CL,CD,CYaw,CMroll,CMpitch,CMpitch25c,CMyaw,B1_zeroed,B2_zeroed,B3_zeroed,B4_zeroed,B5_zeroed,B6_zeroed,B1_zero,B2_zero,B3_zero,B4_zero,B5_zero,B6_zero,config,source_file,dR,dE,V_round,AoA_round,AoS_round,J,J_round
22.0,19.0,8.0,11.0,4.995,-10.0,102.48,100880.0,294.09,460.8,45.1,319.8,216.5,277.1,85.4,245.432,1.1949982382127233,239.0748072582547,20.003144511232943,216943.08783935258,0.0,0.0,0.0,0.0,0.0,0.0,0.0,0.0,0.0,100880.0,1.5211876648698731e-05,inf,inf,4.242986605372691,1.7707885485126746,39.73390080033878,0.19444533861829613,-0.8745325005603188,-0.5524662129488952,0.08172193242040707,0.034106226474799925,0.7652937560285383,0.002681610377656523,-0.1020969058991951,-0.0076191033453190515,0.7695028312319062,0.014778361914437765,-0.034106226474799925,0.7652937560285384,0.08640287671320124,-0.01939721161814947,0.012911246776408371,-0.1251304751278709,-0.1251304751278709,-0.0065196963286134205,461.7,45.1,319.8,216.5,277.1,85.4,-0.9,0.0,0.0,0.0,0.0,0.0,tailOff_alfa5_betaSweep_balance,raw_tailOff_alfa5_betaSweep_balance.txt,0,0,20,5.0,-10,inf,inf
43.0,19.0,16.0,56.0,4.995,-10.0,230.41,100869.0,293.84999999999997,980.1,339.1,773.5,436.1,600.5,65.6,360.982,1.195843835378437,538.2422147816898,30.003135386636746,325833.3048954884,0.0,0.0,0.0,0.0,0.0,0.0,0.0,0.0,0.0,100869.0,1.5191529742659524e-05,inf,inf,9.014238484993761,6.214706132391117,89.00979496309276,1.086125770347353,-1.707692153621445,-0.41617466620974863,0.07711734478982028,0.05316717949906203,0.7614840742528661,0.006653257266986325,-0.08855279374241186,-0.0025493522001693164,0.7653067015279814,0.010522965577140553,-0.05316717949906203,0.7614840742528661,0.08517814287243333,-0.03896816418720337,0.02177837683147503,-0.1102885462795658,-0.1102885462795658,-0.0006556247547403486,981.0,339.1,773.5,436.1,600.5,65.6,-0.9,0.0,0.0,0.0,0.0,0.0,tailOff_alfa5_betaSweep_balance,raw_tailOff_alfa5_betaSweep_balance.txt,0,0,30,5.0,-10,inf,inf
1.0,18.0,58.0,13.0,4.995,-10.0,408.1,100879.0,294.09,1516.7,1265.8,1533.8,671.7,940.9,-258.5,474.189,1.194986392472852,956.287543520823,40.006242879793255,433881.3742328097,0.0,0.0,0.0,0.0,0.0,0.0,0.0,0.0,0.0,100879.0,1.5212027441992168e-05,inf,inf,13.941104268821178,16.999277300406423,158.49143364876977,3.950624891955846,-2.4880116596184507,1.7089835670670854,0.0671288887212795,0.0818545340625049,0.763164352516815,0.013621008144684426,-0.07261633962817876,0.0058922524215221745,0.7661109156353548,0.0004261428418950719,-0.0818545340625049,0.763164352516815,0.08032294073753947,-0.06895417056870035,0.03603957512311747,-0.09153681617358597,-0.09153681617358597,0.009064599899734798,1517.6000000000001,1265.8,1533.8,671.7,940.9,-258.5,-0.9,0.0,0.0,0.0,0.0,0.0,tailOff_alfa5_betaSweep_balance,raw_tailOff_alfa5_betaSweep_balance.txt,0,0,40,5.0,-10,inf,inf
64.0,19.0,25.0,39.0,4.995,-9.995,633.68,100878.0,294.59999999999997,1890.3,3259.0,2709.4,851.7,1214.3,-1125.8,587.639,1.1929058535258057,1491.21163260932,50.00132977212115,540613.031526579,0.0,0.0,0.0,0.0,0.0,0.0,0.0,0.0,0.0,100878.0,1.525897579870168e-05,inf,inf,17.363874369472402,38.0991286105428,248.3797686273166,10.054191569401814,-2.558027952244176,7.377570215022771,0.05361769417331593,0.1176458308003748,0.7669688336672228,0.022230018729014974,-0.047878048913863526,0.016311955359364295,0.7687245449036382,-0.013364991882437838,-0.1176458308003748,0.7669688336672228,0.07322280671095567,-0.1065543016989163,0.05375823262557478,-0.06299035517052079,-0.06299035517052079,0.02107264819031192,1891.2,3259.0,2709.4,851.7,1214.3,-1125.8,-0.9,0.0,0.0,0.0,0.0,0.0,tailOff_alfa5_betaSweep_balance,raw_tailOff_alfa5_betaSweep_balance.txt,0,0,50,5.0,-10,inf,inf
23.0,19.0,8.0,33.0,4.995,-9.0,102.69,100872.0,294.04999999999995,453.2,3.4,303.0,230.0,278.9,91.6,245.302,1.1950660165511644,239.5646562188622,20.023058776185497,217194.21810377334,0.0,0.0,0.0,0.0,0.0,0.0,0.0,0.0,0.0,100872.0,1.520941473035213e-05,inf,inf,4.199057916502189,1.1779739634858006,39.50976132161615,0.023833237095321726,-0.8177168165329878,-0.5958524066325611,0.0807104744681739,0.022641944787294473,0.7594207190760197,0.00032801389667566654,-0.09526878462655626,-0.008200643033148233,0.763564031873128,0.01428210350296047,-0.022641944787294473,0.7594207190760197,0.08325877511638778,-0.009737284978237611,0.007398251979735274,-0.11801727142907495,-0.11801727142907495,-0.007585292717385531,456.9,2.9,303.8,228.5,277.9,91.89999999999999,-3.7,0.5,-0.8,1.5,1.0,-0.3,tailOff_alfa5_betaSweep_balance,raw_tailOff_alfa5_betaSweep_balance.txt,0,0,20,5.0,-9,inf,inf
44.0,19.0,17.0,23.0,4.995,-9.0,230.32,100869.0,293.84999999999997,981.8,179.8,718.2,478.6,611.1,113.7,360.879,1.195843835378437,538.0312151854482,29.99725395460726,325769.4326897676,0.0,0.0,0.0,0.0,0.0,0.0,0.0,0.0,0.0,100869.0,1.5191529742659524e-05,inf,inf,9.056311671356882,4.262818128924827,88.42292152277926,0.5775117225447581,-1.626935763807639,-0.7344645151117276,0.07750766764517478,0.036482963789057424,0.7567599992476972,0.0035390384954762264,-0.08439823688817841,-0.004500857889235719,0.7606345520878821,0.011323125683152802,-0.036482963789057424,0.7567599992476972,0.08226061256328544,-0.0239089274402177,0.014161263148462309,-0.10624400308071304,-0.10624400308071304,-0.003280311224421825,985.5,179.3,719.0,477.1,610.1,114.0,-3.7,0.5,-0.8,1.5,1.0,-0.3,tailOff_alfa5_betaSweep_balance,raw_tailOff_alfa5_betaSweep_balance.txt,0,0,30,5.0,-9,inf,inf
2.0,18.0,58.0,36.0,4.995,-9.0,407.74,100879.0,294.15,1197.2,2179.6,1698.0,549.9,796.1,-856.6,473.852,1.194742642061333,955.4376294478546,39.99253986937239,433575.91977945965,0.0,0.0,0.0,0.0,0.0,0.0,0.0,0.0,0.0,100879.0,1.5217530201144966e-05,inf,inf,11.026344080125737,24.19995545562766,157.4489043633164,6.8663108137378694,-1.3098424616877704,5.605628820047655,0.05314103148769941,0.11663073322610913,0.7588188001094337,0.023694801364802648,-0.038263717755079266,0.01934434152763551,0.7605639602758375,-0.013130230638938145,-0.11663073322610913,0.7588188001094338,0.07073184356707606,-0.10688172653002562,0.05466840449620296,-0.053241675218913154,-0.053241675218913154,0.024196144038417695,1200.9,2179.1,1698.8,548.4,795.1,-856.3000000000001,-3.7,0.5,-0.8,1.5,1.0,-0.3,tailOff_alfa5_betaSweep_balance,raw_tailOff_alfa5_betaSweep_balance.txt,0,0,40,5.0,-9,inf,inf
65.0,19.0,25.0,59.0,4.995,-8.995,633.68,100875.0,294.67999999999995,1907.2,3071.4,2605.4,924.6,1244.5,-1137.4,587.513,1.1925465362691263,1491.21163260932,50.008861967710864,540418.2330017007,0.0,0.0,0.0,0.0,0.0,0.0,0.0,0.0,0.0,100875.0,1.5266775470516725e-05,inf,inf,17.5464685360332,34.961132708813025,247.15665394107765,9.576388815036587,-2.3696745404412134,7.446431570399929,0.05418152445520859,0.10795605183768711,0.7631919928660161,0.021173587279007713,-0.04435267935897505,0.016464209193914083,0.7650111394410456,-0.012474457832091584,-0.10795605183768711,0.763191992866016,0.07039394163190738,-0.09815721930757497,0.049971835533970194,-0.059623902854206504,-0.059623902854206504,0.020894548574474696,1910.9,3070.9,2606.2000000000003,923.1,1243.5,-1137.1000000000001,-3.7,0.5,-0.8,1.5,1.0,-0.3,tailOff_alfa5_betaSweep_balance,raw_tailOff_alfa5_betaSweep_balance.txt,0,0,50,5.0,-9,inf,inf
24.0,19.0,8.0,53.0,4.995,-8.0,102.61,100874.0,294.03,446.6,-28.9,286.8,242.5,281.4,94.9,244.984,1.1951710015785715,239.378046609759,20.014379646440045,217130.5612934581,0.0,0.0,0.0,0.0,0.0,0.0,0.0,0.0,0.0,100874.0,1.520727916347783e-05,inf,inf,4.15233043660698,0.6731113263804693,39.36172089043162,-0.05762738190879181,-0.7501782520894005,-0.6215253067887109,0.07987453983625215,0.01294801997914747,0.7571650164372021,-0.0007937368189232222,-0.08746828112134561,-0.008560644324802955,0.7612441118840686,0.013645744839958965,-0.01294801997914747,0.7571650164372021,0.08089922239705787,-0.0017056233420081439,0.003590221047589528,-0.10998115726654448,-0.10998115726654448,-0.008279491080310983,451.8,-31.7,288.40000000000003,240.9,279.29999999999995,95.7,-5.2,2.8,-1.6,1.6,2.1,-0.8,tailOff_alfa5_betaSweep_balance,raw_tailOff_alfa5_betaSweep_balance.txt,0,0,20,5.0,-8,inf,inf
45.0,19.0,17.0,43.0,4.995,-8.0,230.35,100868.0,293.85999999999996,971.2,78.8,675.6,511.7,616.5,132.7,360.928,1.1957912860284319,538.1015483009018,29.999873712035395,325774.99571269343,0.0,0.0,0.0,0.0,0.0,0.0,0.0,0.0,0.0,100868.0,1.5192597030825134e-05,inf,inf,8.973109813427522,2.8559276831686686,87.99298759026055,0.30739377015329866,-1.483140195180236,-0.8639131727294264,0.07678555402476575,0.024439017683547844,0.7529820143627143,0.0018834876438308436,-0.07692870195901128,-0.005293437747183682,0.7568080412836352,0.010932699074273411,-0.024439017683547844,0.7529820143627143,0.07943953616679354,-0.013514695180864723,0.009199278361242806,-0.09857093828417693,-0.09857093828417693,-0.004509593628948061,976.4000000000001,76.0,677.2,510.09999999999997,614.4,133.5,-5.2,2.8,-1.6,1.6,2.1,-0.8,tailOff_alfa5_betaSweep_balance,raw_tailOff_alfa5_betaSweep_balance.txt,0,0,30,5.0,-8,inf,inf
3.0,18.0,58.0,56.0,4.995,-8.0,407.92,100877.0,294.2,1230.8,1947.7,1608.1,605.2,830.7,-792.7,473.67,1.1945159100444038,955.8625849850515,40.005228909416424,433574.2194111096,0.0,0.0,0.0,0.0,0.0,0.0,0.0,0.0,0.0,100877.0,1.522241819612764e-05,inf,inf,11.350342809750591,21.258955670747564,156.20067816456626,6.105512183283682,-1.2153858998706628,5.182382220168737,0.05467821107299044,0.10241115046832885,0.7524683433428452,0.021060011076870472,-0.035488624938934364,0.01787581838918413,0.754371461032672,-0.011045962099344046,-0.10241115046832885,0.7524683433428452,0.06839896386505938,-0.09380475600189732,0.04817887184379415,-0.050899841031707214,-0.050899841031707214,0.022154832739485545,1236.0,1944.9,1609.6999999999998,603.6,828.6,-791.9000000000001,-5.2,2.8,-1.6,1.6,2.1,-0.8,tailOff_alfa5_betaSweep_balance,raw_tailOff_alfa5_betaSweep_balance.txt,0,0,40,5.0,-8,inf,inf
66.0,19.0,26.0,18.0,4.995,-8.0,633.8,100873.0,294.72999999999996,1937.2,2770.9,2469.1,1004.6,1287.4,-1087.0,587.123,1.192320584536724,1491.4974452192919,50.01839292019061,540347.9898010804,0.0,0.0,0.0,0.0,0.0,0.0,0.0,0.0,0.0,100873.0,1.527167009451644e-05,inf,inf,17.837971031617485,30.760233511152343,244.78488649349708,8.639991988389912,-2.1328135655607987,7.109415083491693,0.05507109624285102,0.094965945237979,0.7557233958382747,0.01909953445313491,-0.039911754696314285,0.015716046786993697,0.7576483598589056,-0.010937982530312203,-0.094965945237979,0.7557233958382747,0.06775185320426251,-0.08637732794964341,0.04432340536270458,-0.0554337066404171,-0.0554337066404171,0.01964985712066509,1942.4,2768.1,2470.7,1003.0,1285.3000000000002,-1086.2,-5.2,2.8,-1.6,1.6,2.1,-0.8,tailOff_alfa5_betaSweep_balance,raw_tailOff_alfa5_betaSweep_balance.txt,0,0,50,5.0,-8,inf,inf
25.0,19.0,9.0,12.0,4.995,-7.0,102.4,100869.0,293.98999999999995,437.9,-45.5,272.0,250.3,283.4,89.2,244.94,1.195274366563331,238.888199203968,19.993026572991464,216940.4796044736,0.0,0.0,0.0,0.0,0.0,0.0,0.0,0.0,0.0,100869.0,1.5204365014080502e-05,inf,inf,4.077079364912031,0.29158939070714984,38.99720754212164,-0.10639886491880493,-0.6694990711104531,-0.591712880256022,0.07858782149620637,0.005620536893221725,0.7516914219394633,-0.0014685010243018972,-0.0782214249680052,-0.008166731585075578,0.7556792714236241,0.012840492418610391,-0.005620536893221725,0.7516914219394633,0.07868701093269612,0.003998803941858308,0.0008262923100487737,-0.10037163572968397,-0.10037163572968397,-0.008125646064029839,443.59999999999997,-52.0,274.5,248.8,279.4,91.0,-5.7,6.5,-2.5,1.5,4.0,-1.8,tailOff_alfa5_betaSweep_balance,raw_tailOff_alfa5_betaSweep_balance.txt,0,0,20,5.0,-7,inf,inf
46.0,19.0,17.0,59.0,4.995,-7.0,230.19,100868.0,293.87,939.0,86.8,663.0,528.0,603.7,94.0,360.773,1.195750594862745,537.7264393143222,29.989925740527877,325647.3194596747,0.0,0.0,0.0,0.0,0.0,0.0,0.0,0.0,0.0,100868.0,1.5193513731594859e-05,inf,inf,8.68172624214982,2.460248463185672,87.92167372168286,0.3462061874935065,-1.3665194014701152,-0.6196141742771681,0.07434392357082001,0.021067759868342854,0.7528966024808418,0.0021227819702497133,-0.07092916585994839,-0.0037991978340693473,0.7565103639171891,0.008507777910873246,-0.021067759868342854,0.7528966024808418,0.07635728930030623,-0.011850478829288883,0.008360971780078084,-0.0918832213941547,-0.0918832213941547,-0.003082926015123738,944.7,80.3,665.5,526.5,599.7,95.8,-5.7,6.5,-2.5,1.5,4.0,-1.8,tailOff_alfa5_betaSweep_balance,raw_tailOff_alfa5_betaSweep_balance.txt,0,0,30,5.0,-7,inf,inf
4.0,18.0,59.0,17.0,4.995,-7.0,407.63,100881.0,294.22999999999996,1276.1,1672.8,1519.2,676.3,858.1,-699.0,473.332,1.1944414763607334,955.1779358734957,39.99214523964963,433371.2579049336,0.0,0.0,0.0,0.0,0.0,0.0,0.0,0.0,0.0,100881.0,1.5224566529311983e-05,inf,inf,11.77276145762697,17.983068353143462,155.80604408793587,5.233926468265671,-1.3281321797214467,4.561536854907147,0.05675378668592042,0.08669225389013815,0.7511052544783507,0.018066552631093538,-0.038808553766426335,0.015745587212110928,0.7531942666652512,-0.008859586377101616,-0.08669225389013815,0.7511052544783507,0.06689588062608628,-0.07912951625660014,0.04096866608206792,-0.054804777006654204,-0.054804777006654204,0.019386303497796135,1281.8,1666.3,1521.7,674.8,854.1,-697.2,-5.7,6.5,-2.5,1.5,4.0,-1.8,tailOff_alfa5_betaSweep_balance,raw_tailOff_alfa5_betaSweep_balance.txt,0,0,40,5.0,-7,inf,inf
67.0,19.0,26.0,41.0,4.995,-7.0,633.57,100872.0,294.78999999999996,1994.1,2424.2,2345.7,1091.1,1324.8,-981.8,586.569,1.1920660882895278,1490.9496388875862,50.0145445365362,540106.1545738794,0.0,0.0,0.0,0.0,0.0,0.0,0.0,0.0,0.0,100872.0,1.527733254225612e-05,inf,inf,18.367557861385563,26.481223921381634,243.4667827578869,7.520086922403139,-2.228678866409524,6.412702749096159,0.05672692254514711,0.08178541478543593,0.7519301930093912,0.016629984403552504,-0.04172102425318339,0.014181105591264658,0.7540137332985759,-0.008958174910523947,-0.08178541478543593,0.7519301930093912,0.06627122346665983,-0.07426252590170197,0.038296016139031316,-0.057709675755593215,-0.057709675755593215,0.01758226623996773,1999.8,2417.7,2348.2,1089.6,1320.8,-980.0,-5.7,6.5,-2.5,1.5,4.0,-1.8,tailOff_alfa5_betaSweep_balance,raw_tailOff_alfa5_betaSweep_balance.txt,0,0,50,5.0,-7,inf,inf
26.0,19.0,10.0,2.0,4.995,-6.0,102.07,100871.0,293.96,420.8,-26.5,266.6,253.1,280.6,64.7,244.526,1.1954200518887983,238.11844724094806,19.95957320658556,216620.96861006072,0.0,0.0,0.0,0.0,0.0,0.0,0.0,0.0,0.0,100871.0,1.5201312851504155e-05,inf,inf,3.9557253247755986,0.2700293466067283,38.756892421131944,-0.009370148507649832,-0.5908961332690055,-0.44485353555668966,0.07649514407301433,0.005221781614423741,0.7494741990825635,-0.00012974343378874514,-0.06926096644954066,-0.006159648930757956,0.7532882619849831,0.010948813307601904,-0.005221781614423741,0.7494741990825635,0.07662192047763833,0.0028027437090140366,0.0018732478725303234,-0.09082134986777858,-0.09082134986777858,-0.006019407374307518,430.40000000000003,-35.9,269.6,251.29999999999998,275.6,68.4,-9.6,9.4,-3.0,1.8,5.0,-3.7,tailOff_alfa5_betaSweep_balance,raw_tailOff_alfa5_betaSweep_balance.txt,0,0,20,5.0,-6,inf,inf
47.0,19.0,18.0,25.0,4.995,-6.0,230.19,100872.0,293.87,860.1,318.0,702.0,494.6,565.7,-71.9,360.548,1.1957980132945514,537.7264393143222,29.989331121147806,325653.77629615547,0.0,0.0,0.0,0.0,0.0,0.0,0.0,0.0,0.0,100872.0,1.5192911244731047e-05,inf,inf,7.991611040027402,4.080817600156418,87.31448785113744,0.8681952821073151,-1.1454728213231036,0.4494743334079732,0.06843428412693156,0.03494512304471836,0.7476971088900449,0.005323386346316642,-0.05945574694679245,0.002755976194291299,0.7508160711805705,0.003073295213578839,-0.03494512304471836,0.7476971088900449,0.07171215396865038,-0.027600359449700705,0.014875191803269067,-0.07874415306210021,-0.07874415306210021,0.004066585083677868,869.7,308.6,705.0,492.8,560.7,-68.2,-9.6,9.4,-3.0,1.8,5.0,-3.7,tailOff_alfa5_betaSweep_balance,raw_tailOff_alfa5_betaSweep_balance.txt,0,0,30,5.0,-6,inf,inf
5.0,18.0,59.0,36.0,4.995,-6.0,407.77,100879.0,294.26,1323.5,1359.2,1421.6,748.6,886.4,-581.0,473.227,1.1942960244761132,955.5084551624864,40.00149950760588,433385.6890488613,0.0,0.0,0.0,0.0,0.0,0.0,0.0,0.0,0.0,100879.0,1.522762051988251e-05,inf,inf,12.245871878119738,14.413185326397095,154.9467023825832,4.213198258615367,-1.471054161542483,3.7762104544969484,0.059014123067796236,0.06945863072197628,0.7467041836108904,0.014538155747996662,-0.042969922427606326,0.013030275898464852,0.7490067145388214,-0.006224638080061885,-0.06945863072197628,0.7467041836108903,0.06595124145692485,-0.0629094734799399,0.03285118681595368,-0.05960322818644373,-0.05960322818644373,0.015951167323852204,1333.1,1349.8,1424.6,746.8000000000001,881.4,-577.3,-9.6,9.4,-3.0,1.8,5.0,-3.7,tailOff_alfa5_betaSweep_balance,raw_tailOff_alfa5_betaSweep_balance.txt,0,0,40,5.0,-6,inf,inf
68.0,19.0,27.0,7.0,4.995,-6.0,633.4,100871.0,294.84999999999997,2059.2,1977.5,2199.7,1193.2,1363.1,-817.9,585.85,1.1918116956188949,1490.5447417021078,50.013089652995276,539890.3061916206,0.0,0.0,0.0,0.0,0.0,0.0,0.0,0.0,0.0,100871.0,1.5282995843343416e-05,inf,inf,19.00407258324307,21.354416794548175,241.71618527176503,6.126297514617394,-2.4139878002604362,5.326960551507298,0.058708697429885305,0.06596954357500387,0.7467263831405797,0.0135514267721884,-0.04520229604269085,0.011783286015712843,0.7490022367151242,-0.006530836689638511,-0.06596954357500387,0.7467263831405797,0.06528278005493567,-0.059471425590001195,0.03099710418880603,-0.061749516678885244,-0.061749516678885244,0.01453737551973514,2068.7999999999997,1968.1,2202.7,1191.4,1358.1,-814.1999999999999,-9.6,9.4,-3.0,1.8,5.0,-3.7,tailOff_alfa5_betaSweep_balance,raw_tailOff_alfa5_betaSweep_balance.txt,0,0,50,5.0,-6,inf,inf
27.0,19.0,10.0,25.0,4.995,-5.0,102.76,100872.0,293.92999999999995,393.5,31.1,270.3,250.9,275.5,18.8,244.583,1.1955539147649776,239.72794011270767,20.02579387832885,217381.14806359,0.0,0.0,0.0,0.0,0.0,0.0,0.0,0.0,0.0,100872.0,1.519841166430528e-05,inf,inf,3.80025443313896,0.5550302654080412,38.71700724483641,0.16769823662666997,-0.506247974816532,-0.15960926472001324,0.07299528385309967,0.010661020856189541,0.7436762415523268,0.0023064380697613743,-0.05894067244373273,-0.0021951863766843807,0.7472075947000277,0.007967065757750691,-0.010661020856189541,0.7436762415523267,0.07364668395132937,-0.004258494271888503,0.005482240062743386,-0.07951460987031955,-0.07951460987031955,-0.0017244030343747082,413.5,15.8,274.3,248.4,269.5,24.6,-20.0,15.3,-4.0,2.5,6.0,-5.8,tailOff_alfa5_betaSweep_balance,raw_tailOff_alfa5_betaSweep_balance.txt,0,0,20,5.0,-5,inf,inf
48.0,19.0,18.0,44.0,4.995,-5.0,230.53,100870.0,293.87,772.4,643.6,755.0,448.5,531.0,-281.7,360.331,1.1957743040786482,538.5235487427908,30.01184805462325,325891.8257782782,0.0,0.0,0.0,0.0,0.0,0.0,0.0,0.0,0.0,100870.0,1.519321248219005e-05,inf,inf,7.280066492106002,6.620705265939952,86.87274729568242,1.910346894066438,-0.8592449709263619,1.8041776679899246,0.06224886367854388,0.05661093617787699,0.7428132434852474,0.011696057458871752,-0.044533080836863394,0.011046038673062863,0.7454121960454732,-0.002663402524649021,-0.05661093617787699,0.7428132434852472,0.06694595614902438,-0.050970168525310035,0.026585238372445155,-0.06207810783855114,-0.06207810783855114,0.01341171736738849,792.4,628.3000000000001,759.0,446.0,525.0,-275.9,-20.0,15.3,-4.0,2.5,6.0,-5.8,tailOff_alfa5_betaSweep_balance,raw_tailOff_alfa5_betaSweep_balance.txt,0,0,30,5.0,-5,inf,inf
6.0,18.0,59.0,59.0,4.995,-5.0,407.77,100878.0,294.28999999999996,1352.5,1052.8,1328.1,825.7,910.9,-466.9,472.9,1.1941624399357855,955.5084551624864,40.00373682152329,433327.3099429254,0.0,0.0,0.0,0.0,0.0,0.0,0.0,0.0,0.0,100878.0,1.5230523835868825e-05,inf,inf,12.609453360001767,10.864675765870913,154.5463882563432,3.212088315982674,-1.5481587547157059,3.0147238363084354,0.06076625983114871,0.05235799615741661,0.7447750284354296,0.011083703483116717,-0.04522217015177678,0.010402673213829228,0.74723744217532,-0.004311186164740195,-0.05235799615741661,0.7447750284354296,0.06509832591053444,-0.04686262966514546,0.024837075545409894,-0.06234932085824918,-0.06234932085824918,0.012613108578023113,1372.5,1037.5,1332.1,823.2,904.9,-461.09999999999997,-20.0,15.3,-4.0,2.5,6.0,-5.8,tailOff_alfa5_betaSweep_balance,raw_tailOff_alfa5_betaSweep_balance.txt,0,0,40,5.0,-5,inf,inf
69.0,19.0,28.0,13.0,4.995,-5.0,632.73,100867.0,294.98999999999995,2088.5,1516.8,2072.8,1312.5,1389.7,-645.2,584.987,1.1911988324983092,1488.9489964848703,49.99916815650255,539264.7159768139,0.0,0.0,0.0,0.0,0.0,0.0,0.0,0.0,0.0,100867.0,1.5296466276359256e-05,inf,inf,19.370872628218926,16.067193437880174,241.91226543026627,4.519974525380119,-2.4677468097424047,4.181953146499107,0.05990597558897927,0.04968908300346186,0.7481330627526142,0.01000894081836186,-0.046258465155103824,0.009260433065151327,0.7505078197622881,-0.005460583350821169,-0.04968908300346186,0.7481330627526143,0.06400870420137145,-0.0442788512436088,0.023116463686326087,-0.06314314219433093,-0.06314314219433093,0.011316131275084863,2108.5,1501.5,2076.8,1310.0,1383.7,-639.4000000000001,-20.0,15.3,-4.0,2.5,6.0,-5.8,tailOff_alfa5_betaSweep_balance,raw_tailOff_alfa5_betaSweep_balance.txt,0,0,50,5.0,-5,inf,inf
28.0,19.0,10.0,45.0,4.995,-4.0,102.83,100870.0,293.90999999999997,349.9,222.2,310.0,219.7,254.4,-101.7,244.494,1.1956115638787126,239.89122446004126,20.032129772715216,217471.84923964774,0.0,0.0,0.0,0.0,0.0,0.0,0.0,0.0,0.0,100870.0,1.5196879418792286e-05,inf,inf,3.45499741586356,2.0792829859500213,38.72311019569686,0.602663289924806,-0.4321357177876024,0.6083351213872559,0.06631841632931888,0.039911681003164126,0.7432871966077705,0.008283089088883182,-0.050277797441286284,0.00836104353888206,0.7462386803347695,0.001349428652877127,-0.039911681003164126,0.7432871966077707,0.06894096612827373,-0.035188319286766384,0.01873015088433816,-0.06896983993728653,-0.06896983993728653,0.010029946176449532,376.0,202.29999999999998,315.0,216.79999999999998,247.20000000000002,-93.10000000000001,-26.1,19.9,-5.0,2.9,7.2,-8.6,tailOff_alfa5_betaSweep_balance,raw_tailOff_alfa5_betaSweep_balance.txt,0,0,20,5.0,-4,inf,inf
49.0,19.0,19.0,12.0,4.995,-4.0,230.58,100877.0,293.87,775.6,477.8,709.9,493.1,538.7,-218.0,359.494,1.1958572863343095,538.6407716199145,30.014072870791875,325938.6018985613,0.0,0.0,0.0,0.0,0.0,0.0,0.0,0.0,0.0,100877.0,1.5192158203341792e-05,inf,inf,7.366163520493105,4.722624005734094,87.04397554655215,1.3420926080543116,-0.8650762638470768,1.368441272691349,0.06297133680959091,0.04037243350120921,0.7441153710664304,0.008215144679662884,-0.044825548603843766,0.008376428700460068,0.7467722834111878,-0.00205704782615454,-0.04037243350120921,0.7441153710664306,0.06563418039556464,-0.035881429879520976,0.01879049621289847,-0.06257420680204093,-0.06257420680204093,0.010050664214747934,801.7,457.90000000000003,714.9,490.20000000000005,531.5,-209.4,-26.1,19.9,-5.0,2.9,7.2,-8.6,tailOff_alfa5_betaSweep_balance,raw_tailOff_alfa5_betaSweep_balance.txt,0,0,30,5.0,-4,inf,inf
7.0,19.0,0.0,21.0,4.995,-4.0,407.82,100876.0,294.28999999999996,1364.9,768.5,1256.1,893.2,926.1,-347.3,472.327,1.1941387645568142,955.6264982053032,40.00660435216075,433349.77979254513,0.0,0.0,0.0,0.0,0.0,0.0,0.0,0.0,0.0,100876.0,1.5230825801129855e-05,inf,inf,12.780509196689222,7.765489975538277,154.65951128114236,2.1861151696669796,-1.5464260813572839,2.213561896401034,0.06158298766711361,0.03741807670046129,0.7452281148779029,0.007542525893926986,-0.04516597847338729,0.007637222481722349,0.7477599194506044,-0.0035370097124992755,-0.03741807670046129,0.7452281148779029,0.06404312768921805,-0.03303111608395912,0.0173552617249252,-0.06252332634472735,-0.06252332634472735,0.009183199469098723,1391.0,748.6,1261.1,890.3000000000001,918.9,-338.7,-26.1,19.9,-5.0,2.9,7.2,-8.6,tailOff_alfa5_betaSweep_balance,raw_tailOff_alfa5_betaSweep_balance.txt,0,0,40,5.0,-4,inf,inf
70.0,19.0,28.0,57.0,4.995,-4.0,632.83,100866.0,295.06,2109.1,1094.5,1953.1,1425.6,1412.6,-495.9,584.001,1.190904425828772,1489.1871647751811,50.00934718945558,539142.390900465,0.0,0.0,0.0,0.0,0.0,0.0,0.0,0.0,0.0,100866.0,1.5303051687954114e-05,inf,inf,19.617991732846065,11.13344620500095,242.09147761000034,3.0738179263160927,-2.4462562396989966,3.1845966189214656,0.0606605081268401,0.03442556777447576,0.7485675519177968,0.0068055120958024524,-0.04584828585050738,0.007050778975804869,0.7510063551166896,-0.004746746754838917,-0.03442556777447576,0.7485675519177968,0.06291414839241641,-0.0301102456791449,0.015831863458202915,-0.06294563012521662,-0.06294563012521662,0.008461374216234064,2135.2,1074.6,1958.1,1422.6999999999998,1405.3999999999999,-487.29999999999995,-26.1,19.9,-5.0,2.9,7.2,-8.6,tailOff_alfa5_betaSweep_balance,raw_tailOff_alfa5_betaSweep_balance.txt,0,0,50,5.0,-4,inf,inf
29.0,19.0,11.0,5.0,4.995,-3.0,101.96,100872.0,293.9,355.0,159.6,296.5,232.9,252.5,-74.4,244.065,1.1956759515715205,237.86186549295084,19.946681859416337,216561.57148703435,0.0,0.0,0.0,0.0,0.0,0.0,0.0,0.0,0.0,100872.0,1.5195661361721552e-05,inf,inf,3.4450723474884475,1.414315416655553,38.64972043107852,0.3287882526344575,-0.43839734314514045,0.4328909792910073,0.06669208685960493,0.027379293408231326,0.7482079480763588,0.0045574658917710825,-0.051441489358202794,0.006000475555820957,0.7511732793135265,0.0012932361296424805,-0.027379293408231326,0.7482079480763588,0.0680336091741948,-0.023851376898536128,0.011705332263016588,-0.07023885200233393,-0.07023885200233393,0.0070464050153602265,374.9,139.9,301.5,229.6,245.9,-66.30000000000001,-19.9,19.7,-5.0,3.3,6.6,-8.1,tailOff_alfa5_betaSweep_balance,raw_tailOff_alfa5_betaSweep_balance.txt,0,0,20,5.0,-3,inf,inf
50.0,19.0,19.0,29.0,4.995,-3.0,230.7,100869.0,293.88,792.4,325.8,672.3,530.8,546.5,-155.9,359.507,1.1957217606708646,538.922107469007,30.023611453408254,325996.6603176232,0.0,0.0,0.0,0.0,0.0,0.0,0.0,0.0,0.0,100869.0,1.519427981770416e-05,inf,inf,7.464140734232067,3.060769803256154,87.23663081173287,0.8055830501995109,-0.8589611732313029,0.964929587260728,0.06377560702629001,0.026152032647932446,0.7453730151993194,0.004928517194449183,-0.044485448656444104,0.005903391414540636,0.7480951782381445,-0.0013653335619743245,-0.026152032647932446,0.7453730151993194,0.06505689640968075,-0.02277843481739611,0.011738833987792898,-0.06246079280254079,-0.06246079280254079,0.006951878847301436,812.3,306.1,677.3,527.5,539.9,-147.8,-19.9,19.7,-5.0,3.3,6.6,-8.1,tailOff_alfa5_betaSweep_balance,raw_tailOff_alfa5_betaSweep_balance.txt,0,0,30,5.0,-3,inf,inf
8.0,19.0,1.0,5.0,4.995,-3.0,407.69,100878.0,294.34999999999997,1382.3,489.7,1181.5,961.4,936.0,-239.0,472.184,1.193919023097341,955.3195867752322,40.00386038327492,433172.0722608319,0.0,0.0,0.0,0.0,0.0,0.0,0.0,0.0,0.0,100878.0,1.5236029122434646e-05,inf,inf,12.884474620106202,4.650765451163015,154.50878930927954,1.2134707445755655,-1.519351553245908,1.507076127615309,0.06210389134996234,0.02241695069370285,0.7447410427510801,0.004188057000468685,-0.04438947751332294,0.0052013785702812124,0.747320051540326,-0.002975675476023079,-0.02241695069370285,0.7447410427510802,0.06319199267586736,-0.019135962501660532,0.010013563330898454,-0.06189364363387724,-0.06189364363387724,0.00609639989104892,1402.2,470.0,1186.5,958.1,929.4,-230.9,-19.9,19.7,-5.0,3.3,6.6,-8.1,tailOff_alfa5_betaSweep_balance,raw_tailOff_alfa5_betaSweep_balance.txt,0,0,40,5.0,-3,inf,inf
71.0,19.0,29.0,19.0,4.995,-3.0,633.08,100865.0,295.10999999999996,2137.9,707.2,1848.0,1517.3,1432.0,-343.4,583.607,1.1906908480613967,1489.7825895499595,50.023829718777996,539131.2537872186,0.0,0.0,0.0,0.0,0.0,0.0,0.0,0.0,0.0,100865.0,1.5307799611973786e-05,inf,inf,19.82719321334631,6.833035046479534,241.74794220177847,1.7277860333678576,-2.4073615312604772,2.1886562575009445,0.06128287413708122,0.0211198843034322,0.7472065539199731,0.0038238339085193214,-0.045101279520179914,0.00484380464357144,0.7497047144475336,-0.004008243830550415,-0.0211198843034322,0.7472065539199731,0.06230421742869699,-0.017883642416726808,0.00931766334312914,-0.062374039502250525,-0.062374039502250525,0.005676640662304163,2157.8,687.5,1853.0,1514.0,1425.4,-335.29999999999995,-19.9,19.7,-5.0,3.3,6.6,-8.1,tailOff_alfa5_betaSweep_balance,raw_tailOff_alfa5_betaSweep_balance.txt,0,0,50,5.0,-3,inf,inf
30.0,19.0,11.0,22.0,4.995,-2.0,102.43,100874.0,293.89,363.6,100.4,280.9,248.7,255.5,-51.7,244.067,1.195740343646083,238.95817715491407,19.992058088306887,217071.62130878295,0.0,0.0,0.0,0.0,0.0,0.0,0.0,0.0,0.0,100874.0,1.5194443373572024e-05,inf,inf,3.4728609296540935,0.7404418642399171,38.761061183013865,0.13913383856512102,-0.4194667453212806,0.2899060213156022,0.06692159399536281,0.01426822173981172,0.7469207814139093,0.0019197418209003776,-0.04899435907605474,0.004000067266094362,0.749910983836563,0.0016339437332009432,-0.01426822173981172,0.7469207814139094,0.0673787809260209,-0.011923999975675004,0.005570438173858673,-0.06785640898764744,-0.06785640898764744,0.004502176593815671,377.90000000000003,80.80000000000001,285.59999999999997,245.79999999999998,249.6,-44.5,-14.3,19.6,-4.7,2.9,5.9,-7.2,tailOff_alfa5_betaSweep_balance,raw_tailOff_alfa5_betaSweep_balance.txt,0,0,20,5.0,-2,inf,inf
51.0,19.0,19.0,45.0,4.995,-2.0,230.59,100872.0,293.88,802.9,185.5,631.3,565.4,549.4,-103.1,359.009,1.1957573232845715,538.6642162231038,30.01598061322398,325923.49776231806,0.0,0.0,0.0,0.0,0.0,0.0,0.0,0.0,0.0,100872.0,1.5193827929772395e-05,inf,inf,7.509724163527294,1.4644480558933963,86.94291444934302,0.36058984166634794,-0.8597972797413513,0.6245450180668378,0.06419580370968346,0.01251862490446029,0.7432190781447122,0.0022071269684988044,-0.04455006908090629,0.0038227647957214616,0.7459860072144954,-0.0007591919275820452,-0.01251862490446029,0.7432190781447122,0.06459359106914915,-0.010270597656529922,0.0053809131284709814,-0.06264384690949121,-0.06264384690949121,0.0043076335876889235,817.1999999999999,165.9,636.0,562.5,543.5,-95.89999999999999,-14.3,19.6,-4.7,2.9,5.9,-7.2,tailOff_alfa5_betaSweep_balance,raw_tailOff_alfa5_betaSweep_balance.txt,0,0,30,5.0,-2,inf,inf
9.0,19.0,1.0,25.0,4.995,-2.0,407.7,100879.0,294.35999999999996,1397.9,250.2,1111.4,1023.4,944.7,-153.0,472.298,1.1938902981462873,955.343195291247,40.00483593036738,433160.84189413226,0.0,0.0,0.0,0.0,0.0,0.0,0.0,0.0,0.0,100879.0,1.5236795700494768e-05,inf,inf,12.977335310603069,1.881584960717055,154.2567530714463,0.4488806418588574,-1.4947660681071966,0.9486210375614803,0.06254993931664622,0.009069121071088104,0.7435078398504801,0.0015491854795403894,-0.04367010711457128,0.0032738991169034867,0.7461303688390757,-0.0024239479590576346,-0.009069121071088104,0.7435078398504802,0.06282834334457234,-0.006880635006648117,0.003804698814397646,-0.06129999317854383,-0.06129999317854383,0.0036189132541860148,1412.2,230.6,1116.1000000000001,1020.5,938.8000000000001,-145.8,-14.3,19.6,-4.7,2.9,5.9,-7.2,tailOff_alfa5_betaSweep_balance,raw_tailOff_alfa5_betaSweep_balance.txt,0,0,40,5.0,-2,inf,inf
72.0,19.0,29.0,53.0,4.995,-2.0,632.32,100865.0,295.15999999999997,2146.9,303.9,1728.0,1624.0,1437.5,-202.7,583.195,1.1904891454512763,1487.9725161705524,49.99766618811807,538687.5162339828,0.0,0.0,0.0,0.0,0.0,0.0,0.0,0.0,0.0,100865.0,1.5312396332181235e-05,inf,inf,19.85996905990402,2.1257006382860766,241.10350383558017,0.4555374563145487,-2.3612374792280164,1.2708826642548212,0.06145885134256235,0.006578213648427771,0.7461212228330352,0.001009394975018051,-0.044290970802769135,0.00281606387653572,0.748638827247908,-0.0037384364496338973,-0.006578213648427771,0.7461212228330352,0.0616509886164187,-0.004429323398641281,0.0026074180398895828,-0.0616133304825594,-0.0616133304825594,0.003054689451210334,2161.2000000000003,284.29999999999995,1732.7,1621.1,1431.6,-195.5,-14.3,19.6,-4.7,2.9,5.9,-7.2,tailOff_alfa5_betaSweep_balance,raw_tailOff_alfa5_betaSweep_balance.txt,0,0,50,5.0,-2,inf,inf
31.0,19.0,11.0,43.0,4.995,-1.0,102.62,100868.0,293.87,365.0,41.4,266.1,266.4,257.9,-29.6,244.223,1.195750594862745,239.4013727785049,20.010503354510533,217285.19219469343,0.0,0.0,0.0,0.0,0.0,0.0,0.0,0.0,0.0,100868.0,1.5193513731594859e-05,inf,inf,3.5107541231782826,0.07314317686610894,38.98278088008266,-0.0500010272258434,-0.43058802658227613,0.13587768331564104,0.06752654961480697,0.0014068505478710479,0.7498026335262026,-0.0006886273156264312,-0.050200235426989315,0.0018713432404609944,0.7528345643039916,0.0019856824844007165,-0.0014068505478710479,0.7498026335262026,0.0675408179217864,-0.00022813548853337193,-0.00045392862116830704,-0.06923279387561783,-0.06923279387561783,0.001838803440178437,382.0,20.799999999999997,271.1,263.0,251.79999999999998,-21.0,-17.0,20.6,-5.0,3.4,6.1,-8.6,tailOff_alfa5_betaSweep_balance,raw_tailOff_alfa5_betaSweep_balance.txt,0,0,20,5.0,-1,inf,inf
52.0,19.0,20.0,5.0,4.995,-1.0,230.2,100874.0,293.89,804.4,54.6,594.5,598.9,553.4,-54.5,358.688,1.195740343646083,537.749883556572,29.990708052233845,325635.8896288157,0.0,0.0,0.0,0.0,0.0,0.0,0.0,0.0,0.0,100874.0,1.5194443373572024e-05,inf,inf,7.548813866701318,-0.02294383307244552,86.82562511939867,-0.07971774638034441,-0.8513185051506404,0.2966760009126895,0.06463967632019686,-0.00019646555995896925,0.743478432919579,-0.0004887723651916955,-0.04418574581503377,0.001819005644864322,0.7462830244968662,-0.00033958672315385907,0.00019646555995896925,0.743478432919579,0.06462640258760065,0.0013245535404171112,-0.0007004589135964453,-0.06240463045644315,-0.06240463045644315,0.001764719396911328,821.4,34.0,599.5,595.5,547.3,-45.9,-17.0,20.6,-5.0,3.4,6.1,-8.6,tailOff_alfa5_betaSweep_balance,raw_tailOff_alfa5_betaSweep_balance.txt,0,0,30,5.0,-1,inf,inf
10.0,19.0,1.0,55.0,4.995,-1.0,408.14,100877.0,294.39,1401.3,43.2,1056.1,1074.3,950.9,-69.9,472.431,1.193744966660089,956.3819791582082,40.029015898465346,433335.76840220805,0.0,0.0,0.0,0.0,0.0,0.0,0.0,0.0,0.0,100877.0,1.5239850797617187e-05,inf,inf,13.03411469895078,-0.39436865733673926,154.12814367773527,-0.23993506728663733,-1.4765960758654693,0.39491778068891986,0.06275537589848618,-0.0018987674963256678,0.742081055479032,-0.0008271690906446642,-0.04309240836929287,0.0013614674387784065,0.7447268900848388,-0.0020950631491740423,0.0018987674963256678,0.7420810554790321,0.06271267988869857,0.0029937106311439775,-0.0014757099252496364,-0.060780197343656354,-0.060780197343656354,0.0012376794698246312,1418.3,22.6,1061.1,1070.8999999999999,944.8,-61.300000000000004,-17.0,20.6,-5.0,3.4,6.1,-8.6,tailOff_alfa5_betaSweep_balance,raw_tailOff_alfa5_betaSweep_balance.txt,0,0,40,5.0,-1,inf,inf
73.0,19.0,30.0,12.0,4.995,-0.995,632.41,100865.0,295.17999999999995,2120.9,35.4,1667.7,1688.4,1426.3,-84.0,583.238,1.1904084835402085,1488.1868641751416,50.0029612445306,538679.8776277173,0.0,0.0,0.0,0.0,0.0,0.0,0.0,0.0,0.0,100865.0,1.5314235164268785e-05,inf,inf,19.646366303085394,-0.6926126012844183,241.06967584888918,-0.5032348238084047,-2.2846100442611785,0.4846679247592254,0.060789077302176184,-0.0021430569047940257,0.7459090874268823,-0.0011149237718631624,-0.04284745744718174,0.0010737885480265965,0.7483691810410269,-0.004387196512240649,0.0021430569047940257,0.7459090874268822,0.060742696670724024,0.003198345402790224,-0.0018059161516543996,-0.05998103932559255,-0.05998103932559255,0.000920043630933629,2137.9,14.799999999999997,1672.7,1685.0,1420.2,-75.4,-17.0,20.6,-5.0,3.4,6.1,-8.6,tailOff_alfa5_betaSweep_balance,raw_tailOff_alfa5_betaSweep_balance.txt,0,0,50,5.0,-1,inf,inf
32.0,19.0,12.0,2.0,4.995,0.0,102.73,100868.0,293.84999999999997,363.2,-13.2,251.3,279.1,257.7,-3.8,244.179,1.1958319799636379,239.6579612455305,20.02054272416129,217420.44109564726,0.0,0.0,0.0,0.0,0.0,0.0,0.0,0.0,0.0,100868.0,1.5191680350679339e-05,inf,inf,3.4869879787062423,-0.5083891603060107,38.926537567620876,-0.23625012195828696,-0.41972935079483253,-0.04137779134317571,0.06699761931095648,-0.00976798991909239,0.7479192245499897,-0.003250215345656995,-0.04888188221472154,-0.0005692557162646809,0.7509122546188259,0.0016227470737162492,0.00976798991909239,0.7479192245499897,0.06699761931095646,0.00976798991909239,-0.005930988951497783,-0.06776536008718098,-0.06776536008718098,-0.001089798582701237,379.4,-36.599999999999994,257.7,275.90000000000003,250.7,6.1000000000000005,-16.2,23.4,-6.4,3.2,7.0,-9.9,tailOff_alfa5_betaSweep_balance,raw_tailOff_alfa5_betaSweep_balance.txt,0,0,20,5.0,0,inf,inf
53.0,19.0,20.0,24.0,4.995,0.0,230.2,100876.0,293.89,800.9,-61.9,566.4,625.3,552.2,1.7,358.774,1.1957640512485108,537.749883556572,29.990410748051428,325639.1177577247,0.0,0.0,0.0,0.0,0.0,0.0,0.0,0.0,0.0,100876.0,1.5194142123653834e-05,inf,inf,7.509559850596296,-1.2171291842502336,86.77088350694189,-0.4734874082850711,-0.8371384463262297,-0.07938186088357277,0.06430354842777537,-0.010422145505116248,0.7430096864154347,-0.0029030870909446845,-0.043449762195428586,-0.000486712954882887,0.7457867918963488,-0.0006336249033190577,0.010422145505116248,0.7430096864154347,0.06430354842777537,0.010422145505116248,-0.005776041375676821,-0.06157390819262737,-0.06157390819262737,-0.0009933986224637346,817.1,-85.3,572.8,622.0999999999999,545.2,11.6,-16.2,23.4,-6.4,3.2,7.0,-9.9,tailOff_alfa5_betaSweep_balance,raw_tailOff_alfa5_betaSweep_balance.txt,0,0,30,5.0,0,inf,inf
11.0,19.0,2.0,20.0,4.995,0.0,407.4,100880.0,294.39,1397.3,-135.2,1014.4,1108.2,949.4,21.0,472.298,1.1937804676652732,954.6349438366678,39.99184376831221,432946.2350549801,0.0,0.0,0.0,0.0,0.0,0.0,0.0,0.0,0.0,100880.0,1.5239397590317497e-05,inf,inf,12.990419042180408,-2.1482629557647805,153.6927614411611,-0.8808339894260636,-1.4619163569455154,-0.20785174181840854,0.06265945517643107,-0.010362174302988213,0.741339033421044,-0.0030422065209688826,-0.042742078641491106,-0.0007178741192386515,0.7439793343010324,-0.0021260126169899904,0.010362174302988213,0.7413390334210439,0.06265945517643105,0.010362174302988213,-0.0058776666762306055,-0.06040283207562097,-0.06040283207562097,-0.0012343231396257696,1413.5,-158.6,1020.8,1105.0,942.4,30.9,-16.2,23.4,-6.4,3.2,7.0,-9.9,tailOff_alfa5_betaSweep_balance,raw_tailOff_alfa5_betaSweep_balance.txt,0,0,40,5.0,0,inf,inf
74.0,19.0,30.0,32.0,4.995,0.0,632.53,100865.0,295.21,2117.0,-232.9,1606.7,1742.5,1426.8,48.9,582.88,1.190287511166284,1488.4726626807067,50.010303570095815,538661.9523294944,0.0,0.0,0.0,0.0,0.0,0.0,0.0,0.0,0.0,100865.0,1.531699356668061e-05,inf,inf,19.603817734891486,-3.3627710470103716,240.74105921995917,-1.4682411382994784,-2.245770125976758,-0.39307291710079784,0.06064577835402769,-0.010402966928699693,0.7447492685152898,-0.003252284138507046,-0.04211093446212477,-0.0008706913191686272,0.7472012899050245,-0.0044289672038227215,0.010402966928699693,0.7447492685152898,0.0606457783540277,0.010402966928699693,-0.006085094729072587,-0.059204127106644314,-0.059204127106644314,-0.001405852269030791,2133.2,-256.3,1613.1000000000001,1739.3,1419.8,58.8,-16.2,23.4,-6.4,3.2,7.0,-9.9,tailOff_alfa5_betaSweep_balance,raw_tailOff_alfa5_betaSweep_balance.txt,0,0,50,5.0,0,inf,inf
33.0,19.0,12.0,26.0,4.995,1.0,102.94,100871.0,293.83,363.6,-61.5,241.2,290.2,258.5,22.1,244.278,1.1959489448090093,240.14781506493946,20.040012942395993,217664.6251446193,0.0,0.0,0.0,0.0,0.0,0.0,0.0,0.0,0.0,100871.0,1.5189395291684188e-05,inf,inf,3.490786964244276,-1.0092531037374954,38.94741455871047,-0.42013606405969817,-0.4197794685252636,-0.21393775161336515,0.06693380081007046,-0.019351838684070356,0.7467939220703304,-0.005768239423825211,-0.048787997718273954,-0.002937248854993296,0.7497856690995104,0.00165714968192196,0.019351838684070356,0.7467939220703304,0.06726134262202908,0.018180735409176512,-0.010924249727427275,-0.0676534881568256,-0.0676534881568256,-0.0039032335672041386,379.8,-88.4,247.2,286.59999999999997,251.0,32.5,-16.2,26.9,-6.0,3.6,7.5,-10.4,tailOff_alfa5_betaSweep_balance,raw_tailOff_alfa5_betaSweep_balance.txt,0,0,20,5.0,1,inf,inf
54.0,19.0,20.0,44.0,4.995,1.0,230.5,100879.0,293.89,793.0,-155.3,553.1,642.0,546.6,62.5,358.87,1.1957996126521522,538.4532151275749,30.009570574236356,325856.84774470463,0.0,0.0,0.0,0.0,0.0,0.0,0.0,0.0,0.0,100879.0,1.519369027117343e-05,inf,inf,7.437013279718374,-2.0074099553865414,86.78206207156683,-0.8191450040055993,-0.8400520424424087,-0.47935054846777003,0.06359915764788537,-0.017166781531066166,0.7421347574771517,-0.0050158526280146,-0.04354403382820463,-0.0029351966947427895,0.7448538552100405,-0.001259161598628919,0.017166781531066166,0.7421347574771517,0.0638890728366264,0.016054208598750046,-0.009561372975419606,-0.06146964519324162,-0.06146964519324162,-0.003782057161037525,809.2,-182.20000000000002,559.1,638.4,539.1,72.9,-16.2,26.9,-6.0,3.6,7.5,-10.4,tailOff_alfa5_betaSweep_balance,raw_tailOff_alfa5_betaSweep_balance.txt,0,0,30,5.0,1,inf,inf
12.0,19.0,2.0,49.0,4.995,1.0,407.39,100875.0,294.39,1369.5,-304.9,983.6,1145.8,931.7,114.0,472.446,1.1937212993232993,954.611335598299,39.99234036289739,432930.1523764787,0.0,0.0,0.0,0.0,0.0,0.0,0.0,0.0,0.0,100875.0,1.5240152950792854e-05,inf,inf,12.735024414842519,-3.758677914931736,153.6171832611146,-1.4672948125029204,-1.4292774758409834,-0.8187916651264513,0.061429075018836404,-0.01813048016923181,0.7409928059290682,-0.005067838314321485,-0.041788848445630675,-0.0028279959396139815,0.7435272939434343,-0.003321574544915537,0.01813048016923181,0.7409928059290682,0.06173613958198918,0.017055633624989974,-0.009893084863106938,-0.05910281558019344,-0.05910281558019344,-0.003703439598667589,1385.7,-331.79999999999995,989.6,1142.2,924.2,124.4,-16.2,26.9,-6.0,3.6,7.5,-10.4,tailOff_alfa5_betaSweep_balance,raw_tailOff_alfa5_betaSweep_balance.txt,0,0,40,5.0,1,inf,inf
75.0,19.0,30.0,51.0,4.995,1.0,632.0,100866.0,295.23999999999995,2106.6,-509.4,1545.9,1799.7,1419.2,192.0,582.845,1.190178362976011,1487.2103960032,49.991386133581315,538366.570943733,0.0,0.0,0.0,0.0,0.0,0.0,0.0,0.0,0.0,100866.0,1.5319600271997802e-05,inf,inf,19.508825137272808,-6.059103562478772,240.27837601453743,-2.394230973914268,-2.2515110780692424,-1.3320992708175126,0.06040313568130787,-0.018760168898754287,0.7439488152447147,-0.005307934901650855,-0.042254417264129165,-0.002953222261792155,0.746382749907487,-0.004600993880330272,0.018760168898754287,0.7439488152447147,0.0607213460836276,0.01770313156016752,-0.010298171952158248,-0.059279220351104084,-0.059279220351104084,-0.0038645482130103214,2122.7999999999997,-536.3,1551.9,1796.1000000000001,1411.7,202.4,-16.2,26.9,-6.0,3.6,7.5,-10.4,tailOff_alfa5_betaSweep_balance,raw_tailOff_alfa5_betaSweep_balance.txt,0,0,50,5.0,1,inf,inf
34.0,19.0,12.0,44.0,4.995,1.995,102.42,100871.0,293.81,359.7,-100.0,235.5,295.5,255.8,50.5,244.133,1.1960303544917843,238.93485116201052,19.9886584542602,217133.04342789002,0.0,0.0,0.0,0.0,0.0,0.0,0.0,0.0,0.0,100871.0,1.5187562130288132e-05,inf,inf,3.4521879806274205,-1.2970777658327746,38.81888126174651,-0.5497655503199458,-0.42461229521040034,-0.4042723433583491,0.06652972318782012,-0.02499696574989148,0.7481079939150576,-0.00758629937638516,-0.049600208936608006,-0.005578616238366257,0.751059567936767,0.0011401919560443396,0.02499696574989148,0.7481079939150574,0.06735959889734043,0.0226657627389557,-0.014090477839704789,-0.06835180889790098,-0.06835180889790098,-0.0068314009593542745,375.59999999999997,-129.0,241.5,291.6,247.5,61.7,-15.9,29.0,-6.0,3.9,8.3,-11.2,tailOff_alfa5_betaSweep_balance,raw_tailOff_alfa5_betaSweep_balance.txt,0,0,20,5.0,2,inf,inf
55.0,19.0,21.0,0.0,4.995,1.995,230.29,100878.0,293.89,790.3,-252.6,539.7,659.9,544.7,125.8,358.946,1.1957877588509385,537.9608821532886,29.995996532788695,325706.22623976436,0.0,0.0,0.0,0.0,0.0,0.0,0.0,0.0,0.0,100878.0,1.5193840885680765e-05,inf,inf,7.4095227332365265,-2.8030596869250637,86.97515458213729,-1.1543478190560879,-0.8463404477888998,-0.8975539450494667,0.06342205630658183,-0.023992882631620922,0.7444667288000187,-0.007074861546864457,-0.043910141939588546,-0.005501002199891043,0.7471615504028947,-0.0016386323256200874,0.023992882631620922,0.7444667288000186,0.06421886124411608,0.021770473206592006,-0.013305811015633547,-0.061785836765887545,-0.061785836765887545,-0.006684910589339961,806.1999999999999,-281.6,545.7,656.0,536.4000000000001,137.0,-15.9,29.0,-6.0,3.9,8.3,-11.2,tailOff_alfa5_betaSweep_balance,raw_tailOff_alfa5_betaSweep_balance.txt,0,0,30,5.0,2,inf,inf
13.0,19.0,3.0,9.0,4.995,1.995,407.45,100877.0,294.40999999999997,1369.7,-438.1,976.0,1161.5,931.5,220.8,472.523,1.193663872609842,954.7529851673356,39.99626944337584,432929.12957102957,0.0,0.0,0.0,0.0,0.0,0.0,0.0,0.0,0.0,100877.0,1.5241686240958976e-05,inf,inf,12.734081508307199,-4.591156216486902,154.0725293779899,-1.970247175572754,-1.4421702205529794,-1.519878413235632,0.061415413686184944,-0.022142763743855293,0.7430789667282425,-0.006803958315548558,-0.0421595473852137,-0.005248676154224724,0.7456043426539415,-0.0035168235300649386,0.022142763743855293,0.7430789667282426,0.06214902804968079,0.019991331544982616,-0.012538425175590343,-0.05946966403261759,-0.05946966403261759,-0.006364552549578523,1385.6000000000001,-467.1,982.0,1157.6,923.2,232.0,-15.9,29.0,-6.0,3.9,8.3,-11.2,tailOff_alfa5_betaSweep_balance,raw_tailOff_alfa5_betaSweep_balance.txt,0,0,40,5.0,2,inf,inf
76.0,19.0,31.0,7.0,4.995,1.995,632.04,100863.0,295.25,2106.9,-715.3,1530.3,1824.7,1419.2,347.6,582.883,1.190102654510148,1487.3056605058468,49.9945773563627,538352.6097726844,0.0,0.0,0.0,0.0,0.0,0.0,0.0,0.0,0.0,100863.0,1.5320975516248302e-05,inf,inf,19.508876056993333,-7.449904662522587,240.8194103670358,-3.2037193398544788,-2.2636241391210774,-2.3516876220618177,0.06039942440319561,-0.02306488350023358,0.7455762048409681,-0.0071020902645212046,-0.04247902371325432,-0.005213283685018083,0.7480036360298261,-0.004746385936465744,0.02306488350023358,0.7455762048409681,0.0611657556836915,0.0209482612824943,-0.01309742164893074,-0.059502780765477076,-0.059502780765477076,-0.006377881857710322,2122.8,-744.3,1536.3,1820.8,1410.9,358.8,-15.9,29.0,-6.0,3.9,8.3,-11.2,tailOff_alfa5_betaSweep_balance,raw_tailOff_alfa5_betaSweep_balance.txt,0,0,50,5.0,2,inf,inf
35.0,19.0,13.0,2.0,4.995,3.005,101.98,100871.0,293.79999999999995,352.3,-152.5,224.2,304.9,252.4,79.4,244.218,1.1960710634895546,237.9085166365657,19.9453426016539,216675.58754651857,0.0,0.0,0.0,0.0,0.0,0.0,0.0,0.0,0.0,100871.0,1.5186645580527923e-05,inf,inf,3.3980462049822293,-1.8203879937044203,38.64795847090272,-0.7862325612468954,-0.4130115798793401,-0.5970209398779289,0.06576882331043128,-0.035233416231608486,0.7480271304889392,-0.010896147967771412,-0.04845322408741915,-0.008273924054291462,0.750912760960323,0.0003892224301904057,0.035233416231608486,0.7480271304889393,0.06752543380111971,0.0317371632153711,-0.020027296308840613,-0.06699036215968379,-0.06699036215968379,-0.010055866033649864,369.7,-184.6,231.1,300.59999999999997,244.0,91.2,-17.4,32.1,-6.9,4.3,8.4,-11.8,tailOff_alfa5_betaSweep_balance,raw_tailOff_alfa5_betaSweep_balance.txt,0,0,20,5.0,3,inf,inf
56.0,19.0,21.0,20.0,4.995,3.005,230.25,100870.0,293.89,780.1,-384.4,509.9,694.6,539.6,185.6,359.168,1.1956929284412277,537.8671049066437,29.994571334438326,325664.9224894247,0.0,0.0,0.0,0.0,0.0,0.0,0.0,0.0,0.0,100870.0,1.5195045909246596e-05,inf,inf,7.329838948344353,-4.2102932482626105,87.18237945623535,-1.611780960938618,-0.8297500308029786,-1.2929541055735012,0.06275093903187283,-0.036044428368744684,0.7463705841923789,-0.009880137591055181,-0.043056897581766874,-0.00792574473304774,0.7489997421426118,-0.002472967317974667,0.036044428368744684,0.7463705841923788,0.06455421499548387,0.03270526703954936,-0.01927317806961425,-0.06074343601210539,-0.06074343601210539,-0.009640448906610623,797.5,-416.5,516.8,690.3000000000001,531.2,197.4,-17.4,32.1,-6.9,4.3,8.4,-11.8,tailOff_alfa5_betaSweep_balance,raw_tailOff_alfa5_betaSweep_balance.txt,0,0,30,5.0,3,inf,inf
14.0,19.0,3.0,32.0,4.995,3.005,407.54,100873.0,294.40999999999997,1359.9,-677.4,919.3,1225.0,925.5,324.7,472.634,1.1936165411518245,954.9654601455939,40.00151275254439,432968.71553163236,0.0,0.0,0.0,0.0,0.0,0.0,0.0,0.0,0.0,100873.0,1.524229063207418e-05,inf,inf,12.658400187989137,-7.169405772494043,154.37746634129192,-2.757854234637705,-1.4415778739403073,-2.204481581906658,0.061036825579785854,-0.03456975314002486,0.7443839937580256,-0.009521724237491948,-0.042132854643295886,-0.007611158503561267,0.7468714503675093,-0.004007601020367811,0.03456975314002486,0.7443839937580256,0.06276515146020685,0.03132247868858327,-0.018529453401972963,-0.05933626510914454,-0.05933626510914454,-0.009259661339896457,1377.3000000000002,-709.5,926.1999999999999,1220.7,917.1,336.5,-17.4,32.1,-6.9,4.3,8.4,-11.8,tailOff_alfa5_betaSweep_balance,raw_tailOff_alfa5_betaSweep_balance.txt,0,0,40,5.0,3,inf,inf
77.0,19.0,31.0,29.0,4.995,3.005,632.08,100864.0,295.27,2093.8,-1065.7,1449.7,1915.6,1410.9,503.7,583.033,1.1900338417643512,1487.4009251565715,49.997623926258086,538326.129201595,0.0,0.0,0.0,0.0,0.0,0.0,0.0,0.0,0.0,100864.0,1.5322662839458468e-05,inf,inf,19.40311022641511,-11.156855713219237,241.28556512130965,-4.347537766901783,-2.261950194873794,-3.3783396384365543,0.060068126221150514,-0.03453938102667973,0.7469715737282739,-0.009637120108622294,-0.04244489191108729,-0.007488713522213827,0.7493648599869962,-0.005197919053206532,0.03453938102667973,0.7469715737282739,0.06179619189785406,0.031342930564161195,-0.018646544212584097,-0.05937527158730511,-0.05937527158730511,-0.009146983398851415,2111.2000000000003,-1097.8,1456.6000000000001,1911.3,1402.5,515.5,-17.4,32.1,-6.9,4.3,8.4,-11.8,tailOff_alfa5_betaSweep_balance,raw_tailOff_alfa5_betaSweep_balance.txt,0,0,50,5.0,3,inf,inf
36.0,19.0,13.0,19.0,4.995,4.0,102.63,100870.0,293.78,352.5,-217.2,207.1,323.5,252.3,103.7,244.519,1.1961406315596446,239.42469895650564,20.00821526646888,217382.68612653905,0.0,0.0,0.0,0.0,0.0,0.0,0.0,0.0,0.0,100870.0,1.5184963081326152e-05,inf,inf,3.3826201640251057,-2.573008734472732,38.73598421355551,-1.0051842224310092,-0.3965597354735908,-0.7583922752556757,0.0650556565941247,-0.04948494496182489,0.744983109139238,-0.013842313112846444,-0.046228532509628495,-0.010443760558700584,0.7478182053143684,-5.619658239701397e-05,0.04948494496182489,0.7449831091392382,0.0683490795483063,0.044826348921887624,-0.026774928663702718,-0.06456466242600262,-0.06456466242600262,-0.01282372233187649,368.0,-250.79999999999998,214.1,319.0,244.0,115.8,-15.5,33.6,-7.0,4.5,8.3,-12.1,tailOff_alfa5_betaSweep_balance,raw_tailOff_alfa5_betaSweep_balance.txt,0,0,20,5.0,4,inf,inf
57.0,19.0,21.0,37.0,4.995,4.0,229.79,100875.0,293.89,769.0,-567.1,462.9,733.0,532.7,265.2,359.745,1.1957521974472969,536.7886772133165,29.963743949915,325346.341541988,0.0,0.0,0.0,0.0,0.0,0.0,0.0,0.0,0.0,100875.0,1.5194292747119745e-05,inf,inf,7.210840903277773,-6.163482643489437,86.48598145410926,-2.289218841246651,-0.7924628565753462,-1.816253515917936,0.06185621590918112,-0.052871741071817496,0.7418962106778766,-0.014060990694109522,-0.04120462920129028,-0.011155911931756718,0.7444644584802756,-0.0029747141821454617,0.052871741071817496,0.7418962106778766,0.06539368349399131,0.04842807666691122,-0.027881722935763503,-0.058638987263683044,-0.058638987263683044,-0.013635323179414136,784.5,-600.7,469.9,728.5,524.4000000000001,277.3,-15.5,33.6,-7.0,4.5,8.3,-12.1,tailOff_alfa5_betaSweep_balance,raw_tailOff_alfa5_betaSweep_balance.txt,0,0,30,5.0,4,inf,inf
15.0,19.0,3.0,59.0,4.995,4.0,407.29,100875.0,294.40999999999997,1341.2,-1001.3,844.2,1295.1,913.4,469.1,473.615,1.1936402068808332,954.3752537236265,39.98875315881249,432839.1898259445,0.0,0.0,0.0,0.0,0.0,0.0,0.0,0.0,0.0,100875.0,1.5241988430525093e-05,inf,inf,12.469860394505151,-10.576125016182221,153.77763855350807,-3.995668277791746,-1.3989211332879279,-3.152280087506847,0.060164900476421326,-0.05102795772318222,0.7419502726067253,-0.013803912935701337,-0.040911415155030974,-0.010890243346461666,0.7443710542794104,-0.004664313614112396,0.05102795772318222,0.7419502726067254,0.06357787219587159,0.046706764882423334,-0.0271310506916451,-0.05786907094235281,-0.05786907094235281,-0.013303032516376448,1356.7,-1034.8999999999999,851.2,1290.6,905.1,481.20000000000005,-15.5,33.6,-7.0,4.5,8.3,-12.1,tailOff_alfa5_betaSweep_balance,raw_tailOff_alfa5_betaSweep_balance.txt,0,0,40,5.0,4,inf,inf
78.0,19.0,31.0,54.0,4.995,4.0,631.91,100865.0,295.29999999999995,2069.1,-1521.2,1342.4,2023.1,1392.8,698.7,583.665,1.189924741521838,1486.9960514136537,49.99311042597971,538185.9635676413,0.0,0.0,0.0,0.0,0.0,0.0,0.0,0.0,0.0,100865.0,1.5325269884633552e-05,inf,inf,19.159786877554623,-16.038844189007378,240.86138173947438,-6.009568729456095,-2.240131005790076,-4.658824885132622,0.059330996104103736,-0.049666554652917784,0.7458614123915407,-0.01332494566249724,-0.042046905907923926,-0.010329957313109997,0.7481947336692385,-0.0058355893469520526,0.049666554652917784,0.7458614123915407,0.06265103249516699,0.045406848350066864,-0.026320427569392544,-0.05876952327262182,-0.05876952327262182,-0.012669761520795473,2084.6,-1554.8,1349.4,2018.6,1384.5,710.8000000000001,-15.5,33.6,-7.0,4.5,8.3,-12.1,tailOff_alfa5_betaSweep_balance,raw_tailOff_alfa5_betaSweep_balance.txt,0,0,50,5.0,4,inf,inf
37.0,19.0,13.0,43.0,4.995,5.005,102.43,100868.0,293.77,402.7,-0.9,236.3,283.9,275.4,-33.8,244.548,1.196157631181928,238.95817715491407,19.988570602985472,217178.0552909694,0.0,0.0,0.0,0.0,0.0,0.0,0.0,0.0,0.0,100868.0,1.5184347652022945e-05,inf,inf,3.828570511328663,-0.8526882995637066,38.65101165411973,-0.31082921540855446,-0.5684827248090705,0.14051854852843776,0.07377607296450969,-0.016431196452684423,0.7448001408120503,-0.004288761455382154,-0.06639965398567338,0.0019388477814187629,0.7483952081048655,0.008647033097520143,0.016431196452684423,0.7448001408120501,0.07492827289094375,0.009932123665743977,-0.009054880847029616,-0.08719365914093481,-0.08719365914093481,0.0011548358191347556,416.5,-36.5,243.3,279.29999999999995,266.9,-21.999999999999996,-13.8,35.6,-7.0,4.6,8.5,-11.8,tailOff_alfa5_betaSweep_balance,raw_tailOff_alfa5_betaSweep_balance.txt,0,0,20,5.0,5,inf,inf
58.0,19.0,21.0,54.0,4.995,5.005,230.16,100876.0,293.89,754.6,-717.0,424.3,776.1,523.9,322.9,360.318,1.1957640512485108,537.656106643102,29.98779565610755,325610.7228070648,0.0,0.0,0.0,0.0,0.0,0.0,0.0,0.0,0.0,100876.0,1.5194142123653834e-05,inf,inf,7.063216951906942,-7.878707185077751,86.53942867195929,-2.772856426628099,-0.7534420023021768,-2.1928702959555206,0.060492111557253134,-0.06747628413678866,0.7411570123032634,-0.017004143286820525,-0.039112509851655784,-0.013447461745137564,0.7436092964193276,-0.004269276953699955,0.06747628413678866,0.7411570123032634,0.06614827213977569,0.06194150930100081,-0.034714877020332574,-0.05616239105337381,-0.05616239105337381,-0.016532831440930276,768.4,-752.6,431.3,771.5,515.4,334.7,-13.8,35.6,-7.0,4.6,8.5,-11.8,tailOff_alfa5_betaSweep_balance,raw_tailOff_alfa5_betaSweep_balance.txt,0,0,30,5.0,5,inf,inf
16.0,19.0,4.0,36.0,4.995,5.005,407.41,100876.0,294.41999999999996,1316.6,-1276.5,769.0,1374.3,897.1,569.2,473.984,1.1936114972536678,954.6585520842918,39.99516887093278,432886.8596217149,0.0,0.0,0.0,0.0,0.0,0.0,0.0,0.0,0.0,100876.0,1.5242755095912647e-05,inf,inf,12.228869928933712,-13.767119536149192,153.6201045554982,-4.854754241160831,-1.358835867295614,-3.8079318753151945,0.05898465442729975,-0.06640423792371576,0.7409702476966165,-0.016766836830881687,-0.039727329780193374,-0.013151432440225147,0.7432919885931548,-0.005754747842136601,0.06640423792371576,0.7409702476966165,0.06455303462912589,0.06100506530041827,-0.034203234805264604,-0.056352329715234795,-0.056352329715234795,-0.016190955716801857,1330.3999999999999,-1312.1,776.0,1369.7,888.6,581.0,-13.8,35.6,-7.0,4.6,8.5,-11.8,tailOff_alfa5_betaSweep_balance,raw_tailOff_alfa5_betaSweep_balance.txt,0,0,40,5.0,5,inf,inf
79.0,19.0,32.0,16.0,4.995,5.005,631.72,100865.0,295.33,2031.0,-1963.8,1226.8,2139.5,1370.0,870.9,584.451,1.189803867441163,1486.543548630849,49.98804221848273,538034.5362068837,0.0,0.0,0.0,0.0,0.0,0.0,0.0,0.0,0.0,100865.0,1.5328029027487238e-05,inf,inf,18.795119329766276,-21.011211295828524,240.35203942634388,-7.485232991332868,-2.1550870964786313,-5.787805934402523,0.05821946791921056,-0.06508399976178576,0.7445107212773875,-0.016601970666194003,-0.04046295828122977,-0.012837140067094162,0.7467523926404837,-0.006825293216013294,0.06508399976178576,0.7445107212773874,0.06367558459818945,0.05975661800894468,-0.03369565994396785,-0.05687228812765591,-0.05687228812765591,-0.01583110279208618,2044.8,-1999.3999999999999,1233.8,2134.9,1361.5,882.6999999999999,-13.8,35.6,-7.0,4.6,8.5,-11.8,tailOff_alfa5_betaSweep_balance,raw_tailOff_alfa5_betaSweep_balance.txt,0,0,50,5.0,5,inf,inf
38.0,19.0,14.0,14.0,4.995,5.995,102.42,100869.0,293.73999999999995,418.6,59.5,244.9,278.3,283.9,-78.5,244.563,1.1962916559745138,238.93485116201052,19.986475311332384,217196.7702810517,0.0,0.0,0.0,0.0,0.0,0.0,0.0,0.0,0.0,100869.0,1.5181447722303606e-05,inf,inf,3.990433284216092,-0.4710994666473018,39.091389397907186,-0.1569476571606385,-0.632280597759757,0.4246012404865897,0.0769026551532429,-0.009078913803609963,0.7533597041252018,-0.0021657448578761306,-0.07385855310644616,0.005859137816185781,0.7571944925494142,0.011016470490378988,0.009078913803609963,0.7533597041252018,0.07743029252346799,0.0009974192709964868,-0.005216868953328149,-0.0955337947322655,-0.0955337947322655,0.005425515735497149,434.1,21.1,252.9,273.6,275.09999999999997,-65.6,-15.5,38.4,-8.0,4.7,8.8,-12.9,tailOff_alfa5_betaSweep_balance,raw_tailOff_alfa5_betaSweep_balance.txt,0,0,20,5.0,6,inf,inf
59.0,19.0,22.0,13.0,4.995,5.995,230.34,100875.0,293.89,719.0,-890.5,387.4,831.9,507.5,389.9,360.452,1.1957521974472969,538.0781039198291,29.999710503520056,325736.86639271554,0.0,0.0,0.0,0.0,0.0,0.0,0.0,0.0,0.0,100875.0,1.5194292747119745e-05,inf,inf,6.751824295202262,-9.851301616549886,87.34944010984859,-3.364838174335664,-0.642024155500998,-2.639594520476637,0.05777987440411744,-0.08430417398832504,0.7475075562027548,-0.020618203342329982,-0.03330247337691249,-0.016174238921677842,0.7496995716026942,-0.00752414813165575,0.08430417398832504,0.7475075562027549,0.06626874614133929,0.07780848875838738,-0.0428027729712885,-0.049587902486260056,-0.049587902486260056,-0.019976891584338234,734.5,-928.9,395.4,827.1999999999999,498.7,402.79999999999995,-15.5,38.4,-8.0,4.7,8.8,-12.9,tailOff_alfa5_betaSweep_balance,raw_tailOff_alfa5_betaSweep_balance.txt,0,0,30,5.0,6,inf,inf
17.0,19.0,4.0,57.0,4.995,5.995,407.3,100881.0,294.42999999999995,1258.2,-1551.7,707.5,1463.0,868.8,670.4,474.117,1.1936301178195787,954.398861869447,39.98941675429858,432819.9944631276,0.0,0.0,0.0,0.0,0.0,0.0,0.0,0.0,0.0,100881.0,1.5242917350733466e-05,inf,inf,11.708060382125579,-16.94021560630396,154.65025854513948,-5.778166405469072,-1.181418702321075,-4.479892655355377,0.05648795101836323,-0.08173156254560446,0.7461420546661943,-0.019961450114716294,-0.03454970710492058,-0.015476389477900596,0.7482267696019591,-0.008692272588911282,0.08173156254560446,0.7461420546661943,0.06471520042043852,0.07538487753483142,-0.041486930348449094,-0.05047100377316492,-0.05047100377316492,-0.019161376209155496,1273.7,-1590.1000000000001,715.5,1458.3,860.0,683.3,-15.5,38.4,-8.0,4.7,8.8,-12.9,tailOff_alfa5_betaSweep_balance,raw_tailOff_alfa5_betaSweep_balance.txt,0,0,40,5.0,6,inf,inf
80.0,19.0,32.0,37.0,4.995,5.995,631.65,100864.0,295.34999999999997,1946.0,-2313.2,1151.3,2253.2,1325.2,994.4,584.961,1.1897115031581513,1486.3768379214816,49.98717943301714,537955.3551703723,0.0,0.0,0.0,0.0,0.0,0.0,0.0,0.0,0.0,100864.0,1.5330020544411598e-05,inf,inf,18.02985469016379,-25.09291008146063,241.65387548463363,-8.73160329842371,-1.9346637158445397,-6.607396978740304,0.05585526010451566,-0.07773612397130607,0.7486272242572263,-0.019368546147682828,-0.03632846088424283,-0.014656606458735332,0.7506474136208946,-0.009538941486560738,0.07773612397130607,0.7486272242572263,0.06366867938980435,0.07147736925897362,-0.03984580605069714,-0.05207143174039683,-0.05207143174039683,-0.01819503257039081,1961.5,-2351.6,1159.3,2248.5,1316.4,1007.3,-15.5,38.4,-8.0,4.7,8.8,-12.9,tailOff_alfa5_betaSweep_balance,raw_tailOff_alfa5_betaSweep_balance.txt,0,0,50,5.0,6,inf,inf
