run,hr,min,sec,AoA,AoS,dPb,pBar,temp,B1,B2,B3,B4,B5,B6,rpmWT,rho,q,V,Re,rpsM1,rpsM2,iM1,iM2,dPtQ,tM1,tM2,vM1,vM2,pInf,nu,J_M1,J_M2,FX,FY,FZ,MX,MY,MZ,CFX,CFY,CFZ,CMX,CMY,CMZ,CN,CT,CY,CL,CD,CYaw,CMroll,CMpitch,CMpitch25c,CMyaw,B1_zeroed,B2_zeroed,B3_zeroed,B4_zeroed,B5_zeroed,B6_zeroed,B1_zero,B2_zero,B3_zero,B4_zero,B5_zero,B6_zero,config,source_file,dR,dE,V_round,AoA_round,AoS_round,J,J_round
22.0,14.0,51.0,33.0,-0.0,-9.995,102.77,101040.0,293.59,391.5,53.3,153.9,49.4,176.9,74.9,244.422,1.1989319324846828,239.75126642027644,19.998535306227172,217893.52251001532,0.0,0.0,0.0,0.0,0.0,0.0,0.0,0.0,0.0,101040.0,1.514203372836018e-05,inf,inf,3.5902332851758416,1.7724958322027904,16.825689648695143,0.17319831757866616,-1.4844925967621125,-0.4840164241107088,0.06895448832954111,0.03404278593272566,0.3231563880007328,0.0023818516834370747,-0.1728174399301253,-0.006656273286578903,0.3231563880007328,0.06895448832954111,-0.03404278593272566,0.3231563880007328,0.0738165014233147,-0.021558220067342877,0.011976911948098901,-0.1922524671440656,-0.1922524671440656,-0.006656273286578903,390.5,53.3,153.9,49.4,176.9,74.9,1.0,0.0,0.0,0.0,0.0,0.0,tailOff_alfa0_balance,raw_tailOff_alfa0_balance.txt,0,0,20,-0.0,-10,inf,inf
43.0,15.0,9.0,52.0,-0.0,-9.995,231.21,101030.0,293.15999999999997,840.4,336.6,394.5,66.8,381.8,49.6,360.482,1.200571663671001,540.1177996955827,29.996128012450356,327640.2190327899,0.0,0.0,0.0,0.0,0.0,0.0,0.0,0.0,0.0,101030.0,1.5104220974574322e-05,inf,inf,7.716722636469482,5.978440771608014,37.69139193133209,0.9865092834656922,-3.1714892516860207,-0.31224546783842766,0.0657877725008526,0.05096830868762625,0.3213323627701898,0.006022053955075224,-0.16388726031374004,-0.0019060733498065556,0.3213323627701898,0.0657877725008526,-0.05096830868762625,0.3213323627701898,0.07363547872834161,-0.03877648480134638,0.02038762304839488,-0.182429739271572,-0.182429739271572,-0.0019060733498065556,839.4,336.6,394.5,66.8,381.8,49.6,1.0,0.0,0.0,0.0,0.0,0.0,tailOff_alfa0_balance,raw_tailOff_alfa0_balance.txt,0,0,30,-0.0,-10,inf,inf
1.0,14.0,34.0,24.0,-0.0,-10.0,409.54,101064.0,293.54999999999995,1234.6,1415.3,891.0,-11.2,543.3,-374.2,473.888,1.199380123268635,959.6873197556819,40.00381889759869,436069.44968050555,0.0,0.0,0.0,0.0,0.0,0.0,0.0,0.0,0.0,101064.0,1.5134780637660197e-05,inf,inf,11.337239311579536,17.95938431206239,67.32213059840578,4.299914456600937,-4.89122279941642,2.4630152381140262,0.054397424560752056,0.08617126501644405,0.32301960114359224,0.014772772669167083,-0.14225191786275584,0.00846192745474187,0.32301960114359224,0.054397424560752056,-0.08617126501644405,0.32301960114359224,0.06853448858868494,-0.07541611623031484,0.039060399497031884,-0.15758399344359306,-0.15758399344359306,0.00846192745474187,1233.6,1415.3,891.0,-11.2,543.3,-374.2,1.0,0.0,0.0,0.0,0.0,0.0,tailOff_alfa0_balance,raw_tailOff_alfa0_balance.txt,0,0,40,-0.0,-10,inf,inf
23.0,14.0,52.0,28.0,-0.0,-9.0,102.82,101043.0,293.53,386.3,5.8,135.1,65.5,178.5,84.3,244.35,1.1992126092702422,239.8678980969433,20.00105800971023,218006.47868457355,0.0,0.0,0.0,0.0,0.0,0.0,0.0,0.0,0.0,101043.0,1.5136097246511229e-05,inf,inf,3.5637915142324372,1.1154537820306774,16.700000172438674,0.02557039060703247,-1.4589224152761573,-0.5483218281031311,0.06841336321707535,0.0214131338595886,0.3205864240260806,0.00035147722452414835,-0.16975810107991648,-0.007536945260221889,0.3205864240260806,0.06841336321707535,-0.0214131338595886,0.3205864240260806,0.07092083333056518,-0.010447294772252431,0.006386832563656729,-0.18904061057468152,-0.18904061057468152,-0.007536945260221889,387.6,4.6,136.1,65.2,176.7,84.6,-1.3,1.2,-1.0,0.3,1.8,-0.3,tailOff_alfa0_balance,raw_tailOff_alfa0_balance.txt,0,0,20,-0.0,-9,inf,inf
44.0,15.0,10.0,48.0,-0.0,-9.0,231.24,101033.0,293.21,826.7,255.6,356.7,99.7,382.9,56.2,360.388,1.2004025785706722,540.1881352820836,30.00019368232209,327595.2574374111,0.0,0.0,0.0,0.0,0.0,0.0,0.0,0.0,0.0,101033.0,1.5108341493950498e-05,inf,inf,7.612312665109104,4.7528234795676765,37.420482813788524,0.8197734391532697,-3.069991351655834,-0.3594015310234338,0.0648891907561377,0.04051421466297546,0.31898122874277574,0.005003578957714614,-0.15862168248410402,-0.002193647478816461,0.31898122874277574,0.0648891907561377,-0.04051421466297546,0.31898122874277574,0.07042811663781864,-0.029864511608159536,0.016422630619200386,-0.1769108935099194,-0.1769108935099194,-0.002193647478816461,828.0,254.4,357.7,99.4,381.09999999999997,56.5,-1.3,1.2,-1.0,0.3,1.8,-0.3,tailOff_alfa0_balance,raw_tailOff_alfa0_balance.txt,0,0,30,-0.0,-9,inf,inf
2.0,14.0,35.0,13.0,-0.0,-9.0,409.53,101062.0,293.59999999999997,873.5,2482.2,1110.9,-172.0,361.8,-1055.2,473.326,1.1991521381411114,959.6637095367728,40.007129382037974,435965.2178233158,0.0,0.0,0.0,0.0,0.0,0.0,0.0,0.0,0.0,101062.0,1.5139651872161485e-05,inf,inf,8.034865103269883,26.568910250178607,66.46303205089573,7.186755114049739,-3.794998180948376,6.900162389480778,0.038553188258816394,0.12748393228031604,0.3189053896956089,0.024691400867676877,-0.11037302393944606,0.02370675957466023,0.3189053896956089,0.038553188258816394,-0.12748393228031604,0.3189053896956089,0.05802141528349858,-0.11988334614562503,0.06062312559264453,-0.1212393544879864,-0.1212393544879864,0.02370675957466023,874.8,2481.0,1111.9,-172.3,360.0,-1054.9,-1.3,1.2,-1.0,0.3,1.8,-0.3,tailOff_alfa0_balance,raw_tailOff_alfa0_balance.txt,0,0,40,-0.0,-9,inf,inf
24.0,14.0,53.0,7.0,-0.0,-8.0,102.86,101042.0,293.51,380.6,-33.7,118.3,80.8,180.0,91.0,244.303,1.199282455403412,239.96120360486427,20.004365155922805,218066.71553658298,0.0,0.0,0.0,0.0,0.0,0.0,0.0,0.0,0.0,101042.0,1.513441822331888e-05,inf,inf,3.5244310634341427,0.539385843424791,16.673638208132,-0.08059297642261459,-1.409455760736945,-0.5988278499012334,0.06763146108041677,0.010350451468716371,0.3199559001853352,-0.0011073581827383498,-0.16393846279911284,-0.008227974062683592,0.3199559001853352,0.06763146108041677,-0.010350451468716371,0.3199559001853352,0.06841378077751292,-0.000837241425507531,0.0018099472870622387,-0.18300059085573317,-0.18300059085573317,-0.008227974062683592,383.3,-37.400000000000006,120.3,80.3,177.3,92.2,-2.7,3.7,-2.0,0.5,2.7,-1.2,tailOff_alfa0_balance,raw_tailOff_alfa0_balance.txt,0,0,20,-0.0,-8,inf,inf
45.0,15.0,11.0,50.0,-0.0,-8.0,231.22,101030.0,293.22999999999996,812.3,171.1,320.5,132.7,381.2,65.7,360.162,1.2002850626531754,540.141244881828,30.00036009807119,327547.72175699146,0.0,0.0,0.0,0.0,0.0,0.0,0.0,0.0,0.0,101030.0,1.5110617927132722e-05,inf,inf,7.493182859545952,3.4937438789346826,37.21325981396349,0.5953560805742415,-2.9776761508972767,-0.42938427544817503,0.06387924449901511,0.0297841015817582,0.317242347720524,0.0036341379436955912,-0.15386525560923586,-0.0026210225086260182,0.317242347720524,0.06387924449901511,-0.0297841015817582,0.317242347720524,0.06740272185915316,-0.020603972208656313,0.012028875382944247,-0.1718698102846482,-0.1718698102846482,-0.0026210225086260182,815.0,167.4,322.5,132.2,378.5,66.9,-2.7,3.7,-2.0,0.5,2.7,-1.2,tailOff_alfa0_balance,raw_tailOff_alfa0_balance.txt,0,0,30,-0.0,-8,inf,inf
3.0,14.0,35.0,50.0,-0.0,-8.0,409.45,101065.0,293.65,917.7,2236.0,1020.4,-102.8,392.6,-984.7,473.07,1.1989835480985749,959.4748281186756,40.006004419884675,435834.27638141497,0.0,0.0,0.0,0.0,0.0,0.0,0.0,0.0,0.0,101065.0,1.5143774567638396e-05,inf,inf,8.455437018221868,23.482923994385533,65.94950101863708,6.502743938822326,-3.847820525054943,6.431415135104029,0.04057917885788148,0.11269881980323715,0.3165036403980094,0.022345754496810467,-0.11193132958000095,0.022100643209723724,0.3165036403980094,0.04057917885788148,-0.11269881980323715,0.3165036403980094,0.05586890930526921,-0.1059545124799414,0.054110251383324384,-0.12336869159265482,-0.12336869159265482,0.022100643209723724,920.4000000000001,2232.3,1022.4,-103.3,389.90000000000003,-983.5,-2.7,3.7,-2.0,0.5,2.7,-1.2,tailOff_alfa0_balance,raw_tailOff_alfa0_balance.txt,0,0,40,-0.0,-8,inf,inf
25.0,14.0,53.0,47.0,-0.0,-7.0,102.97,101043.0,293.46999999999997,371.9,-56.9,105.6,93.5,178.7,88.7,244.228,1.1994577885272575,240.21779451517284,20.013594724759002,218222.22164941297,0.0,0.0,0.0,0.0,0.0,0.0,0.0,0.0,0.0,101043.0,1.513061107829773e-05,inf,inf,3.445478541271511,0.10614163197549176,16.661472516578847,-0.1431513954877401,-1.3624201594643397,-0.5931578343919098,0.0660457924200274,0.0020346108990680987,0.3193809341897284,-0.0019648181726796684,-0.15829832773241273,-0.008141361726231679,0.3193809341897284,0.0660457924200274,-0.0020346108990680987,0.3193809341897284,0.06580145379295417,0.006029512138943873,-0.0013913570514225712,-0.17691353037034704,-0.17691353037034704,-0.008141361726231679,374.7,-63.8,108.6,92.9,174.5,91.2,-2.8,6.9,-3.0,0.6,4.2,-2.5,tailOff_alfa0_balance,raw_tailOff_alfa0_balance.txt,0,0,20,-0.0,-7,inf,inf
46.0,15.0,12.0,32.0,-0.0,-7.0,231.35,101031.0,293.25,768.7,221.2,321.2,134.6,360.2,3.3,359.887,1.2002150814507395,540.4460331452117,30.009697985444674,327613.28668387857,0.0,0.0,0.0,0.0,0.0,0.0,0.0,0.0,0.0,101031.0,1.5112296231153772e-05,inf,inf,7.093188022415846,3.4890875960860366,36.874892202689054,0.5931281308297228,-2.848132426969377,-0.03223163055791964,0.060435193876664184,0.02972763229393522,0.31418048589829906,0.003618496395036382,-0.14708835334605994,-0.00019663548720379143,0.31418048589829906,0.060435193876664184,-0.02972763229393522,0.31418048589829906,0.06360760613463176,-0.022140849634441837,0.01199731779789381,-0.16412219213055468,-0.16412219213055468,-0.00019663548720379143,771.5,214.29999999999998,324.2,134.0,356.0,5.8,-2.8,6.9,-3.0,0.6,4.2,-2.5,tailOff_alfa0_balance,raw_tailOff_alfa0_balance.txt,0,0,30,-0.0,-7,inf,inf
4.0,14.0,36.0,31.0,-0.0,-7.0,409.43,101060.0,293.69,966.6,1939.5,922.6,-30.2,424.4,-880.6,472.717,1.1987609395313181,959.4276078567,40.00873423743121,435737.19770587556,0.0,0.0,0.0,0.0,0.0,0.0,0.0,0.0,0.0,101060.0,1.5148182045108403e-05,inf,inf,8.907374037988133,20.002392588955665,65.21313517868036,5.578406823741282,-3.928591319227851,5.740922648027195,0.042750210684923,0.09599984167427372,0.3129850903782899,0.019170344955268027,-0.1142865394157897,0.01972883495262559,0.3129850903782899,0.042750210684923,-0.09599984167427372,0.3129850903782899,0.0541309947690179,-0.0900743333053733,0.04622818528839907,-0.1263358131931895,-0.1263358131931895,0.01972883495262559,969.4,1932.6,925.6,-30.8,420.2,-878.1,-2.8,6.9,-3.0,0.6,4.2,-2.5,tailOff_alfa0_balance,raw_tailOff_alfa0_balance.txt,0,0,40,-0.0,-7,inf,inf
26.0,14.0,54.0,24.0,-0.0,-6.0,102.78,101040.0,293.41999999999996,356.3,-68.3,94.7,102.3,174.9,80.0,244.136,1.1996265628047782,239.7745927371001,19.99371706553031,218064.8904495956,0.0,0.0,0.0,0.0,0.0,0.0,0.0,0.0,0.0,101040.0,1.5126488948508548e-05,inf,inf,3.3426031875505116,-0.22008790692245284,16.432831727403705,-0.1804741199119081,-1.3135641166912446,-0.5469805422698908,0.06419222689806178,-0.0042266257961175065,0.31558040354654776,-0.0024816682600218016,-0.15290389734283366,-0.0075214343821888635,0.31558040354654776,0.06419222689806178,0.0042266257961175065,0.31558040354654776,0.06339877246329507,0.010913386729150147,-0.0036729552865908018,-0.17099666703644592,-0.17099666703644592,-0.0075214343821888635,363.5,-78.7,98.2,101.39999999999999,169.9,84.0,-7.2,10.4,-3.5,0.9,5.0,-4.0,tailOff_alfa0_balance,raw_tailOff_alfa0_balance.txt,0,0,20,-0.0,-6,inf,inf
47.0,15.0,13.0,17.0,-0.0,-6.0,231.37,101028.0,293.27,701.3,384.8,346.1,110.2,326.9,-124.1,359.559,1.2000975943482564,540.4929237860937,30.012468792578005,327594.1812630994,0.0,0.0,0.0,0.0,0.0,0.0,0.0,0.0,0.0,101028.0,1.5114572991768658e-05,inf,inf,6.51363230608717,4.491383664779839,36.07649231173597,0.8386138669490639,-2.6802157632657924,0.7879982668377025,0.05549246383327636,0.038264048977134264,0.307351313485961,0.005115687211212481,-0.13840449203604366,0.00480692344235238,0.307351313485961,0.05549246383327636,-0.038264048977134264,0.307351313485961,0.05918815254810344,-0.03225389254577579,0.015900522994955847,-0.15404520768625726,-0.15404520768625726,0.00480692344235238,708.5,374.40000000000003,349.6,109.3,321.9,-120.1,-7.2,10.4,-3.5,0.9,5.0,-4.0,tailOff_alfa0_balance,raw_tailOff_alfa0_balance.txt,0,0,30,-0.0,-6,inf,inf
5.0,14.0,37.0,13.0,-0.0,-6.0,409.19,101063.0,293.71999999999997,1012.5,1604.3,817.6,38.3,452.0,-745.2,472.179,1.1986740823637103,958.8609676005082,39.99836694790603,435558.3231439652,0.0,0.0,0.0,0.0,0.0,0.0,0.0,0.0,0.0,101063.0,1.5150476187422077e-05,inf,inf,9.371360259626526,16.287869255639272,63.65412255726011,4.462945388986998,-4.067596850906908,4.845112124833706,0.045003653743555846,0.07821848780683958,0.3056832745250759,0.015346095200338519,-0.11840027290903796,0.016660197569858527,0.3056832745250759,0.045003653743555846,-0.07821848780683958,0.3056832745250759,0.05293317734910728,-0.0730858359792548,0.03739220816537257,-0.13108468630142975,-0.13108468630142975,0.016660197569858527,1019.7,1593.8999999999999,821.1,37.4,447.0,-741.2,-7.2,10.4,-3.5,0.9,5.0,-4.0,tailOff_alfa0_balance,raw_tailOff_alfa0_balance.txt,0,0,40,-0.0,-6,inf,inf
27.0,14.0,55.0,2.0,-0.0,-4.995,102.83,101037.0,293.4,312.2,40.3,105.4,88.4,160.8,6.0,244.054,1.1996727161460865,239.89122446004126,19.99819447737676,218133.614828304,0.0,0.0,0.0,0.0,0.0,0.0,0.0,0.0,0.0,101037.0,1.5125109625195748e-05,inf,inf,3.0325038755353986,0.5438684617410364,15.910108643042319,0.1932022425281639,-1.190776020260911,-0.08269696337079392,0.05820868450281109,0.010439514341898036,0.30539334240580024,0.0026553988168625084,-0.13854350168306476,-0.001136598705167293,0.30539334240580024,0.05820868450281109,-0.010439514341898036,0.30539334240580024,0.058896581456004286,-0.005331707422462957,0.005597806921835517,-0.15494979219157018,-0.15494979219157018,-0.001136598705167293,329.8,24.199999999999996,110.4,87.0,154.20000000000002,12.8,-17.6,16.1,-5.0,1.4,6.6,-6.8,tailOff_alfa0_balance,raw_tailOff_alfa0_balance.txt,0,0,20,-0.0,-5,inf,inf
48.0,15.0,14.0,21.0,-0.0,-4.995,231.28,101028.0,293.28,589.1,735.5,397.2,58.5,279.5,-357.0,358.858,1.2000566744902932,540.281916193653,30.007121392639032,327516.00686410256,0.0,0.0,0.0,0.0,0.0,0.0,0.0,0.0,0.0,101028.0,1.5115487025159998e-05,inf,inf,5.576767333583989,7.1588112124802326,34.889928930093895,1.9509242303073302,-2.3297512814236327,2.2884827324793764,0.047529459484968666,0.06101284258983946,0.297358552781976,0.011905617532478303,-0.12035373400619728,0.013965586012680909,0.297358552781976,0.047529459484968666,-0.06101284258983946,0.297358552781976,0.05266127233882899,-0.05664280073832412,0.029102268321421626,-0.13375005324417932,-0.13375005324417932,0.013965586012680909,606.7,719.4,402.2,57.1,272.9,-350.2,-17.6,16.1,-5.0,1.4,6.6,-6.8,tailOff_alfa0_balance,raw_tailOff_alfa0_balance.txt,0,0,30,-0.0,-5,inf,inf
6.0,14.0,38.0,21.0,-0.0,-5.0,409.32,101058.0,293.76,1046.4,1204.4,705.9,122.5,479.0,-568.4,471.531,1.198451568980376,959.1678970775562,40.00848175252553,435541.73375650716,0.0,0.0,0.0,0.0,0.0,0.0,0.0,0.0,0.0,101058.0,1.5154884660252491e-05,inf,inf,9.78017712480733,12.032388827396911,62.663456555323855,3.1216429823616783,-4.166963643872459,3.670585470889005,0.04695186703426348,0.05776409906682816,0.30082954966430353,0.010730514675242527,-0.12125384462086518,0.012617481077963642,0.30082954966430353,0.04695186703426348,-0.05776409906682816,0.30082954966430353,0.051807673963360605,-0.05345216438566004,0.027011497458949027,-0.13448736771214284,-0.13448736771214284,0.012617481077963642,1064.0,1188.3000000000002,710.9,121.1,472.4,-561.6,-17.6,16.1,-5.0,1.4,6.6,-6.8,tailOff_alfa0_balance,raw_tailOff_alfa0_balance.txt,0,0,40,-0.0,-5,inf,inf
28.0,14.0,55.0,43.0,-0.0,-4.005,102.81,101033.0,293.35999999999996,283.5,114.0,117.5,80.8,149.4,-49.4,243.913,1.1997887921417605,239.84457174310023,19.995282501532014,218145.956792762,0.0,0.0,0.0,0.0,0.0,0.0,0.0,0.0,0.0,101033.0,1.5122051625455935e-05,inf,inf,2.8190429864971973,0.9908653236210299,15.881509287268074,0.3275907631646286,-1.1230060606813017,0.2646095852136789,0.0541218440603255,0.019023285131397075,0.3049036758946877,0.004503329343855594,-0.13068406874369443,0.0036375387945824784,0.3049036758946877,0.0541218440603255,-0.019023285131397075,0.3049036758946877,0.05531832963705215,-0.015196768993673003,0.009865098725136835,-0.1459384711424782,-0.1459384711424782,0.0036375387945824784,306.6,93.4,123.0,78.8,142.1,-40.5,-23.1,20.6,-5.5,2.0,7.3,-8.9,tailOff_alfa0_balance,raw_tailOff_alfa0_balance.txt,0,0,20,-0.0,-4,inf,inf
49.0,15.0,15.0,18.0,-0.0,-4.005,231.45,101026.0,293.28999999999996,598.8,537.3,347.5,108.8,290.1,-271.3,357.982,1.1999920013203167,540.6804867198157,30.018996504589254,327619.32125298306,0.0,0.0,0.0,0.0,0.0,0.0,0.0,0.0,0.0,101026.0,1.5116700336804478e-05,inf,inf,5.7171724013314735,5.008004229054995,35.16993238833016,1.2879734241011978,-2.3484463139165968,1.71388653217481,0.048690179274153714,0.042650563355693026,0.29952399417741055,0.007854131375939318,-0.12123007716710829,0.010451372470319194,0.29952399417741055,0.048690179274153714,-0.042650563355693026,0.29952399417741055,0.051550141651859026,-0.03914571506538719,0.019875319257811545,-0.13495354872304766,-0.13495354872304766,0.010451372470319194,621.9,516.6999999999999,353.0,106.8,282.8,-262.40000000000003,-23.1,20.6,-5.5,2.0,7.3,-8.9,tailOff_alfa0_balance,raw_tailOff_alfa0_balance.txt,0,0,30,-0.0,-4,inf,inf
7.0,14.0,39.0,19.0,-0.0,-4.0,409.03,101055.0,293.78,1061.8,871.9,614.9,209.6,493.0,-435.1,470.757,1.1983344058913443,958.4832103912688,39.99615459631169,435342.055581862,0.0,0.0,0.0,0.0,0.0,0.0,0.0,0.0,0.0,101055.0,1.5157164178055205e-05,inf,inf,9.973509631999756,8.326401767664368,62.75539492766047,2.085819759219793,-4.196636801705411,2.7839679655944445,0.04791420456590865,0.0400012565600562,0.3014861308732111,0.007175038289667501,-0.12220453310562644,0.009576607308495156,0.3014861308732111,0.04791420456590865,-0.0400012565600562,0.3014861308732111,0.050587834574709174,-0.03656148955675957,0.018449511187227097,-0.13570929388671388,-0.13570929388671388,0.009576607308495156,1084.8999999999999,851.3,620.4,207.6,485.7,-426.20000000000005,-23.1,20.6,-5.5,2.0,7.3,-8.9,tailOff_alfa0_balance,raw_tailOff_alfa0_balance.txt,0,0,40,-0.0,-4,inf,inf
29.0,14.0,56.0,32.0,-0.0,-3.0,102.68,101033.0,293.33,267.8,172.5,133.5,70.5,136.5,-93.2,243.679,1.1999114992080826,239.5413299853323,19.981616451941488,218036.40304493788,0.0,0.0,0.0,0.0,0.0,0.0,0.0,0.0,0.0,101033.0,1.5119309228119478e-05,inf,inf,2.6184608358137136,1.3749813279250453,15.937313345624364,0.30714373631996367,-1.0792765334866647,0.550696430796834,0.05033457513330306,0.026431214861315493,0.3063623809248352,0.00422759292173928,-0.1257542637710904,0.007579904968136764,0.3063623809248352,0.05033457513330306,-0.026431214861315493,0.3063623809248352,0.051648896251869233,-0.023760683678269952,0.011677309286425831,-0.13994121318100675,-0.13994121318100675,0.007579904968136764,284.8,151.4,139.2,68.7,129.2,-84.4,-17.0,21.1,-5.7,1.8,7.3,-8.8,tailOff_alfa0_balance,raw_tailOff_alfa0_balance.txt,0,0,20,-0.0,-3,inf,inf
50.0,15.0,16.0,3.0,-0.0,-3.0,231.29,101029.0,293.28999999999996,610.6,363.8,301.2,152.9,293.2,-199.4,357.259,1.20002763547394,540.3053614446826,30.00813552843127,327510.51269864384,0.0,0.0,0.0,0.0,0.0,0.0,0.0,0.0,0.0,101029.0,1.51162514547903e-05,inf,inf,5.7701478275754345,3.1177866963708794,35.14092660740419,0.7617576363723142,-2.3633114799942887,1.243694302140398,0.049175461424683604,0.026571000258445897,0.29948475020893234,0.004648464248028652,-0.12208213864011384,0.007589380431430226,0.29948475020893234,0.049175461424683604,-0.026571000258445897,0.29948475020893234,0.05049868687073056,-0.023960940828706673,0.012137579541822721,-0.13594238841064765,-0.13594238841064765,0.007589380431430226,627.6,342.7,306.9,151.1,285.9,-190.6,-17.0,21.1,-5.7,1.8,7.3,-8.8,tailOff_alfa0_balance,raw_tailOff_alfa0_balance.txt,0,0,30,-0.0,-3,inf,inf
8.0,14.0,40.0,3.0,-0.0,-3.0,409.07,101056.0,293.82,1078.6,576.6,533.6,284.8,501.0,-313.8,470.38,1.198183123941181,958.577649471462,40.000649943752805,435290.19943659625,0.0,0.0,0.0,0.0,0.0,0.0,0.0,0.0,0.0,101056.0,1.5160673636554547e-05,inf,inf,10.072871183369076,5.102467655294786,62.61134708150624,1.2256167768739121,-4.1964242566778225,1.9902951214881777,0.04838678451056053,0.024510588730300414,0.3007644696331217,0.0042155995951868395,-0.12218630488980622,0.006845767344869719,0.3007644696331217,0.04838678451056053,-0.024510588730300414,0.3007644696331217,0.04960325720332867,-0.021944629183419155,0.0111239817838341,-0.1358242637310573,-0.1358242637310573,0.006845767344869719,1095.6,555.5,539.3000000000001,283.0,493.7,-305.0,-17.0,21.1,-5.7,1.8,7.3,-8.8,tailOff_alfa0_balance,raw_tailOff_alfa0_balance.txt,0,0,40,-0.0,-3,inf,inf
30.0,14.0,57.0,10.0,-0.0,-2.0,103.05,101031.0,293.29999999999995,276.6,105.1,116.0,87.2,136.6,-64.5,243.861,1.2000104760839736,240.4044067896757,20.01675581692762,218455.13633118046,0.0,0.0,0.0,0.0,0.0,0.0,0.0,0.0,0.0,101031.0,1.5116866262402579e-05,inf,inf,2.6508719934165295,0.6497508661368996,15.880426020831827,0.1135822993263672,-1.1052798275347895,0.36992526017708965,0.050774670480271684,0.012445295813719197,0.30417289114547263,0.0015577587069999124,-0.12832174611764016,0.005073451571219395,0.30417289114547263,0.050774670480271684,-0.012445295813719197,0.30417289114547263,0.05117807448311333,-0.010665704030773304,0.005065502273585808,-0.1426327377074388,-0.1426327377074388,0.005073451571219395,288.3,84.6,121.0,85.7,129.79999999999998,-56.8,-11.7,20.5,-5.0,1.5,6.8,-7.7,tailOff_alfa0_balance,raw_tailOff_alfa0_balance.txt,0,0,20,-0.0,-2,inf,inf
51.0,15.0,16.0,42.0,-0.0,-2.0,231.05,101028.0,293.31,622.9,221.2,264.3,185.2,296.1,-134.6,357.158,1.1999339316576767,539.7426779743158,29.993677005806564,327309.88667647226,0.0,0.0,0.0,0.0,0.0,0.0,0.0,0.0,0.0,101028.0,1.5118229249021886e-05,inf,inf,5.834964961491935,1.6380574289713004,34.921653839211096,0.34052590286102014,-2.386959803367517,0.8268648239934396,0.049779699897004995,0.013974720973714558,0.29792628738914206,0.0020801533336552093,-0.12343229020911513,0.00505102726594685,0.29792628738914206,0.049779699897004995,-0.013974720973714558,0.29792628738914206,0.050237086177370736,-0.012228921478874681,0.006018969921392949,-0.13746284638663947,-0.13746284638663947,0.00505102726594685,634.6,200.7,269.3,183.7,289.3,-126.89999999999999,-11.7,20.5,-5.0,1.5,6.8,-7.7,tailOff_alfa0_balance,raw_tailOff_alfa0_balance.txt,0,0,30,-0.0,-2,inf,inf
9.0,14.0,40.0,44.0,-0.0,-2.0,409.07,101057.0,293.84999999999997,1088.9,304.6,458.1,353.6,504.0,-203.1,470.128,1.1980726533606827,958.577649471462,40.00249406946118,435235.77665588167,0.0,0.0,0.0,0.0,0.0,0.0,0.0,0.0,0.0,101057.0,1.5163268389248877e-05,inf,inf,10.119748807414025,2.1247310505541512,62.26998875794369,0.4434163394044887,-4.199426254711247,1.2723003953640495,0.04861196931157089,0.010206514271303733,0.2991246956955399,0.0015251633105582867,-0.1222737133653451,0.004376171355399556,0.2991246956955399,0.04861196931157089,-0.010206514271303733,0.2991246956955399,0.04893855842447313,-0.008503763475889194,0.00440189965401798,-0.13597514121117912,-0.13597514121117912,0.004376171355399556,1100.6000000000001,284.1,463.1,352.1,497.2,-195.4,-11.7,20.5,-5.0,1.5,6.8,-7.7,tailOff_alfa0_balance,raw_tailOff_alfa0_balance.txt,0,0,40,-0.0,-2,inf,inf
31.0,14.0,57.0,57.0,-0.0,-1.0,102.88,101032.0,293.27,275.4,39.4,98.4,103.5,137.6,-37.0,243.69,1.2001451097932556,240.00785641435388,19.999118189511634,218304.40513724642,0.0,0.0,0.0,0.0,0.0,0.0,0.0,0.0,0.0,101032.0,1.51139745844129e-05,inf,inf,2.6657974889801617,-0.06317679758253925,15.797644154938828,-0.10743541504186327,-1.1103742731509907,0.18267009517869998,0.051144916924747985,-0.0012120845928048044,0.303087237965768,-0.001475889908932748,-0.1291262009741165,0.002509423452527039,0.303087237965768,0.051144916924747985,0.0012120845928048044,0.303087237965768,0.05111597351322438,0.002104501863822259,-0.00181751954925693,-0.14354154762329682,-0.14354154762329682,0.002509423452527039,289.9,17.799999999999997,103.80000000000001,101.2,130.6,-28.2,-14.5,21.6,-5.4,2.3,7.0,-8.8,tailOff_alfa0_balance,raw_tailOff_alfa0_balance.txt,0,0,20,-0.0,-1,inf,inf
52.0,15.0,17.0,25.0,-0.0,-1.0,231.07,101027.0,293.31,625.0,79.1,227.0,219.8,300.2,-70.9,357.094,1.1999220544164004,539.789568059906,29.995128276148723,327322.4839015787,0.0,0.0,0.0,0.0,0.0,0.0,0.0,0.0,0.0,101027.0,1.511837889445577e-05,inf,inf,5.880445738016451,0.15273642895198625,34.83135741422769,-0.07846254572408165,-2.3838541792376855,0.40283226246945386,0.050163351044834374,0.0013029235272626295,0.29713013046649933,-0.00047925854305465093,-0.12326098671952666,0.002460547276727795,0.29713013046649933,0.050163351044834374,-0.0013029235272626295,0.29713013046649933,0.05017845007445309,-0.0004272538950079956,-0.00011202567941546359,-0.13739967611186205,-0.13739967611186205,0.002460547276727795,639.5,57.49999999999999,232.4,217.5,293.2,-62.10000000000001,-14.5,21.6,-5.4,2.3,7.0,-8.8,tailOff_alfa0_balance,raw_tailOff_alfa0_balance.txt,0,0,30,-0.0,-1,inf,inf
10.0,14.0,41.0,25.0,-0.0,-1.0,409.06,101055.0,293.87,1082.5,33.3,381.2,429.0,501.6,-99.8,470.091,1.1979674065496957,958.5540396875315,40.003758574419855,435188.4008637384,0.0,0.0,0.0,0.0,0.0,0.0,0.0,0.0,0.0,101055.0,1.5165398476854287e-05,inf,inf,10.08753486705756,-0.9330027016575024,62.09812035775557,-0.328779790346428,-4.198233858108933,0.5877935494345575,0.04845841759116386,-0.004481950756695743,0.29830644330652234,-0.001130890271237282,-0.1222420054546818,0.0020218092050340447,0.29830644330652234,0.04845841759116386,0.004481950756695743,0.29830644330652234,0.048372816313213364,0.005326984132995283,-0.0023941413958287507,-0.13590015429233007,-0.13590015429233007,0.0020218092050340447,1097.0,11.699999999999996,386.59999999999997,426.7,494.6,-91.0,-14.5,21.6,-5.4,2.3,7.0,-8.8,tailOff_alfa0_balance,raw_tailOff_alfa0_balance.txt,0,0,40,-0.0,-1,inf,inf
32.0,14.0,58.0,39.0,-0.0,0.0,102.9,101035.0,293.25,278.0,-18.7,85.0,116.5,140.1,-5.1,243.665,1.2002626001363488,240.054509260863,20.000082866427398,218347.82549704588,0.0,0.0,0.0,0.0,0.0,0.0,0.0,0.0,0.0,101035.0,1.5111697931703834e-05,inf,inf,2.682477954423156,-0.627854981434714,15.840911118619498,-0.2874161447189105,-1.1058039924977934,-0.03290468813667237,0.05145493977958602,-0.01204343178543791,0.3038582763814809,-0.003947600969004051,-0.1285697283921145,-0.0004519390478225893,0.3038582763814809,0.05145493977958602,0.01204343178543791,0.3038582763814809,0.05145493977958602,0.01204343178543791,-0.007342077966362074,-0.1430724559031747,-0.1430724559031747,-0.0004519390478225893,291.7,-43.099999999999994,91.0,114.0,132.29999999999998,4.800000000000001,-13.7,24.4,-6.0,2.5,7.8,-9.9,tailOff_alfa0_balance,raw_tailOff_alfa0_balance.txt,0,0,20,-0.0,0,inf,inf
53.0,15.0,18.0,12.0,-0.0,-0.005,231.16,101023.0,293.33,628.9,-50.3,197.5,248.5,303.9,-3.0,357.127,1.199792734893531,540.0005739031781,30.002607092622615,327351.54688653274,0.0,0.0,0.0,0.0,0.0,0.0,0.0,0.0,0.0,101023.0,1.5120805848614625e-05,inf,inf,5.909252212718561,-1.1055028616832194,34.88140021565405,-0.47363512731946106,-2.3764065668132752,-0.04809155926902393,0.05038938829150031,-0.009426846401110547,0.29744075161232686,-0.002891889129056183,-0.12282788213003423,-0.00029363416990743326,0.29744075161232686,0.05038938829150031,0.009426846401110547,0.29744075161232686,0.05038856545209389,0.009431243668878958,-0.005548873769006422,-0.1370302807912909,-0.1370302807912909,-0.00029363416990743326,642.6,-74.69999999999999,203.5,246.0,296.09999999999997,6.9,-13.7,24.4,-6.0,2.5,7.8,-9.9,tailOff_alfa0_balance,raw_tailOff_alfa0_balance.txt,0,0,30,-0.0,0,inf,inf
11.0,14.0,42.0,9.0,-0.0,0.0,408.97,101053.0,293.9,1075.2,-149.8,345.1,465.2,499.2,4.2,469.827,1.1978214165889134,958.3415520486249,40.00176188447552,435079.3119407239,0.0,0.0,0.0,0.0,0.0,0.0,0.0,0.0,0.0,101053.0,1.5168443815419397e-05,inf,inf,10.013366069569274,-2.6030069905646407,62.054108512952226,-0.9286757876896778,-4.161772220437903,-0.09862543600364955,0.048112791539366505,-0.012507076226160324,0.29816111448458454,-0.0031950360268804623,-0.12120720294675054,-0.0003393130577705447,0.29816111448458454,0.048112791539366505,0.012507076226160324,0.29816111448458454,0.048112791539366505,0.012507076226160324,-0.006720192586096271,-0.13476793605577467,-0.13476793605577467,-0.0003393130577705447,1088.9,-174.20000000000002,351.1,462.7,491.4,14.100000000000001,-13.7,24.4,-6.0,2.5,7.8,-9.9,tailOff_alfa0_balance,raw_tailOff_alfa0_balance.txt,0,0,40,-0.0,0,inf,inf
33.0,14.0,59.0,23.0,-0.0,1.0,102.92,101034.0,293.21999999999997,274.4,-57.8,80.9,122.0,137.8,28.2,243.676,1.2003735208251334,240.1011621443915,20.001102042405158,218396.4138750844,0.0,0.0,0.0,0.0,0.0,0.0,0.0,0.0,0.0,101034.0,1.5109105812170104e-05,inf,inf,2.6419952537887084,-0.8857846539714769,15.89033816086901,-0.41313550756920714,-1.0957682508712279,-0.252424220467758,0.050668558859989006,-0.016987703445972252,0.30474715397558827,-0.005673227718422207,-0.12737813675492307,-0.0034663205125715526,0.30474715397558827,0.050668558859989006,0.016987703445972252,0.30474715397558827,0.0509573180980311,0.016100827853639692,-0.010461262359430113,-0.1416592204695729,-0.1416592204695729,-0.0034663205125715526,287.29999999999995,-85.3,87.4,119.4,129.8,38.5,-12.9,27.5,-6.5,2.6,8.0,-10.3,tailOff_alfa0_balance,raw_tailOff_alfa0_balance.txt,0,0,20,-0.0,1,inf,inf
54.0,15.0,18.0,54.0,-0.0,1.0,231.1,101023.0,293.33,612.0,-146.4,184.3,265.3,294.0,63.0,357.108,1.199792734893531,539.859903257703,29.998698984737583,327308.90642006876,0.0,0.0,0.0,0.0,0.0,0.0,0.0,0.0,0.0,101023.0,1.5120805848614625e-05,inf,inf,5.746515903853903,-1.869678129677434,34.88005175346334,-0.801591526886057,-2.336306588866763,-0.4811277724192667,0.049014471200174124,-0.015947277685111904,0.2975067537852196,-0.004895578298421177,-0.12078672399030614,-0.0029384026682186914,0.2975067537852196,0.049014471200174124,0.015947277685111904,0.2975067537852196,0.04928532443053221,0.015089428364784122,-0.00939036585042498,-0.13460159818819314,-0.13460159818819314,-0.0029384026682186914,624.9,-173.9,190.8,262.7,286.0,73.3,-12.9,27.5,-6.5,2.6,8.0,-10.3,tailOff_alfa0_balance,raw_tailOff_alfa0_balance.txt,0,0,30,-0.0,1,inf,inf
12.0,14.0,42.0,51.0,-0.0,1.0,408.9,101049.0,293.90999999999997,1080.1,-237.4,361.0,447.7,503.7,141.0,469.772,1.1977332499095867,958.1762844033029,39.99978468594466,435014.3417531147,0.0,0.0,0.0,0.0,0.0,0.0,0.0,0.0,0.0,101049.0,1.5169959395675148e-05,inf,inf,10.05059139557119,-2.3598891112498483,62.08378053869741,-1.2232094125626167,-4.146856078510796,-0.9898888456131568,0.048299983320689216,-0.01134088534951987,0.298355136178929,-0.004209081667786426,-0.12079361719617913,-0.003406222148411828,0.298355136178929,0.048299983320689216,0.01134088534951987,0.298355136178929,0.04849055273976171,0.010496207137923645,-0.007405543866805726,-0.13440711086441218,-0.13440711086441218,-0.003406222148411828,1093.0,-264.9,367.5,445.09999999999997,495.7,151.3,-12.9,27.5,-6.5,2.6,8.0,-10.3,tailOff_alfa0_balance,raw_tailOff_alfa0_balance.txt,0,0,40,-0.0,1,inf,inf
34.0,15.0,0.0,7.0,-0.0,2.0,102.91,101032.0,293.2,274.9,-120.6,65.7,137.0,138.8,60.5,243.649,1.2004316382983224,240.0778356979998,19.999646292363256,218402.6146315406,0.0,0.0,0.0,0.0,0.0,0.0,0.0,0.0,0.0,101032.0,1.510757718121763e-05,inf,inf,2.6467445337724476,-1.516199391835916,15.898158956624318,-0.6023760476495732,-1.094148195965387,-0.46878580782855495,0.05076457313266009,-0.029080711768144713,0.30492676672421043,-0.008272705857752099,-0.1272021706682751,-0.0064380499749060426,0.30492676672421043,0.05076457313266009,0.029080711768144713,0.30492676672421043,0.051748550930779284,0.027291338531622956,-0.016469190790155165,-0.14151031629067737,-0.14151031629067737,-0.0064380499749060426,287.79999999999995,-150.4,72.7,134.0,130.3,71.6,-12.9,29.8,-7.0,3.0,8.5,-11.1,tailOff_alfa0_balance,raw_tailOff_alfa0_balance.txt,0,0,20,-0.0,2,inf,inf
55.0,15.0,19.0,34.0,-0.0,1.995,231.16,101024.0,293.33,615.7,-273.0,162.9,286.9,297.9,148.8,357.176,1.1998046113249863,540.0005739031781,30.0024585997826,327353.167065783,0.0,0.0,0.0,0.0,0.0,0.0,0.0,0.0,0.0,101024.0,1.5120656173232057e-05,inf,inf,5.780679493441627,-2.8586003908191375,34.98436933355605,-1.1610284721639494,-2.3283811025964205,-1.0459611867987513,0.04929302272067642,-0.024375863455818342,0.29831879009794604,-0.0070889286362221145,-0.12034561914505254,-0.00638635863567995,0.29831879009794604,0.04929302272067642,0.024375863455818342,0.29831879009794604,0.05011172414366442,0.02264508581363963,-0.013959338106350298,-0.13423900391582022,-0.13423900391582022,-0.00638635863567995,628.6,-302.8,169.9,283.9,289.4,159.9,-12.9,29.8,-7.0,3.0,8.5,-11.1,tailOff_alfa0_balance,raw_tailOff_alfa0_balance.txt,0,0,30,-0.0,2,inf,inf
13.0,14.0,43.0,29.0,-0.0,2.0,408.92,101053.0,293.94,1073.4,-473.6,311.9,499.4,501.3,271.1,469.737,1.197658414422949,958.2235036842635,40.00201997709304,434977.1476998966,0.0,0.0,0.0,0.0,0.0,0.0,0.0,0.0,0.0,101053.0,1.5172104358464797e-05,inf,inf,9.989414557487848,-4.550871002765775,62.18377459376457,-1.9116710192380924,-4.120097138876374,-1.8451435568139576,0.04800362102873386,-0.021868977977660433,0.298820950172476,-0.0065777640772471105,-0.1200082429836625,-0.006348853376566881,0.298820950172476,0.04800362102873386,0.021868977977660433,0.298820950172476,0.048737594844636016,0.020180353773356047,-0.01274160043414464,-0.13353820606021294,-0.13353820606021294,-0.006348853376566881,1086.3000000000002,-503.40000000000003,318.9,496.4,492.8,282.20000000000005,-12.9,29.8,-7.0,3.0,8.5,-11.1,tailOff_alfa0_balance,raw_tailOff_alfa0_balance.txt,0,0,40,-0.0,2,inf,inf
35.0,15.0,0.0,53.0,-0.0,3.0,102.95,101032.0,293.16999999999996,267.8,-180.9,52.8,151.5,136.2,93.2,243.803,1.2005544781153192,240.17114153909574,20.002508929771523,218473.51996680096,0.0,0.0,0.0,0.0,0.0,0.0,0.0,0.0,0.0,101032.0,1.5104835746243398e-05,inf,inf,2.59535126551035,-2.1020670953254488,15.911817478481021,-0.7786291259377075,-1.0788821052387145,-0.6909053894324214,0.0497595110464102,-0.04030199389198053,0.3050701722386109,-0.010689115713527613,-0.12537865557399458,-0.009484833547485154,0.3050701722386109,0.0497595110464102,0.04030199389198053,0.3050701722386109,0.05180056075472578,0.03764254981723499,-0.022048352320771545,-0.13940352146405202,-0.13940352146405202,-0.009484833547485154,282.2,-213.4,59.8,148.3,127.29999999999998,105.60000000000001,-14.4,32.5,-7.0,3.2,8.9,-12.4,tailOff_alfa0_balance,raw_tailOff_alfa0_balance.txt,0,0,20,-0.0,3,inf,inf
56.0,15.0,20.0,12.0,-0.0,3.005,231.05,101024.0,293.34,604.4,-440.3,121.7,330.6,292.0,226.0,357.218,1.199763709824634,539.7426779743158,29.995804673761704,327260.7807382636,0.0,0.0,0.0,0.0,0.0,0.0,0.0,0.0,0.0,101024.0,1.5121570366502395e-05,inf,inf,5.690970137496249,-4.602583356566692,34.97537923710258,-1.6252438070984108,-2.315245418151245,-1.5596737324639338,0.04855124022800391,-0.03926591157837178,0.29838463361770307,-0.009928044518592881,-0.11972386127131109,-0.00952749992508924,0.29838463361770307,0.04855124022800391,0.03926591157837178,0.29838463361770307,0.05054292143763005,0.036666712864768955,-0.020995258250333264,-0.13340817244467904,-0.13340817244467904,-0.00952749992508924,618.8,-472.8,128.7,327.40000000000003,283.1,238.4,-14.4,32.5,-7.0,3.2,8.9,-12.4,tailOff_alfa0_balance,raw_tailOff_alfa0_balance.txt,0,0,30,-0.0,3,inf,inf
14.0,14.0,44.0,5.0,-0.0,2.995,408.9,101053.0,293.96999999999997,1059.2,-780.5,229.5,587.0,495.0,394.9,469.795,1.1975361919089758,958.1762844033029,40.0030755899742,434909.9227315741,0.0,0.0,0.0,0.0,0.0,0.0,0.0,0.0,0.0,101053.0,1.5174849981870753e-05,inf,inf,9.873514605644829,-7.946871986530881,62.33564005715923,-2.7367190017856915,-4.084217834009172,-2.665322889853703,0.04744900792398835,-0.03819016904519976,0.2995654938645696,-0.009417090534127372,-0.1189690300909312,-0.009171415457727665,0.2995654938645696,0.04744900792398835,0.03819016904519976,0.2995654938645696,0.04937958809001125,0.03565885086107603,-0.020181103039756496,-0.1323426738176458,-0.1323426738176458,-0.009171415457727665,1073.6000000000001,-813.0,236.5,583.8,486.1,407.29999999999995,-14.4,32.5,-7.0,3.2,8.9,-12.4,tailOff_alfa0_balance,raw_tailOff_alfa0_balance.txt,0,0,40,-0.0,3,inf,inf
36.0,15.0,1.0,37.0,-0.0,4.0,102.85,101035.0,293.15,265.5,-256.2,34.7,167.2,134.5,129.1,243.967,1.2006720364659196,239.93787721400173,19.99181415488309,218389.61491242,0.0,0.0,0.0,0.0,0.0,0.0,0.0,0.0,0.0,101035.0,1.5102559777217842e-05,inf,inf,2.5624534919646447,-2.9005293567223958,15.795802900288388,-1.084573955700269,-1.067456239263779,-0.9258068745977192,0.04917653904765669,-0.0556646181548342,0.3031402991511693,-0.014903638734631105,-0.1241714375133306,-0.012721945907444868,0.3031402991511693,0.04917653904765669,0.0556646181548342,0.3031402991511693,0.05293971494493526,0.05209863998779813,-0.03059287659138308,-0.13803199101509808,-0.13803199101509808,-0.012721945907444868,278.6,-291.2,42.7,164.2,125.5,141.5,-13.1,35.0,-8.0,3.0,9.0,-12.4,tailOff_alfa0_balance,raw_tailOff_alfa0_balance.txt,0,0,20,-0.0,4,inf,inf
57.0,15.0,21.0,7.0,-0.0,4.0,230.92,101023.0,293.34,592.8,-640.6,75.5,374.5,285.0,320.9,358.049,1.1997518337980482,539.4378933203274,29.98748280367146,327166.74878064677,0.0,0.0,0.0,0.0,0.0,0.0,0.0,0.0,0.0,101023.0,1.512172005093432e-05,inf,inf,5.572848387420966,-6.667660529673128,34.738353174983196,-2.3524637960246157,-2.2827206730781744,-2.1806983840810457,0.047570373189947744,-0.056915795595010456,0.29652994477083156,-0.014378495750486659,-0.11810866549749281,-0.013328648245974682,0.29652994477083156,0.047570373189947744,0.056915795595010456,0.29652994477083156,0.05142473935278497,0.05345881008909606,-0.030420381682634126,-0.13151651638466774,-0.13151651638466774,-0.013328648245974682,605.9,-675.6,83.5,371.5,276.0,333.29999999999995,-13.1,35.0,-8.0,3.0,9.0,-12.4,tailOff_alfa0_balance,raw_tailOff_alfa0_balance.txt,0,0,30,-0.0,4,inf,inf
15.0,14.0,44.0,56.0,-0.0,4.005,408.86,101051.0,293.96999999999997,1039.9,-1110.4,150.3,663.7,482.5,547.4,470.41,1.1975124907582548,958.0818459524403,40.00150002607786,434884.1861175174,0.0,0.0,0.0,0.0,0.0,0.0,0.0,0.0,0.0,101051.0,1.5175150322292555e-05,inf,inf,9.684928026260424,-11.369118299479172,61.95477412444232,-3.826615480126827,-4.048790863868615,-3.663856522022666,0.04654730782833411,-0.05464179473380564,0.29776451975542856,-0.013168738343925136,-0.11794870428689137,-0.012608627158587921,0.29776451975542856,0.04654730782833411,0.05464179473380564,0.29776451975542856,0.050250013082726495,0.051257329066025877,-0.028569690383403786,-0.1310682011651209,-0.1310682011651209,-0.012608627158587921,1053.0,-1145.4,158.3,660.7,473.5,559.8,-13.1,35.0,-8.0,3.0,9.0,-12.4,tailOff_alfa0_balance,raw_tailOff_alfa0_balance.txt,0,0,40,-0.0,4,inf,inf
37.0,15.0,2.0,19.0,-0.0,5.005,103.06,101033.0,293.13,325.8,2.9,76.2,117.9,162.5,-31.4,244.131,1.200730188185129,240.42773336563548,20.0117267464092,218629.2655096381,0.0,0.0,0.0,0.0,0.0,0.0,0.0,0.0,0.0,101033.0,1.5101031320467827e-05,inf,inf,3.1002935329324854,-0.7746104523602022,15.975054397088766,-0.3257374177806246,-1.2674953223195857,0.12336334704505982,0.05937710692885268,-0.014835410637551486,0.3059557113074281,-0.004466990642467979,-0.14714050567497639,0.0016917396859974438,0.3059557113074281,0.05937710692885268,0.014835410637551486,0.3059557113074281,0.060444988211993365,0.00959862678080381,-0.008648395166751416,-0.16387611951250097,-0.16387611951250097,0.0016917396859974438,337.1,-33.7,84.2,114.4,153.7,-19.299999999999997,-11.3,36.6,-8.0,3.5,8.8,-12.1,tailOff_alfa0_balance,raw_tailOff_alfa0_balance.txt,0,0,20,-0.0,5,inf,inf
58.0,15.0,21.0,56.0,-0.0,5.005,231.03,101023.0,293.34,574.7,-824.5,27.3,427.0,273.3,394.9,358.583,1.1997518337980482,539.6957879257448,29.994650158838926,327244.945416985,0.0,0.0,0.0,0.0,0.0,0.0,0.0,0.0,0.0,101023.0,1.512172005093432e-05,inf,inf,5.390354005584712,-8.717907236801265,34.694486128500756,-2.8877727627401706,-2.2392154539696616,-2.6639592685816376,0.04599059628832132,-0.07438133966551427,0.29601397298090065,-0.017641923836189927,-0.11580232935331197,-0.016274606896158363,0.29601397298090065,0.04599059628832132,0.07438133966551427,0.29601397298090065,0.05230446539261502,0.07008538747402841,-0.03860652520774836,-0.1287649154314968,-0.1287649154314968,-0.016274606896158363,586.0,-861.1,35.3,423.5,264.5,407.0,-11.3,36.6,-8.0,3.5,8.8,-12.1,tailOff_alfa0_balance,raw_tailOff_alfa0_balance.txt,0,0,30,-0.0,5,inf,inf
16.0,14.0,45.0,44.0,-0.0,5.005,408.89,101052.0,293.97999999999996,1004.1,-1452.3,67.7,750.1,461.4,694.6,470.906,1.1974836064420809,958.152674776705,40.00346105887929,434883.5803242552,0.0,0.0,0.0,0.0,0.0,0.0,0.0,0.0,0.0,101052.0,1.5175915408618688e-05,inf,inf,9.34004043421248,-15.037340393851895,61.652936971119104,-4.958006621230368,-3.956418750679057,-4.626716260992654,0.04488640473701898,-0.07226651231769234,0.2962919380921191,-0.01706099444929618,-0.11524921508393261,-0.015920991333342627,0.2962919380921191,0.04488640473701898,0.07226651231769234,0.2962919380921191,0.051019980827148786,0.06807495640230722,-0.03742952545540901,-0.12790058149580066,-0.12790058149580066,-0.015920991333342627,1015.4,-1488.8999999999999,75.7,746.6,452.59999999999997,706.7,-11.3,36.6,-8.0,3.5,8.8,-12.1,tailOff_alfa0_balance,raw_tailOff_alfa0_balance.txt,0,0,40,-0.0,5,inf,inf
38.0,15.0,3.0,3.0,-0.0,5.995,103.04,101031.0,293.13,346.4,52.3,83.6,114.1,175.4,-71.0,244.214,1.200706419115851,240.38108022297087,20.009983146706432,218605.88908137317,0.0,0.0,0.0,0.0,0.0,0.0,0.0,0.0,0.0,101031.0,1.5101330259037582e-05,inf,inf,3.3063485039881737,-0.52242117609305,16.48339190874986,-0.2416432190737283,-1.3324145602369861,0.37533558313469667,0.06333578050734501,-0.010007400279041125,0.3157527074625833,-0.003314410420335408,-0.15470684466955523,0.005148152605452342,0.3157527074625833,0.06333578050734501,0.010007400279041125,0.3157527074625833,0.06403458761527744,0.0033377749715782206,-0.006135025894043941,-0.17255822240574606,-0.17255822240574606,0.005148152605452342,359.5,12.0,91.6,110.6,165.4,-58.0,-13.1,40.3,-8.0,3.5,10.0,-13.0,tailOff_alfa0_balance,raw_tailOff_alfa0_balance.txt,0,0,20,-0.0,6,inf,inf
59.0,15.0,22.0,35.0,-0.0,5.995,230.76,101026.0,293.34999999999997,537.7,-1027.0,-7.5,490.3,257.4,484.3,358.961,1.1997465623563515,539.0627758933156,29.97712041270895,327043.63393155177,0.0,0.0,0.0,0.0,0.0,0.0,0.0,0.0,0.0,101026.0,1.512218520231343e-05,inf,inf,5.066966566920059,-10.893920347371255,36.029079169133986,-3.5884800822399034,-2.120426142864446,-3.255430024568637,0.04328221484525052,-0.09305626843095131,0.30776171989287177,-0.021948414444934387,-0.10978784178892846,-0.0199113623980646,0.30776171989287177,0.04328221484525052,0.09305626843095131,0.30776171989287177,0.05276445748681413,0.0880268779539856,-0.04817659992199874,-0.12198706251806955,-0.12198706251806955,-0.0199113623980646,550.8000000000001,-1067.3,0.5,486.8,247.39999999999998,497.3,-13.1,40.3,-8.0,3.5,10.0,-13.0,tailOff_alfa0_balance,raw_tailOff_alfa0_balance.txt,0,0,30,-0.0,6,inf,inf
17.0,14.0,46.0,25.0,-0.0,5.995,408.57,101049.0,294.0,944.6,-1790.8,5.2,859.3,433.6,836.9,471.248,1.1973665968739002,957.3971716121359,39.98964038791656,434667.99618632527,0.0,0.0,0.0,0.0,0.0,0.0,0.0,0.0,0.0,101049.0,1.5178196591936543e-05,inf,inf,8.810005747248585,-18.730503099478753,63.816307348043026,-6.0627200283304505,-3.7744985710381123,-5.56576968746435,0.04237257262202814,-0.09008616175734631,0.306930687124593,-0.02087888627580152,-0.11003670224520828,-0.019167481229357144,0.306930687124593,0.04237257262202814,0.09008616175734631,0.306930687124593,0.051549587170389724,0.08516801931090216,-0.0462699383707146,-0.12197953761363454,-0.12197953761363454,-0.019167481229357144,957.7,-1831.1,13.2,855.8,423.6,849.9,-13.1,40.3,-8.0,3.5,10.0,-13.0,tailOff_alfa0_balance,raw_tailOff_alfa0_balance.txt,0,0,40,-0.0,6,inf,inf
39.0,15.0,3.0,44.0,-0.0,7.0,102.89,101032.0,293.09999999999997,357.0,36.3,74.1,123.9,179.8,-76.4,244.146,1.2008412021462578,240.031182832981,19.99429245284956,218476.2882337988,0.0,0.0,0.0,0.0,0.0,0.0,0.0,0.0,0.0,101032.0,1.5098439786306639e-05,inf,inf,3.3764049712163597,-0.8594317190214052,16.611187891456396,-0.3001675215332781,-1.3487854742268133,0.40781229097724164,0.06477205065827336,-0.016487108423409048,0.3186645893403895,-0.0041231391285517826,-0.15683596340173828,0.0056017613279529775,0.3186645893403895,0.06477205065827336,0.016487108423409048,0.3186645893403895,0.06629852269299631,0.00847048873261915,-0.008770079576529316,-0.1750921581432625,-0.1750921581432625,0.0056017613279529775,367.1,-5.200000000000003,82.6,119.9,169.8,-63.10000000000001,-10.1,41.5,-8.5,4.0,10.0,-13.3,tailOff_alfa0_balance,raw_tailOff_alfa0_balance.txt,0,0,20,-0.0,7,inf,inf
60.0,15.0,23.0,32.0,-0.0,7.0,231.23,101024.0,293.35999999999996,508.4,-1200.5,-50.5,545.8,240.5,549.0,359.53,1.1996819151893858,540.1646900773285,30.008551832768703,327360.2717469789,0.0,0.0,0.0,0.0,0.0,0.0,0.0,0.0,0.0,101024.0,1.5123398814882497e-05,inf,inf,4.770348530291036,-12.879133051385141,36.38632425732625,-4.098661624964077,-2.026920944345585,-3.6821212982305838,0.04066536738106923,-0.10978960420996643,0.31017927394093564,-0.025017725881622335,-0.10473240101999562,-0.022475215016761352,0.31017927394093564,0.04066536738106923,0.10978960420996643,0.31017927394093564,0.053742240876940434,0.10401538752676606,-0.055962251717720776,-0.11619405552374416,-0.11619405552374416,-0.022475215016761352,518.5,-1242.0,-42.0,541.8,230.5,562.3,-10.1,41.5,-8.5,4.0,10.0,-13.3,tailOff_alfa0_balance,raw_tailOff_alfa0_balance.txt,0,0,30,-0.0,7,inf,inf
18.0,14.0,47.0,2.0,-0.0,7.0,408.71,101049.0,294.02,892.2,-2090.9,-64.3,955.8,403.8,945.8,471.664,1.197285148904587,957.7277030805225,39.997903200519694,434705.377069355,0.0,0.0,0.0,0.0,0.0,0.0,0.0,0.0,0.0,101049.0,1.5180027306399118e-05,inf,inf,8.301258608960346,-22.19013074172624,64.75030966022157,-7.030527442867055,-3.624996016691691,-6.28348372705264,0.039911924997828745,-0.1066887414999725,0.31131538294150435,-0.024203479982228833,-0.10564183222151502,-0.0216316875002994,0.31131538294150435,0.039911924997828745,0.1066887414999725,0.31131538294150435,0.052616514436515154,0.10102945970573261,-0.05427401845919541,-0.11689112675309708,-0.11689112675309708,-0.0216316875002994,902.3000000000001,-2132.4,-55.8,951.8,393.8,959.0999999999999,-10.1,41.5,-8.5,4.0,10.0,-13.3,tailOff_alfa0_balance,raw_tailOff_alfa0_balance.txt,0,0,40,-0.0,7,inf,inf
40.0,15.0,4.0,22.0,-0.0,8.005,103.05,101029.0,293.09,362.8,-6.8,58.5,140.5,181.8,-68.3,244.369,1.2008465154326382,240.4044067896757,20.00978668764222,218652.33126301787,0.0,0.0,0.0,0.0,0.0,0.0,0.0,0.0,0.0,101029.0,1.5097974472874455e-05,inf,inf,3.4262834357865284,-1.4508740516786562,16.711251879422523,-0.42731180563515236,-1.387901374050938,0.3468572553219585,0.06562686272899129,-0.027789969513924054,0.32008648836978154,-0.005860496659953493,-0.16113379012310133,0.0047570784600100245,0.32008648836978154,0.06562686272899129,0.027789969513924054,0.32008648836978154,0.06885740706626152,0.018380016576321503,-0.013693182056682037,-0.17963091618410418,-0.17963091618410418,0.0047570784600100245,372.5,-49.4,67.9,135.8,170.8,-53.9,-9.7,42.6,-9.4,4.7,11.0,-14.4,tailOff_alfa0_balance,raw_tailOff_alfa0_balance.txt,0,0,20,-0.0,8,inf,inf
61.0,15.0,24.0,15.0,-0.0,8.0,230.86,101025.0,293.37,476.0,-1367.6,-94.0,600.7,222.0,607.1,359.514,1.1996528968660631,539.2972240075522,29.984808994792353,327084.7281149284,0.0,0.0,0.0,0.0,0.0,0.0,0.0,0.0,0.0,101025.0,1.5124163361374076e-05,inf,inf,4.469148650115811,-14.832125317748293,36.624306112878564,-4.586207676004508,-1.9622057383885032,-4.071099861156566,0.03815903615180747,-0.1266414815254421,0.31271016706056115,-0.028038675062292247,-0.10155160641893123,-0.02488946297620732,0.31271016706056115,0.03815903615180747,0.1266414815254421,0.31271016706056115,0.05541276272916276,0.12009830394187654,-0.06373295254134415,-0.11230684402614567,-0.11230684402614567,-0.02488946297620732,485.7,-1410.1999999999998,-84.6,596.0,211.0,621.5,-9.7,42.6,-9.4,4.7,11.0,-14.4,tailOff_alfa0_balance,raw_tailOff_alfa0_balance.txt,0,0,30,-0.0,8,inf,inf
19.0,14.0,47.0,45.0,-0.0,8.0,408.69,101047.0,294.03,856.4,-2322.0,-130.1,1041.6,381.0,1010.4,472.001,1.19722073276077,957.6804841882662,39.99799317643506,434671.539450317,0.0,0.0,0.0,0.0,0.0,0.0,0.0,0.0,0.0,101047.0,1.5181243167403906e-05,inf,inf,7.96908467085635,-25.08351550932847,65.41355902437728,-7.64604488008163,-3.583113855162952,-6.717296355747996,0.038316742899132034,-0.12060589822721123,0.3145197506083121,-0.026323774456146535,-0.10442642541245739,-0.023126282541767858,0.3145197506083121,0.038316742899132034,0.12060589822721123,0.3145197506083121,0.05472894384154581,0.11409950998834108,-0.060316904867113136,-0.1152261131345277,-0.1152261131345277,-0.023126282541767858,866.1,-2364.6,-120.69999999999999,1036.8999999999999,370.0,1024.8,-9.7,42.6,-9.4,4.7,11.0,-14.4,tailOff_alfa0_balance,raw_tailOff_alfa0_balance.txt,0,0,40,-0.0,8,inf,inf
41.0,15.0,5.0,3.0,-0.0,9.0,102.93,101034.0,293.09,365.2,-49.6,43.3,157.1,181.2,-59.9,244.28,1.2009059462156526,240.12448860003806,19.99763911611648,218530.40617184382,0.0,0.0,0.0,0.0,0.0,0.0,0.0,0.0,0.0,101034.0,1.5097227299919168e-05,inf,inf,3.4476528082403175,-2.063555410858455,16.78307288842442,-0.5524876717037538,-1.4216347656787032,0.28781068463489773,0.06611315038674351,-0.03957131323762739,0.3218368796219977,-0.0075860918060339354,-0.16524260149335307,0.003951867866417371,0.3218368796219977,0.06611315038674351,0.03957131323762739,0.3218368796219977,0.07148950501426714,0.02874174939396805,-0.018739383901962142,-0.18387678917414563,-0.18387678917414563,0.003951867866417371,374.8,-94.7,52.599999999999994,152.6,169.89999999999998,-45.0,-9.6,45.1,-9.3,4.5,11.3,-14.9,tailOff_alfa0_balance,raw_tailOff_alfa0_balance.txt,0,0,20,-0.0,9,inf,inf
62.0,15.0,25.0,3.0,-0.0,9.0,230.79,101024.0,293.38,448.3,-1516.8,-137.0,652.3,206.5,652.9,359.646,1.1996001317061769,539.1331102304106,29.980905645057707,327019.14323331695,0.0,0.0,0.0,0.0,0.0,0.0,0.0,0.0,0.0,101024.0,1.5125227345712451e-05,inf,inf,4.213952274720527,-16.6808394301571,36.77520079564411,-4.994986633271673,-1.89786683142097,-4.376066699019496,0.035991039437061334,-0.14246975538276319,0.3140941367755897,-0.03054712074838947,-0.09825172241984569,-0.02676208119708178,0.3140941367755897,0.035991039437061334,0.14246975538276319,0.3140941367755897,0.057835109985600375,0.13508547727841802,-0.07070264419734214,-0.10839590371772381,-0.10839590371772381,-0.02676208119708178,457.90000000000003,-1561.8999999999999,-127.7,647.8,195.2,667.8,-9.6,45.1,-9.3,4.5,11.3,-14.9,tailOff_alfa0_balance,raw_tailOff_alfa0_balance.txt,0,0,30,-0.0,9,inf,inf
20.0,14.0,48.0,22.0,-0.0,8.995,408.71,101045.0,294.04999999999995,826.9,-2504.8,-191.2,1118.8,359.9,1043.9,472.327,1.1971156083195775,957.7277030805225,40.00073543651247,434640.3184743631,0.0,0.0,0.0,0.0,0.0,0.0,0.0,0.0,0.0,101045.0,1.5183374562621405e-05,inf,inf,7.6976011635604475,-27.619387422691176,65.88966057986784,-8.070258472050245,-3.5737482363367263,-6.944300128082198,0.037009578279082314,-0.13279226334553174,0.31679330991537846,-0.02778288556114727,-0.10414833832826512,-0.023906631544572277,0.31679330991537846,0.037009578279082314,0.13279226334553174,0.31679330991537846,0.057316275012123,0.12537279891411557,-0.06521077915361521,-0.11457959782210532,-0.11457959782210532,-0.023906631544572277,836.5,-2549.9,-181.89999999999998,1114.3,348.59999999999997,1058.8000000000002,-9.6,45.1,-9.3,4.5,11.3,-14.9,tailOff_alfa0_balance,raw_tailOff_alfa0_balance.txt,0,0,40,-0.0,9,inf,inf
42.0,15.0,5.0,41.0,-0.0,10.005,103.05,101031.0,293.07,368.0,-97.3,26.7,176.5,181.4,-49.6,244.502,1.2009522388351908,240.4044067896757,20.00890590769731,218673.50019590213,0.0,0.0,0.0,0.0,0.0,0.0,0.0,0.0,0.0,101031.0,1.509584838643861e-05,inf,inf,3.4745396172976104,-2.7317714276875353,17.004906740550634,-0.6778565255939559,-1.4533827844544702,0.2091487378552117,0.06655115923253671,-0.05232421422563249,0.32571113899257265,-0.009296667800381169,-0.16873610829800947,0.0028684334564828243,0.32571113899257265,0.06655115923253671,0.05232421422563249,0.32571113899257265,0.0746295900333607,0.039966291809183985,-0.0240444028943351,-0.18749375007213465,-0.18749375007213465,0.0028684334564828243,377.7,-145.8,36.6,172.3,169.6,-33.1,-9.7,48.5,-9.9,4.2,11.8,-16.5,tailOff_alfa0_balance,raw_tailOff_alfa0_balance.txt,0,0,20,-0.0,10,inf,inf
63.0,15.0,26.0,13.0,-0.0,10.0,231.03,101021.0,293.39,422.7,-1638.7,-176.5,701.7,189.7,682.4,360.007,1.199523622137912,539.6957879257448,29.997503292882257,327170.6899490051,0.0,0.0,0.0,0.0,0.0,0.0,0.0,0.0,0.0,101021.0,1.5126590839983403e-05,inf,inf,3.9798599623193907,-18.29576263562098,37.0176995588305,-5.259830344871121,-1.8750463196895408,-4.581755357797342,0.0339562360137106,-0.15609977235076322,0.3158356713063173,-0.03213325076431787,-0.09696911080194143,-0.02799076856089478,0.3158356713063173,0.0339562360137106,0.15609977235076322,0.3158356713063173,0.06054680549234727,0.14783182755026328,-0.07613043495380949,-0.10653977671502192,-0.10653977671502192,-0.02799076856089478,432.4,-1687.2,-166.6,697.5,177.89999999999998,698.9,-9.7,48.5,-9.9,4.2,11.8,-16.5,tailOff_alfa0_balance,raw_tailOff_alfa0_balance.txt,0,0,30,-0.0,10,inf,inf
21.0,14.0,49.0,4.0,-0.0,10.0,408.54,101047.0,294.08,851.1,-2512.6,-226.9,1159.8,363.6,975.9,472.712,1.1970171791813424,957.3263436763378,39.99399713636913,434497.1066911459,0.0,0.0,0.0,0.0,0.0,0.0,0.0,0.0,0.0,101047.0,1.5185820507203994e-05,inf,inf,7.921704135940438,-28.61539017756729,66.35355010311432,-7.882404417921071,-3.7664298461132573,-6.515072690476817,0.03810301916912287,-0.13763866230764452,0.319157412108799,-0.02714755106950923,-0.10980960106849778,-0.022438365149619163,0.319157412108799,0.03810301916912287,0.13763866230764452,0.319157412108799,0.06142485157716147,0.12893110191247117,-0.06594141659506049,-0.12054905012286683,-0.12054905012286683,-0.022438365149619163,860.8000000000001,-2561.1,-217.0,1155.6,351.8,992.4,-9.7,48.5,-9.9,4.2,11.8,-16.5,tailOff_alfa0_balance,raw_tailOff_alfa0_balance.txt,0,0,40,-0.0,10,inf,inf
