run,hr,min,sec,AoA,AoS,dPb,pBar,temp,B1,B2,B3,B4,B5,B6,rpmWT,rho,q,V,Re,rpsM1,rpsM2,iM1,iM2,dPtQ,tM1,tM2,vM1,vM2,pInf,nu,J_M1,J_M2,FX,FY,FZ,MX,MY,MZ,CFX,CFY,CFZ,CMX,CMY,CMZ,CN,CT,CY,CL,CD,CYaw,CMroll,CMpitch,CMpitch25c,CMyaw,B1_zeroed,B2_zeroed,B3_zeroed,B4_zeroed,B5_zeroed,B6_zeroed,B1_zero,B2_zero,B3_zero,B4_zero,B5_zero,B6_zero,config,source_file,dR,dE,V_round,AoA_round,AoS_round,J,J_round
22.0,14.0,51.0,33.0,-0.0,-9.995,102.77,101040.0,293.59,391.5,53.3,153.9,49.4,176.9,74.9,244.422,1.1989319324846828,239.75126642027644,19.998535306227172,217893.52251001532,0.0,0.0,0.0,0.0,0.0,0.0,0.0,0.0,0.0,101040.0,1.514203372836018e-05,inf,inf,3.5902332851758416,1.7724958322027904,16.825689648695143,0.17319831757866616,-1.4844925967621125,-0.4840164241107088,0.06895448832954111,0.03404278593272566,0.3231563880007328,0.0023818516834370747,-0.1728174399301253,-0.006656273286578903,0.3231563880007328,0.06895448832954111,-0.03404278593272566,0.3231563880007328,0.0738165014233147,-0.021558220067342877,0.011976911948098901,-0.1922524671440656,-0.1922524671440656,-0.006656273286578903,390.5,53.3,153.9,49.4,176.9,74.9,1.0,0.0,0.0,0.0,0.0,0.0,tailOff_alfa0_balance,raw_tailOff_alfa0_balance.txt,0,0,20,-0.0,-10,inf,inf
22.0,18.0,39.0,1.0,0.0,-10.0,229.65,100884.0,294.78999999999996,835.5,355.7,393.1,63.1,381.8,37.6,359.961,1.192207899625275,536.4604639763018,29.999074787617214,323998.0007564202,0.0,0.0,0.0,0.0,0.0,0.0,0.0,0.0,0.0,100884.0,1.5275515326537995e-05,inf,inf,7.679918190672924,6.135252112393879,37.378169480497306,1.1140404219553826,-3.1327406509155917,-0.23396037452633411,0.06592037268649334,0.05266177265609162,0.32083451949862457,0.006846918900186424,-0.16298857503004982,-0.0014379260201594444,0.32083451949862457,0.06592037268649334,-0.05266177265609162,0.32083451949862457,0.07406351495755334,-0.040414769410950874,0.02168979583974314,-0.181568427743803,-0.181568427743803,-0.0014379260201594444,835.4,355.7,393.1,63.1,381.8,37.6,0.1,0.0,0.0,0.0,0.0,0.0,tailOff_alfa0_V50_balance,raw_tailOff_alfa0_V50_balance.txt,0,0,30,0.0,-10,inf,inf
43.0,15.0,9.0,52.0,-0.0,-9.995,231.21,101030.0,293.15999999999997,840.4,336.6,394.5,66.8,381.8,49.6,360.482,1.200571663671001,540.1177996955827,29.996128012450356,327640.2190327899,0.0,0.0,0.0,0.0,0.0,0.0,0.0,0.0,0.0,101030.0,1.5104220974574322e-05,inf,inf,7.716722636469482,5.978440771608014,37.69139193133209,0.9865092834656922,-3.1714892516860207,-0.31224546783842766,0.0657877725008526,0.05096830868762625,0.3213323627701898,0.006022053955075224,-0.16388726031374004,-0.0019060733498065556,0.3213323627701898,0.0657877725008526,-0.05096830868762625,0.3213323627701898,0.07363547872834161,-0.03877648480134638,0.02038762304839488,-0.182429739271572,-0.182429739271572,-0.0019060733498065556,839.4,336.6,394.5,66.8,381.8,49.6,1.0,0.0,0.0,0.0,0.0,0.0,tailOff_alfa0_balance,raw_tailOff_alfa0_balance.txt,0,0,30,-0.0,-10,inf,inf
1.0,14.0,34.0,24.0,-0.0,-10.0,409.54,101064.0,293.54999999999995,1234.6,1415.3,891.0,-11.2,543.3,-374.2,473.888,1.199380123268635,959.6873197556819,40.00381889759869,436069.44968050555,0.0,0.0,0.0,0.0,0.0,0.0,0.0,0.0,0.0,101064.0,1.5134780637660197e-05,inf,inf,11.337239311579536,17.95938431206239,67.32213059840578,4.299914456600937,-4.89122279941642,2.4630152381140262,0.054397424560752056,0.08617126501644405,0.32301960114359224,0.014772772669167083,-0.14225191786275584,0.00846192745474187,0.32301960114359224,0.054397424560752056,-0.08617126501644405,0.32301960114359224,0.06853448858868494,-0.07541611623031484,0.039060399497031884,-0.15758399344359306,-0.15758399344359306,0.00846192745474187,1233.6,1415.3,891.0,-11.2,543.3,-374.2,1.0,0.0,0.0,0.0,0.0,0.0,tailOff_alfa0_balance,raw_tailOff_alfa0_balance.txt,0,0,40,-0.0,-10,inf,inf
1.0,18.0,29.0,12.0,0.0,-10.0,633.35,100886.0,294.78,1407.5,3554.4,1732.8,-237.6,560.3,-1360.4,585.896,1.1922719796384158,1490.425654803632,50.001437239583964,540072.0228653919,0.0,0.0,0.0,0.0,0.0,0.0,0.0,0.0,0.0,100886.0,1.5274294066748413e-05,inf,inf,12.926990280967221,39.921759698167364,105.45761677386376,10.138846457721407,-6.35292653846686,8.904455911933553,0.039938144677658764,0.12333891957508604,0.32581300554366405,0.022429014114931454,-0.11896903998220784,0.019698312640137064,0.32581300554366405,0.039938144677658764,-0.12333891957508604,0.32581300554366405,0.06074897313910337,-0.11452993820302027,0.057192454705249654,-0.1302257246083781,-0.1302257246083781,0.019698312640137064,1407.4,3554.4,1732.8,-237.6,560.3,-1360.4,0.1,0.0,0.0,0.0,0.0,0.0,tailOff_alfa0_V50_balance,raw_tailOff_alfa0_V50_balance.txt,0,0,50,0.0,-10,inf,inf
22.0,19.0,8.0,11.0,4.995,-10.0,102.48,100880.0,294.09,460.8,45.1,319.8,216.5,277.1,85.4,245.432,1.1949982382127233,239.0748072582547,20.003144511232943,216943.08783935258,0.0,0.0,0.0,0.0,0.0,0.0,0.0,0.0,0.0,100880.0,1.5211876648698731e-05,inf,inf,4.242986605372691,1.7707885485126746,39.73390080033878,0.19444533861829613,-0.8745325005603188,-0.5524662129488952,0.08172193242040707,0.034106226474799925,0.7652937560285383,0.002681610377656523,-0.1020969058991951,-0.0076191033453190515,0.7695028312319062,0.014778361914437765,-0.034106226474799925,0.7652937560285384,0.08640287671320124,-0.01939721161814947,0.012911246776408371,-0.1251304751278709,-0.1251304751278709,-0.006466001410107918,461.7,45.1,319.8,216.5,277.1,85.4,-0.9,0.0,0.0,0.0,0.0,0.0,tailOff_alfa5_betaSweep_balance,raw_tailOff_alfa5_betaSweep_balance.txt,0,0,20,5.0,-10,inf,inf
43.0,19.0,16.0,56.0,4.995,-10.0,230.41,100869.0,293.84999999999997,980.1,339.1,773.5,436.1,600.5,65.6,360.982,1.195843835378437,538.2422147816898,30.003135386636746,325833.3048954884,0.0,0.0,0.0,0.0,0.0,0.0,0.0,0.0,0.0,100869.0,1.5191529742659524e-05,inf,inf,9.014238484993761,6.214706132391117,89.00979496309276,1.086125770347353,-1.707692153621445,-0.41617466620974863,0.07711734478982028,0.05316717949906203,0.7614840742528661,0.006653257266986325,-0.08855279374241186,-0.0025493522001693164,0.7653067015279814,0.010522965577140553,-0.05316717949906203,0.7614840742528661,0.08517814287243333,-0.03896816418720337,0.02177837683147503,-0.1102885462795658,-0.1102885462795658,-0.0006434532139890376,981.0,339.1,773.5,436.1,600.5,65.6,-0.9,0.0,0.0,0.0,0.0,0.0,tailOff_alfa5_betaSweep_balance,raw_tailOff_alfa5_betaSweep_balance.txt,0,0,30,5.0,-10,inf,inf
1.0,18.0,58.0,13.0,4.995,-10.0,408.1,100879.0,294.09,1516.7,1265.8,1533.8,671.7,940.9,-258.5,474.189,1.194986392472852,956.287543520823,40.006242879793255,433881.3742328097,0.0,0.0,0.0,0.0,0.0,0.0,0.0,0.0,0.0,100879.0,1.5212027441992168e-05,inf,inf,13.941104268821178,16.999277300406423,158.49143364876977,3.950624891955846,-2.4880116596184507,1.7089835670670854,0.0671288887212795,0.0818545340625049,0.763164352516815,0.013621008144684426,-0.07261633962817876,0.0058922524215221745,0.7661109156353548,0.0004261428418950719,-0.0818545340625049,0.763164352516815,0.08032294073753947,-0.06895417056870035,0.03603957512311747,-0.09153681617358597,-0.09153681617358597,0.009007798262749347,1517.6000000000001,1265.8,1533.8,671.7,940.9,-258.5,-0.9,0.0,0.0,0.0,0.0,0.0,tailOff_alfa5_betaSweep_balance,raw_tailOff_alfa5_betaSweep_balance.txt,0,0,40,5.0,-10,inf,inf
64.0,19.0,25.0,39.0,4.995,-9.995,633.68,100878.0,294.59999999999997,1890.3,3259.0,2709.4,851.7,1214.3,-1125.8,587.639,1.1929058535258057,1491.21163260932,50.00132977212115,540613.031526579,0.0,0.0,0.0,0.0,0.0,0.0,0.0,0.0,0.0,100878.0,1.525897579870168e-05,inf,inf,17.363874369472402,38.0991286105428,248.3797686273166,10.054191569401814,-2.558027952244176,7.377570215022771,0.05361769417331593,0.1176458308003748,0.7669688336672228,0.022230018729014974,-0.047878048913863526,0.016311955359364295,0.7687245449036382,-0.013364991882437838,-0.1176458308003748,0.7669688336672228,0.07322280671095567,-0.1065543016989163,0.05375823262557478,-0.06299035517052079,-0.06299035517052079,0.020930672684098237,1891.2,3259.0,2709.4,851.7,1214.3,-1125.8,-0.9,0.0,0.0,0.0,0.0,0.0,tailOff_alfa5_betaSweep_balance,raw_tailOff_alfa5_betaSweep_balance.txt,0,0,50,5.0,-10,inf,inf
1.0,19.0,45.0,41.0,10.0,-9.995,407.22,100856.0,294.47999999999996,2258.8,1261.3,1997.0,1041.2,1662.6,-192.7,477.301,1.1931316990921288,954.2099969620201,39.99381071752838,432630.03363398707,0.0,0.0,0.0,0.0,0.0,0.0,0.0,0.0,0.0,100856.0,1.5251285867455426e-05,inf,inf,20.76027393339195,17.760724778879965,227.35697312334656,3.230973554189155,-0.32412620883929577,1.2784809995011126,0.10018204638986838,0.08570723871102229,1.0971477014986428,0.011164040328602973,-0.009480704892077224,0.004417558113181466,1.0978759924259316,-0.0918576429993295,-0.08570723871102229,1.0971477014986426,0.11353711376581972,-0.06701863161880586,0.03401717551656618,-0.03771731203837639,-0.03771731203837639,0.010257466017070926,2259.6000000000004,1262.3,1997.0,1041.1000000000001,1662.6,-192.2,-0.8,-1.0,0.0,0.1,0.0,-0.5,tailOff_alfa10_betaSweep_balance,raw_tailOff_alfa10_betaSweep_balance.txt,0,0,40,10.0,-10,inf,inf
23.0,14.0,52.0,28.0,-0.0,-9.0,102.82,101043.0,293.53,386.3,5.8,135.1,65.5,178.5,84.3,244.35,1.1992126092702422,239.8678980969433,20.00105800971023,218006.47868457355,0.0,0.0,0.0,0.0,0.0,0.0,0.0,0.0,0.0,101043.0,1.5136097246511229e-05,inf,inf,3.5637915142324372,1.1154537820306774,16.700000172438674,0.02557039060703247,-1.4589224152761573,-0.5483218281031311,0.06841336321707535,0.0214131338595886,0.3205864240260806,0.00035147722452414835,-0.16975810107991648,-0.007536945260221889,0.3205864240260806,0.06841336321707535,-0.0214131338595886,0.3205864240260806,0.07092083333056518,-0.010447294772252431,0.006386832563656729,-0.18904061057468152,-0.18904061057468152,-0.007536945260221889,387.6,4.6,136.1,65.2,176.7,84.6,-1.3,1.2,-1.0,0.3,1.8,-0.3,tailOff_alfa0_balance,raw_tailOff_alfa0_balance.txt,0,0,20,-0.0,-9,inf,inf
23.0,18.0,39.0,21.0,0.0,-9.0,229.93,100885.0,294.76,825.5,269.4,355.7,96.2,384.0,48.5,359.861,1.192341058638124,537.116892264284,30.01574683811783,324239.76081558905,0.0,0.0,0.0,0.0,0.0,0.0,0.0,0.0,0.0,100885.0,1.527260864824914e-05,inf,inf,7.610442516659136,4.923004843030476,37.18335175949628,0.919271992260495,-3.034375033472074,-0.31423851236313627,0.06524419544006647,0.04220483755418664,0.318772248000408,0.0056429626144469044,-0.15767792147762805,-0.0019289570357998087,0.318772248000408,0.06524419544006647,-0.04220483755418664,0.318772248000408,0.07104322231256315,-0.03147878515833489,0.017538521356112446,-0.1760671916273725,-0.1760671916273725,-0.0019289570357998087,827.8,270.4,357.7,94.5,383.7,49.6,-2.3,-1.0,-2.0,1.7,0.3,-1.1,tailOff_alfa0_V50_balance,raw_tailOff_alfa0_V50_balance.txt,0,0,30,0.0,-9,inf,inf
44.0,15.0,10.0,48.0,-0.0,-9.0,231.24,101033.0,293.21,826.7,255.6,356.7,99.7,382.9,56.2,360.388,1.2004025785706722,540.1881352820836,30.00019368232209,327595.2574374111,0.0,0.0,0.0,0.0,0.0,0.0,0.0,0.0,0.0,101033.0,1.5108341493950498e-05,inf,inf,7.612312665109104,4.7528234795676765,37.420482813788524,0.8197734391532697,-3.069991351655834,-0.3594015310234338,0.0648891907561377,0.04051421466297546,0.31898122874277574,0.005003578957714614,-0.15862168248410402,-0.002193647478816461,0.31898122874277574,0.0648891907561377,-0.04051421466297546,0.31898122874277574,0.07042811663781864,-0.029864511608159536,0.016422630619200386,-0.1769108935099194,-0.1769108935099194,-0.002193647478816461,828.0,254.4,357.7,99.4,381.09999999999997,56.5,-1.3,1.2,-1.0,0.3,1.8,-0.3,tailOff_alfa0_balance,raw_tailOff_alfa0_balance.txt,0,0,30,-0.0,-9,inf,inf
2.0,14.0,35.0,13.0,-0.0,-9.0,409.53,101062.0,293.59999999999997,873.5,2482.2,1110.9,-172.0,361.8,-1055.2,473.326,1.1991521381411114,959.6637095367728,40.007129382037974,435965.2178233158,0.0,0.0,0.0,0.0,0.0,0.0,0.0,0.0,0.0,101062.0,1.5139651872161485e-05,inf,inf,8.034865103269883,26.568910250178607,66.46303205089573,7.186755114049739,-3.794998180948376,6.900162389480778,0.038553188258816394,0.12748393228031604,0.3189053896956089,0.024691400867676877,-0.11037302393944606,0.02370675957466023,0.3189053896956089,0.038553188258816394,-0.12748393228031604,0.3189053896956089,0.05802141528349858,-0.11988334614562503,0.06062312559264453,-0.1212393544879864,-0.1212393544879864,0.02370675957466023,874.8,2481.0,1111.9,-172.3,360.0,-1054.9,-1.3,1.2,-1.0,0.3,1.8,-0.3,tailOff_alfa0_balance,raw_tailOff_alfa0_balance.txt,0,0,40,-0.0,-9,inf,inf
2.0,18.0,29.0,31.0,0.0,-9.0,633.83,100890.0,294.9,1423.5,3412.5,1644.8,-173.3,584.1,-1386.7,585.486,1.1918340759998887,1491.5688985800193,50.02979902072832,540010.0943183695,0.0,0.0,0.0,0.0,0.0,0.0,0.0,0.0,0.0,100890.0,1.52847105963934e-05,inf,inf,13.097404418315449,37.3651629671605,104.60832596237215,9.852043344744065,-6.2251496461350255,9.064641644084602,0.04043362693952555,0.11535179121719898,0.3229413929385904,0.021777847401210648,-0.11648685443570783,0.020037303487590568,0.3229413929385904,0.04043362693952555,-0.11535179121719898,0.3229413929385904,0.057980817646637775,-0.1076064064520711,0.05429009215558982,-0.12788319220812994,-0.12788319220812994,0.020037303487590568,1425.8,3413.5,1646.8,-175.0,583.8000000000001,-1385.6000000000001,-2.3,-1.0,-2.0,1.7,0.3,-1.1,tailOff_alfa0_V50_balance,raw_tailOff_alfa0_V50_balance.txt,0,0,50,0.0,-9,inf,inf
23.0,19.0,8.0,33.0,4.995,-9.0,102.69,100872.0,294.04999999999995,453.2,3.4,303.0,230.0,278.9,91.6,245.302,1.1950660165511644,239.5646562188622,20.023058776185497,217194.21810377334,0.0,0.0,0.0,0.0,0.0,0.0,0.0,0.0,0.0,100872.0,1.520941473035213e-05,inf,inf,4.199057916502189,1.1779739634858006,39.50976132161615,0.023833237095321726,-0.8177168165329878,-0.5958524066325611,0.0807104744681739,0.022641944787294473,0.7594207190760197,0.00032801389667566654,-0.09526878462655626,-0.008200643033148233,0.763564031873128,0.01428210350296047,-0.022641944787294473,0.7594207190760197,0.08325877511638778,-0.009737284978237611,0.007398251979735274,-0.11801727142907495,-0.11801727142907495,-0.007525342470320303,456.9,2.9,303.8,228.5,277.9,91.89999999999999,-3.7,0.5,-0.8,1.5,1.0,-0.3,tailOff_alfa5_betaSweep_balance,raw_tailOff_alfa5_betaSweep_balance.txt,0,0,20,5.0,-9,inf,inf
44.0,19.0,17.0,23.0,4.995,-9.0,230.32,100869.0,293.84999999999997,981.8,179.8,718.2,478.6,611.1,113.7,360.879,1.195843835378437,538.0312151854482,29.99725395460726,325769.4326897676,0.0,0.0,0.0,0.0,0.0,0.0,0.0,0.0,0.0,100869.0,1.5191529742659524e-05,inf,inf,9.056311671356882,4.262818128924827,88.42292152277926,0.5775117225447581,-1.626935763807639,-0.7344645151117276,0.07750766764517478,0.036482963789057424,0.7567599992476972,0.0035390384954762264,-0.08439823688817841,-0.004500857889235719,0.7606345520878821,0.011323125683152802,-0.036482963789057424,0.7567599992476972,0.08226061256328544,-0.0239089274402177,0.014161263148462309,-0.10624400308071304,-0.10624400308071304,-0.00325076067903814,985.5,179.3,719.0,477.1,610.1,114.0,-3.7,0.5,-0.8,1.5,1.0,-0.3,tailOff_alfa5_betaSweep_balance,raw_tailOff_alfa5_betaSweep_balance.txt,0,0,30,5.0,-9,inf,inf
2.0,18.0,58.0,36.0,4.995,-9.0,407.74,100879.0,294.15,1197.2,2179.6,1698.0,549.9,796.1,-856.6,473.852,1.194742642061333,955.4376294478546,39.99253986937239,433575.91977945965,0.0,0.0,0.0,0.0,0.0,0.0,0.0,0.0,0.0,100879.0,1.5217530201144966e-05,inf,inf,11.026344080125737,24.19995545562766,157.4489043633164,6.8663108137378694,-1.3098424616877704,5.605628820047655,0.05314103148769941,0.11663073322610913,0.7588188001094337,0.023694801364802648,-0.038263717755079266,0.01934434152763551,0.7605639602758375,-0.013130230638938145,-0.11663073322610913,0.7588188001094338,0.07073184356707606,-0.10688172653002562,0.05466840449620296,-0.053241675218913154,-0.053241675218913154,0.02403079033951286,1200.9,2179.1,1698.8,548.4,795.1,-856.3000000000001,-3.7,0.5,-0.8,1.5,1.0,-0.3,tailOff_alfa5_betaSweep_balance,raw_tailOff_alfa5_betaSweep_balance.txt,0,0,40,5.0,-9,inf,inf
65.0,19.0,25.0,59.0,4.995,-8.995,633.68,100875.0,294.67999999999995,1907.2,3071.4,2605.4,924.6,1244.5,-1137.4,587.513,1.1925465362691263,1491.21163260932,50.008861967710864,540418.2330017007,0.0,0.0,0.0,0.0,0.0,0.0,0.0,0.0,0.0,100875.0,1.5266775470516725e-05,inf,inf,17.5464685360332,34.961132708813025,247.15665394107765,9.576388815036587,-2.3696745404412134,7.446431570399929,0.05418152445520859,0.10795605183768711,0.7631919928660161,0.021173587279007713,-0.04435267935897505,0.016464209193914083,0.7650111394410456,-0.012474457832091584,-0.10795605183768711,0.763191992866016,0.07039394163190738,-0.09815721930757497,0.049971835533970194,-0.059623902854206504,-0.059623902854206504,0.020752671222782754,1910.9,3070.9,2606.2000000000003,923.1,1243.5,-1137.1000000000001,-3.7,0.5,-0.8,1.5,1.0,-0.3,tailOff_alfa5_betaSweep_balance,raw_tailOff_alfa5_betaSweep_balance.txt,0,0,50,5.0,-9,inf,inf
2.0,19.0,46.0,27.0,10.0,-9.0,407.23,100854.0,294.54999999999995,1979.0,2092.2,2129.9,943.4,1543.7,-737.2,477.039,1.1928244960834244,954.2336050430564,39.999455242561666,432500.2524571382,0.0,0.0,0.0,0.0,0.0,0.0,0.0,0.0,0.0,100854.0,1.5258015485518858e-05,inf,inf,18.206219547337422,24.282667327596464,226.57146099363734,6.335080380455033,0.8118170563891738,4.826634494612588,0.08785487187160738,0.11717702410541606,1.093330036123286,0.021889174238682703,0.023745094693061013,0.01667714331849133,1.0919757345749959,-0.10333460940227462,-0.11717702410541606,1.093330036123286,0.10510375769300334,-0.10199085061214191,0.05118561535013046,-0.0010170617243977047,-0.0010170617243977047,0.025312068866456615,1982.1,2091.7,2130.9,942.6999999999999,1542.6000000000001,-736.5,-3.1,0.5,-1.0,0.7,1.1,-0.7,tailOff_alfa10_betaSweep_balance,raw_tailOff_alfa10_betaSweep_balance.txt,0,0,40,10.0,-9,inf,inf
24.0,14.0,53.0,7.0,-0.0,-8.0,102.86,101042.0,293.51,380.6,-33.7,118.3,80.8,180.0,91.0,244.303,1.199282455403412,239.96120360486427,20.004365155922805,218066.71553658298,0.0,0.0,0.0,0.0,0.0,0.0,0.0,0.0,0.0,101042.0,1.513441822331888e-05,inf,inf,3.5244310634341427,0.539385843424791,16.673638208132,-0.08059297642261459,-1.409455760736945,-0.5988278499012334,0.06763146108041677,0.010350451468716371,0.3199559001853352,-0.0011073581827383498,-0.16393846279911284,-0.008227974062683592,0.3199559001853352,0.06763146108041677,-0.010350451468716371,0.3199559001853352,0.06841378077751292,-0.000837241425507531,0.0018099472870622387,-0.18300059085573317,-0.18300059085573317,-0.008227974062683592,383.3,-37.400000000000006,120.3,80.3,177.3,92.2,-2.7,3.7,-2.0,0.5,2.7,-1.2,tailOff_alfa0_balance,raw_tailOff_alfa0_balance.txt,0,0,20,-0.0,-8,inf,inf
24.0,18.0,39.0,39.0,0.0,-8.0,229.53,100883.0,294.72999999999996,814.4,168.4,316.4,131.0,384.1,68.1,359.512,1.1924387847076852,536.1791397883329,29.988304224556842,323995.3414609255,0.0,0.0,0.0,0.0,0.0,0.0,0.0,0.0,0.0,100883.0,1.5270156294362348e-05,inf,inf,7.523545303602841,3.5172350532897303,36.9495131936237,0.6181508770196912,-2.944883220959751,-0.45014614348331355,0.06461203325711402,0.03020593338188794,0.3173215656928827,0.003801163336569287,-0.15329521718763844,-0.0027680604854214623,0.3173215656928827,0.06461203325711402,-0.03020593338188794,0.3173215656928827,0.06818708680713892,-0.020919714286891267,0.012314795320811828,-0.17150631054966475,-0.17150631054966475,-0.0027680604854214623,818.3,166.4,319.4,129.0,383.5,70.1,-3.9,2.0,-3.0,2.0,0.6,-2.0,tailOff_alfa0_V50_balance,raw_tailOff_alfa0_V50_balance.txt,0,0,30,0.0,-8,inf,inf
45.0,15.0,11.0,50.0,-0.0,-8.0,231.22,101030.0,293.22999999999996,812.3,171.1,320.5,132.7,381.2,65.7,360.162,1.2002850626531754,540.141244881828,30.00036009807119,327547.72175699146,0.0,0.0,0.0,0.0,0.0,0.0,0.0,0.0,0.0,101030.0,1.5110617927132722e-05,inf,inf,7.493182859545952,3.4937438789346826,37.21325981396349,0.5953560805742415,-2.9776761508972767,-0.42938427544817503,0.06387924449901511,0.0297841015817582,0.317242347720524,0.0036341379436955912,-0.15386525560923586,-0.0026210225086260182,0.317242347720524,0.06387924449901511,-0.0297841015817582,0.317242347720524,0.06740272185915316,-0.020603972208656313,0.012028875382944247,-0.1718698102846482,-0.1718698102846482,-0.0026210225086260182,815.0,167.4,322.5,132.2,378.5,66.9,-2.7,3.7,-2.0,0.5,2.7,-1.2,tailOff_alfa0_balance,raw_tailOff_alfa0_balance.txt,0,0,30,-0.0,-8,inf,inf
3.0,14.0,35.0,50.0,-0.0,-8.0,409.45,101065.0,293.65,917.7,2236.0,1020.4,-102.8,392.6,-984.7,473.07,1.1989835480985749,959.4748281186756,40.006004419884675,435834.27638141497,0.0,0.0,0.0,0.0,0.0,0.0,0.0,0.0,0.0,101065.0,1.5143774567638396e-05,inf,inf,8.455437018221868,23.482923994385533,65.94950101863708,6.502743938822326,-3.847820525054943,6.431415135104029,0.04057917885788148,0.11269881980323715,0.3165036403980094,0.022345754496810467,-0.11193132958000095,0.022100643209723724,0.3165036403980094,0.04057917885788148,-0.11269881980323715,0.3165036403980094,0.05586890930526921,-0.1059545124799414,0.054110251383324384,-0.12336869159265482,-0.12336869159265482,0.022100643209723724,920.4000000000001,2232.3,1022.4,-103.3,389.90000000000003,-983.5,-2.7,3.7,-2.0,0.5,2.7,-1.2,tailOff_alfa0_balance,raw_tailOff_alfa0_balance.txt,0,0,40,-0.0,-8,inf,inf
3.0,18.0,29.0,51.0,0.0,-8.0,632.9,100888.0,294.98999999999995,1463.7,3134.6,1526.5,-89.0,619.4,-1335.1,584.909,1.1914468340794255,1489.3538831290628,50.000761094551635,539394.1723357136,0.0,0.0,0.0,0.0,0.0,0.0,0.0,0.0,0.0,100888.0,1.5293282292220372e-05,inf,inf,13.48341549991403,33.53311757091303,103.43719148300274,9.075186659169407,-6.174765790374243,8.718112639454386,0.04168720680811906,0.10367566045179988,0.31980083926290337,0.02009044793757071,-0.11571589759170833,0.01929996535331494,0.31980083926290337,0.04168720680811906,-0.10367566045179988,0.31980083926290337,0.055710372936266316,-0.09686495820926119,0.04931174057735289,-0.1274655605711065,-0.1274655605711065,0.01929996535331494,1467.6000000000001,3132.6,1529.5,-91.0,618.8,-1333.1,-3.9,2.0,-3.0,2.0,0.6,-2.0,tailOff_alfa0_V50_balance,raw_tailOff_alfa0_V50_balance.txt,0,0,50,0.0,-8,inf,inf
24.0,19.0,8.0,53.0,4.995,-8.0,102.61,100874.0,294.03,446.6,-28.9,286.8,242.5,281.4,94.9,244.984,1.1951710015785715,239.378046609759,20.014379646440045,217130.5612934581,0.0,0.0,0.0,0.0,0.0,0.0,0.0,0.0,0.0,100874.0,1.520727916347783e-05,inf,inf,4.15233043660698,0.6731113263804693,39.36172089043162,-0.05762738190879181,-0.7501782520894005,-0.6215253067887109,0.07987453983625215,0.01294801997914747,0.7571650164372021,-0.0007937368189232222,-0.08746828112134561,-0.008560644324802955,0.7612441118840686,0.013645744839958965,-0.01294801997914747,0.7571650164372021,0.08089922239705787,-0.0017056233420081439,0.003590221047589528,-0.10998115726654448,-0.10998115726654448,-0.008215537299293325,451.8,-31.7,288.40000000000003,240.9,279.29999999999995,95.7,-5.2,2.8,-1.6,1.6,2.1,-0.8,tailOff_alfa5_betaSweep_balance,raw_tailOff_alfa5_betaSweep_balance.txt,0,0,20,5.0,-8,inf,inf
45.0,19.0,17.0,43.0,4.995,-8.0,230.35,100868.0,293.85999999999996,971.2,78.8,675.6,511.7,616.5,132.7,360.928,1.1957912860284319,538.1015483009018,29.999873712035395,325774.99571269343,0.0,0.0,0.0,0.0,0.0,0.0,0.0,0.0,0.0,100868.0,1.5192597030825134e-05,inf,inf,8.973109813427522,2.8559276831686686,87.99298759026055,0.30739377015329866,-1.483140195180236,-0.8639131727294264,0.07678555402476575,0.024439017683547844,0.7529820143627143,0.0018834876438308436,-0.07692870195901128,-0.005293437747183682,0.7568080412836352,0.010932699074273411,-0.024439017683547844,0.7529820143627143,0.07943953616679354,-0.013514695180864723,0.009199278361242806,-0.09857093828417693,-0.09857093828417693,-0.004472364657395494,976.4000000000001,76.0,677.2,510.09999999999997,614.4,133.5,-5.2,2.8,-1.6,1.6,2.1,-0.8,tailOff_alfa5_betaSweep_balance,raw_tailOff_alfa5_betaSweep_balance.txt,0,0,30,5.0,-8,inf,inf
3.0,18.0,58.0,56.0,4.995,-8.0,407.92,100877.0,294.2,1230.8,1947.7,1608.1,605.2,830.7,-792.7,473.67,1.1945159100444038,955.8625849850515,40.005228909416424,433574.2194111096,0.0,0.0,0.0,0.0,0.0,0.0,0.0,0.0,0.0,100877.0,1.522241819612764e-05,inf,inf,11.350342809750591,21.258955670747564,156.20067816456626,6.105512183283682,-1.2153858998706628,5.182382220168737,0.05467821107299044,0.10241115046832885,0.7524683433428452,0.021060011076870472,-0.035488624938934364,0.01787581838918413,0.754371461032672,-0.011045962099344046,-0.10241115046832885,0.7524683433428452,0.06839896386505938,-0.09380475600189732,0.04817887184379415,-0.050899841031707214,-0.050899841031707214,0.022002808338571298,1236.0,1944.9,1609.6999999999998,603.6,828.6,-791.9000000000001,-5.2,2.8,-1.6,1.6,2.1,-0.8,tailOff_alfa5_betaSweep_balance,raw_tailOff_alfa5_betaSweep_balance.txt,0,0,40,5.0,-8,inf,inf
66.0,19.0,26.0,18.0,4.995,-8.0,633.8,100873.0,294.72999999999996,1937.2,2770.9,2469.1,1004.6,1287.4,-1087.0,587.123,1.192320584536724,1491.4974452192919,50.01839292019061,540347.9898010804,0.0,0.0,0.0,0.0,0.0,0.0,0.0,0.0,0.0,100873.0,1.527167009451644e-05,inf,inf,17.837971031617485,30.760233511152343,244.78488649349708,8.639991988389912,-2.1328135655607987,7.109415083491693,0.05507109624285102,0.094965945237979,0.7557233958382747,0.01909953445313491,-0.039911754696314285,0.015716046786993697,0.7576483598589056,-0.010937982530312203,-0.094965945237979,0.7557233958382747,0.06775185320426251,-0.08637732794964341,0.04432340536270458,-0.0554337066404171,-0.0554337066404171,0.01951554802993681,1942.4,2768.1,2470.7,1003.0,1285.3000000000002,-1086.2,-5.2,2.8,-1.6,1.6,2.1,-0.8,tailOff_alfa5_betaSweep_balance,raw_tailOff_alfa5_betaSweep_balance.txt,0,0,50,5.0,-8,inf,inf
3.0,19.0,47.0,12.0,10.0,-7.995,407.13,100853.0,294.59,2041.7,1854.4,2019.1,991.7,1597.6,-682.5,476.896,1.1926507064317655,953.9975246491616,39.99742077746285,432369.8801523363,0.0,0.0,0.0,0.0,0.0,0.0,0.0,0.0,0.0,100853.0,1.5261839936320923e-05,inf,inf,18.80093184559967,21.134971074962756,224.04195468172034,5.584300330780186,0.860822600233135,4.460707861925336,0.09074713200018517,0.10201292285459942,1.0813913375171378,0.0192998296129977,0.025184704170680562,0.015416595918738923,1.080720647327451,-0.09841315594725078,-0.10201292285459942,1.0813913375171376,0.10405372803183416,-0.08839966107556389,0.0446453858739685,-0.00039264434914086654,-0.00039264434914086654,0.022934973084082,2046.6000000000001,1851.4,2020.6,990.8000000000001,1594.6,-681.0,-4.9,3.0,-1.5,0.9,3.0,-1.5,tailOff_alfa10_betaSweep_balance,raw_tailOff_alfa10_betaSweep_balance.txt,0,0,40,10.0,-8,inf,inf
25.0,14.0,53.0,47.0,-0.0,-7.0,102.97,101043.0,293.46999999999997,371.9,-56.9,105.6,93.5,178.7,88.7,244.228,1.1994577885272575,240.21779451517284,20.013594724759002,218222.22164941297,0.0,0.0,0.0,0.0,0.0,0.0,0.0,0.0,0.0,101043.0,1.513061107829773e-05,inf,inf,3.445478541271511,0.10614163197549176,16.661472516578847,-0.1431513954877401,-1.3624201594643397,-0.5931578343919098,0.0660457924200274,0.0020346108990680987,0.3193809341897284,-0.0019648181726796684,-0.15829832773241273,-0.008141361726231679,0.3193809341897284,0.0660457924200274,-0.0020346108990680987,0.3193809341897284,0.06580145379295417,0.006029512138943873,-0.0013913570514225712,-0.17691353037034704,-0.17691353037034704,-0.008141361726231679,374.7,-63.8,108.6,92.9,174.5,91.2,-2.8,6.9,-3.0,0.6,4.2,-2.5,tailOff_alfa0_balance,raw_tailOff_alfa0_balance.txt,0,0,20,-0.0,-7,inf,inf
25.0,18.0,39.0,58.0,0.0,-7.0,229.75,100878.0,294.7,773.5,207.2,313.0,137.4,364.9,10.4,359.36,1.1925010670129024,536.6949018176438,30.001940443176785,324185.090135162,0.0,0.0,0.0,0.0,0.0,0.0,0.0,0.0,0.0,100878.0,1.5268158073119952e-05,inf,inf,7.148415217413336,3.395224944202655,36.65953998572904,0.6298522791182855,-2.8258607920930725,-0.08636749631902649,0.061331428747675734,0.029130092533019677,0.31452873065911385,0.0038693961117814463,-0.14695816992619734,-0.000530584814123343,0.31452873065911385,0.061331428747675734,-0.029130092533019677,0.31452873065911385,0.0644243388284998,-0.021438540289025462,0.012079799159341912,-0.16424461516938912,-0.16424461516938912,-0.000530584814123343,777.5,202.0,317.0,135.20000000000002,362.2,14.100000000000001,-4.0,5.2,-4.0,2.2,2.7,-3.7,tailOff_alfa0_V50_balance,raw_tailOff_alfa0_V50_balance.txt,0,0,30,0.0,-7,inf,inf
46.0,15.0,12.0,32.0,-0.0,-7.0,231.35,101031.0,293.25,768.7,221.2,321.2,134.6,360.2,3.3,359.887,1.2002150814507395,540.4460331452117,30.009697985444674,327613.28668387857,0.0,0.0,0.0,0.0,0.0,0.0,0.0,0.0,0.0,101031.0,1.5112296231153772e-05,inf,inf,7.093188022415846,3.4890875960860366,36.874892202689054,0.5931281308297228,-2.848132426969377,-0.03223163055791964,0.060435193876664184,0.02972763229393522,0.31418048589829906,0.003618496395036382,-0.14708835334605994,-0.00019663548720379143,0.31418048589829906,0.060435193876664184,-0.02972763229393522,0.31418048589829906,0.06360760613463176,-0.022140849634441837,0.01199731779789381,-0.16412219213055468,-0.16412219213055468,-0.00019663548720379143,771.5,214.29999999999998,324.2,134.0,356.0,5.8,-2.8,6.9,-3.0,0.6,4.2,-2.5,tailOff_alfa0_balance,raw_tailOff_alfa0_balance.txt,0,0,30,-0.0,-7,inf,inf
4.0,14.0,36.0,31.0,-0.0,-7.0,409.43,101060.0,293.69,966.6,1939.5,922.6,-30.2,424.4,-880.6,472.717,1.1987609395313181,959.4276078567,40.00873423743121,435737.19770587556,0.0,0.0,0.0,0.0,0.0,0.0,0.0,0.0,0.0,101060.0,1.5148182045108403e-05,inf,inf,8.907374037988133,20.002392588955665,65.21313517868036,5.578406823741282,-3.928591319227851,5.740922648027195,0.042750210684923,0.09599984167427372,0.3129850903782899,0.019170344955268027,-0.1142865394157897,0.01972883495262559,0.3129850903782899,0.042750210684923,-0.09599984167427372,0.3129850903782899,0.0541309947690179,-0.0900743333053733,0.04622818528839907,-0.1263358131931895,-0.1263358131931895,0.01972883495262559,969.4,1932.6,925.6,-30.8,420.2,-878.1,-2.8,6.9,-3.0,0.6,4.2,-2.5,tailOff_alfa0_balance,raw_tailOff_alfa0_balance.txt,0,0,40,-0.0,-7,inf,inf
4.0,18.0,30.0,16.0,0.0,-7.0,633.33,100888.0,295.03999999999996,1520.7,2741.4,1387.6,6.7,658.6,-1210.7,584.453,1.191244921316058,1490.3780201090253,50.02218813624959,539463.2546302583,0.0,0.0,0.0,0.0,0.0,0.0,0.0,0.0,0.0,100888.0,1.5297876730261953e-05,inf,inf,14.01040670851643,28.76571958258328,101.76082744213427,7.833352141219368,-6.245491856013404,7.8917344693189,0.04328676064521674,0.08887499444265304,0.3144017637881482,0.017329385737136868,-0.11696088627114751,0.017458542433482115,0.3144017637881482,0.04328676064521674,-0.08887499444265304,0.3144017637881482,0.05379524491329116,-0.08293720461323081,0.042379066729284265,-0.12916138824750242,-0.12916138824750242,0.017458542433482115,1524.7,2736.2000000000003,1391.6,4.5,655.9,-1207.0,-4.0,5.2,-4.0,2.2,2.7,-3.7,tailOff_alfa0_V50_balance,raw_tailOff_alfa0_V50_balance.txt,0,0,50,0.0,-7,inf,inf
25.0,19.0,9.0,12.0,4.995,-7.0,102.4,100869.0,293.98999999999995,437.9,-45.5,272.0,250.3,283.4,89.2,244.94,1.195274366563331,238.888199203968,19.993026572991464,216940.4796044736,0.0,0.0,0.0,0.0,0.0,0.0,0.0,0.0,0.0,100869.0,1.5204365014080502e-05,inf,inf,4.077079364912031,0.29158939070714984,38.99720754212164,-0.10639886491880493,-0.6694990711104531,-0.591712880256022,0.07858782149620637,0.005620536893221725,0.7516914219394633,-0.0014685010243018972,-0.0782214249680052,-0.008166731585075578,0.7556792714236241,0.012840492418610391,-0.005620536893221725,0.7516914219394633,0.07868701093269612,0.003998803941858308,0.0008262923100487737,-0.10037163572968397,-0.10037163572968397,-0.008063772502602805,443.59999999999997,-52.0,274.5,248.8,279.4,91.0,-5.7,6.5,-2.5,1.5,4.0,-1.8,tailOff_alfa5_betaSweep_balance,raw_tailOff_alfa5_betaSweep_balance.txt,0,0,20,5.0,-7,inf,inf
46.0,19.0,17.0,59.0,4.995,-7.0,230.19,100868.0,293.87,939.0,86.8,663.0,528.0,603.7,94.0,360.773,1.195750594862745,537.7264393143222,29.989925740527877,325647.3194596747,0.0,0.0,0.0,0.0,0.0,0.0,0.0,0.0,0.0,100868.0,1.5193513731594859e-05,inf,inf,8.68172624214982,2.460248463185672,87.92167372168286,0.3462061874935065,-1.3665194014701152,-0.6196141742771681,0.07434392357082001,0.021067759868342854,0.7528966024808418,0.0021227819702497133,-0.07092916585994839,-0.0037991978340693473,0.7565103639171891,0.008507777910873246,-0.021067759868342854,0.7528966024808418,0.07635728930030623,-0.011850478829288883,0.008360971780078084,-0.0918832213941547,-0.0918832213941547,-0.0030567897738762928,944.7,80.3,665.5,526.5,599.7,95.8,-5.7,6.5,-2.5,1.5,4.0,-1.8,tailOff_alfa5_betaSweep_balance,raw_tailOff_alfa5_betaSweep_balance.txt,0,0,30,5.0,-7,inf,inf
4.0,18.0,59.0,17.0,4.995,-7.0,407.63,100881.0,294.22999999999996,1276.1,1672.8,1519.2,676.3,858.1,-699.0,473.332,1.1944414763607334,955.1779358734957,39.99214523964963,433371.2579049336,0.0,0.0,0.0,0.0,0.0,0.0,0.0,0.0,0.0,100881.0,1.5224566529311983e-05,inf,inf,11.77276145762697,17.983068353143462,155.80604408793587,5.233926468265671,-1.3281321797214467,4.561536854907147,0.05675378668592042,0.08669225389013815,0.7511052544783507,0.018066552631093538,-0.038808553766426335,0.015745587212110928,0.7531942666652512,-0.008859586377101616,-0.08669225389013815,0.7511052544783507,0.06689588062608628,-0.07912951625660014,0.04096866608206792,-0.054804777006654204,-0.054804777006654204,0.01925288311897214,1281.8,1666.3,1521.7,674.8,854.1,-697.2,-5.7,6.5,-2.5,1.5,4.0,-1.8,tailOff_alfa5_betaSweep_balance,raw_tailOff_alfa5_betaSweep_balance.txt,0,0,40,5.0,-7,inf,inf
67.0,19.0,26.0,41.0,4.995,-7.0,633.57,100872.0,294.78999999999996,1994.1,2424.2,2345.7,1091.1,1324.8,-981.8,586.569,1.1920660882895278,1490.9496388875862,50.0145445365362,540106.1545738794,0.0,0.0,0.0,0.0,0.0,0.0,0.0,0.0,0.0,100872.0,1.527733254225612e-05,inf,inf,18.367557861385563,26.481223921381634,243.4667827578869,7.520086922403139,-2.228678866409524,6.412702749096159,0.05672692254514711,0.08178541478543593,0.7519301930093912,0.016629984403552504,-0.04172102425318339,0.014181105591264658,0.7540137332985759,-0.008958174910523947,-0.08178541478543593,0.7519301930093912,0.06627122346665983,-0.07426252590170197,0.038296016139031316,-0.057709675755593215,-0.057709675755593215,0.01746163848504717,1999.8,2417.7,2348.2,1089.6,1320.8,-980.0,-5.7,6.5,-2.5,1.5,4.0,-1.8,tailOff_alfa5_betaSweep_balance,raw_tailOff_alfa5_betaSweep_balance.txt,0,0,50,5.0,-7,inf,inf
4.0,19.0,47.0,50.0,10.0,-7.0,407.17,100854.0,294.60999999999996,2239.2,1696.9,1853.8,915.2,1769.3,-696.0,476.897,1.1925815665502617,954.0919566956612,40.000559778663195,432356.06764388515,0.0,0.0,0.0,0.0,0.0,0.0,0.0,0.0,0.0,100854.0,1.526352529619387e-05,inf,inf,20.622841103820996,18.41944046651664,213.47196909740276,4.137042468466545,1.1563236044298897,4.533824284778937,0.09953115460218939,0.08889697435621595,1.0302708270166874,0.014296564899168654,0.03382669734031912,0.01566774177998583,1.0319021017660888,-0.08088559889635616,-0.08889697435621595,1.0302708270166872,0.10962308036431678,-0.07610455333009439,0.03603391418377483,0.005773545976425529,0.005773545976425529,0.02168693710934239,2244.3999999999996,1690.3000000000002,1856.5,914.2,1765.3,-693.0,-5.2,6.6,-2.7,1.0,4.0,-3.0,tailOff_alfa10_betaSweep_balance,raw_tailOff_alfa10_betaSweep_balance.txt,0,0,40,10.0,-7,inf,inf
26.0,14.0,54.0,24.0,-0.0,-6.0,102.78,101040.0,293.41999999999996,356.3,-68.3,94.7,102.3,174.9,80.0,244.136,1.1996265628047782,239.7745927371001,19.99371706553031,218064.8904495956,0.0,0.0,0.0,0.0,0.0,0.0,0.0,0.0,0.0,101040.0,1.5126488948508548e-05,inf,inf,3.3426031875505116,-0.22008790692245284,16.432831727403705,-0.1804741199119081,-1.3135641166912446,-0.5469805422698908,0.06419222689806178,-0.0042266257961175065,0.31558040354654776,-0.0024816682600218016,-0.15290389734283366,-0.0075214343821888635,0.31558040354654776,0.06419222689806178,0.0042266257961175065,0.31558040354654776,0.06339877246329507,0.010913386729150147,-0.0036729552865908018,-0.17099666703644592,-0.17099666703644592,-0.0075214343821888635,363.5,-78.7,98.2,101.39999999999999,169.9,84.0,-7.2,10.4,-3.5,0.9,5.0,-4.0,tailOff_alfa0_balance,raw_tailOff_alfa0_balance.txt,0,0,20,-0.0,-6,inf,inf
26.0,18.0,40.0,19.0,0.0,-6.0,229.94,100877.0,294.66999999999996,709.4,360.4,338.0,113.0,331.7,-109.2,358.951,1.1926106516953323,537.1403362659074,30.01300905388601,324360.00251461065,0.0,0.0,0.0,0.0,0.0,0.0,0.0,0.0,0.0,100877.0,1.5265554501500177e-05,inf,inf,6.595553213861049,4.321569217302035,35.867277180350506,0.7939073486640357,-2.6860429008369655,0.6862775802879346,0.056541098652814384,0.03704712304298118,0.30747614213772007,0.004873197478171196,-0.13957113790367595,0.0042125396360323366,0.30747614213772007,0.056541098652814384,-0.03704712304298118,0.30747614213772007,0.060103839438571977,-0.030934020873003794,0.015315039075160769,-0.155507414390449,-0.155507414390449,0.0042125396360323366,717.4,351.7,342.5,110.5,328.09999999999997,-104.5,-8.0,8.7,-4.5,2.5,3.6,-4.7,tailOff_alfa0_V50_balance,raw_tailOff_alfa0_V50_balance.txt,0,0,30,0.0,-6,inf,inf
47.0,15.0,13.0,17.0,-0.0,-6.0,231.37,101028.0,293.27,701.3,384.8,346.1,110.2,326.9,-124.1,359.559,1.2000975943482564,540.4929237860937,30.012468792578005,327594.1812630994,0.0,0.0,0.0,0.0,0.0,0.0,0.0,0.0,0.0,101028.0,1.5114572991768658e-05,inf,inf,6.51363230608717,4.491383664779839,36.07649231173597,0.8386138669490639,-2.6802157632657924,0.7879982668377025,0.05549246383327636,0.038264048977134264,0.307351313485961,0.005115687211212481,-0.13840449203604366,0.00480692344235238,0.307351313485961,0.05549246383327636,-0.038264048977134264,0.307351313485961,0.05918815254810344,-0.03225389254577579,0.015900522994955847,-0.15404520768625726,-0.15404520768625726,0.00480692344235238,708.5,374.40000000000003,349.6,109.3,321.9,-120.1,-7.2,10.4,-3.5,0.9,5.0,-4.0,tailOff_alfa0_balance,raw_tailOff_alfa0_balance.txt,0,0,30,-0.0,-6,inf,inf
5.0,14.0,37.0,13.0,-0.0,-6.0,409.19,101063.0,293.71999999999997,1012.5,1604.3,817.6,38.3,452.0,-745.2,472.179,1.1986740823637103,958.8609676005082,39.99836694790603,435558.3231439652,0.0,0.0,0.0,0.0,0.0,0.0,0.0,0.0,0.0,101063.0,1.5150476187422077e-05,inf,inf,9.371360259626526,16.287869255639272,63.65412255726011,4.462945388986998,-4.067596850906908,4.845112124833706,0.045003653743555846,0.07821848780683958,0.3056832745250759,0.015346095200338519,-0.11840027290903796,0.016660197569858527,0.3056832745250759,0.045003653743555846,-0.07821848780683958,0.3056832745250759,0.05293317734910728,-0.0730858359792548,0.03739220816537257,-0.13108468630142975,-0.13108468630142975,0.016660197569858527,1019.7,1593.8999999999999,821.1,37.4,447.0,-741.2,-7.2,10.4,-3.5,0.9,5.0,-4.0,tailOff_alfa0_balance,raw_tailOff_alfa0_balance.txt,0,0,40,-0.0,-6,inf,inf
5.0,18.0,30.0,43.0,0.0,-6.0,633.19,100889.0,295.08,1571.0,2267.7,1240.9,111.5,690.7,-1027.9,583.477,1.1910952463695557,1490.0445782833244,50.01973458271627,539312.5500218092,0.0,0.0,0.0,0.0,0.0,0.0,0.0,0.0,0.0,100889.0,1.53014009837859e-05,inf,inf,14.511716046403528,23.420413805502612,99.98317162607245,6.263712566073878,-6.366006287715885,6.689097634379984,0.044845646723895696,0.07237625104367439,0.30897861967115253,0.013860040977385716,-0.11924446867029917,0.014801312534101831,0.30897861967115253,0.044845646723895696,-0.07237625104367439,0.30897861967115253,0.05216535587753393,-0.06729211983131211,0.03425950216915508,-0.13188434731518603,-0.13188434731518603,0.014801312534101831,1579.0,2259.0,1245.4,109.0,687.1,-1023.2,-8.0,8.7,-4.5,2.5,3.6,-4.7,tailOff_alfa0_V50_balance,raw_tailOff_alfa0_V50_balance.txt,0,0,50,0.0,-6,inf,inf
26.0,19.0,10.0,2.0,4.995,-6.0,102.07,100871.0,293.96,420.8,-26.5,266.6,253.1,280.6,64.7,244.526,1.1954200518887983,238.11844724094806,19.95957320658556,216620.96861006072,0.0,0.0,0.0,0.0,0.0,0.0,0.0,0.0,0.0,100871.0,1.5201312851504155e-05,inf,inf,3.9557253247755986,0.2700293466067283,38.756892421131944,-0.009370148507649832,-0.5908961332690055,-0.44485353555668966,0.07649514407301433,0.005221781614423741,0.7494741990825635,-0.00012974343378874514,-0.06926096644954066,-0.006159648930757956,0.7532882619849831,0.010948813307601904,-0.005221781614423741,0.7494741990825635,0.07662192047763833,0.0028027437090140366,0.0018732478725303234,-0.09082134986777858,-0.09082134986777858,-0.00597315497305311,430.40000000000003,-35.9,269.6,251.29999999999998,275.6,68.4,-9.6,9.4,-3.0,1.8,5.0,-3.7,tailOff_alfa5_betaSweep_balance,raw_tailOff_alfa5_betaSweep_balance.txt,0,0,20,5.0,-6,inf,inf
47.0,19.0,18.0,25.0,4.995,-6.0,230.19,100872.0,293.87,860.1,318.0,702.0,494.6,565.7,-71.9,360.548,1.1957980132945514,537.7264393143222,29.989331121147806,325653.77629615547,0.0,0.0,0.0,0.0,0.0,0.0,0.0,0.0,0.0,100872.0,1.5192911244731047e-05,inf,inf,7.991611040027402,4.080817600156418,87.31448785113744,0.8681952821073151,-1.1454728213231036,0.4494743334079732,0.06843428412693156,0.03494512304471836,0.7476971088900449,0.005323386346316642,-0.05945574694679245,0.002755976194291299,0.7508160711805705,0.003073295213578839,-0.03494512304471836,0.7476971088900449,0.07171215396865038,-0.027600359449700705,0.014875191803269067,-0.07874415306210021,-0.07874415306210021,0.004040675043202878,869.7,308.6,705.0,492.8,560.7,-68.2,-9.6,9.4,-3.0,1.8,5.0,-3.7,tailOff_alfa5_betaSweep_balance,raw_tailOff_alfa5_betaSweep_balance.txt,0,0,30,5.0,-6,inf,inf
5.0,18.0,59.0,36.0,4.995,-6.0,407.77,100879.0,294.26,1323.5,1359.2,1421.6,748.6,886.4,-581.0,473.227,1.1942960244761132,955.5084551624864,40.00149950760588,433385.6890488613,0.0,0.0,0.0,0.0,0.0,0.0,0.0,0.0,0.0,100879.0,1.522762051988251e-05,inf,inf,12.245871878119738,14.413185326397095,154.9467023825832,4.213198258615367,-1.471054161542483,3.7762104544969484,0.059014123067796236,0.06945863072197628,0.7467041836108904,0.014538155747996662,-0.042969922427606326,0.013030275898464852,0.7490067145388214,-0.006224638080061885,-0.06945863072197628,0.7467041836108903,0.06595124145692485,-0.0629094734799399,0.03285118681595368,-0.05960322818644373,-0.05960322818644373,0.01584110449900978,1333.1,1349.8,1424.6,746.8000000000001,881.4,-577.3,-9.6,9.4,-3.0,1.8,5.0,-3.7,tailOff_alfa5_betaSweep_balance,raw_tailOff_alfa5_betaSweep_balance.txt,0,0,40,5.0,-6,inf,inf
68.0,19.0,27.0,7.0,4.995,-6.0,633.4,100871.0,294.84999999999997,2059.2,1977.5,2199.7,1193.2,1363.1,-817.9,585.85,1.1918116956188949,1490.5447417021078,50.013089652995276,539890.3061916206,0.0,0.0,0.0,0.0,0.0,0.0,0.0,0.0,0.0,100871.0,1.5282995843343416e-05,inf,inf,19.00407258324307,21.354416794548175,241.71618527176503,6.126297514617394,-2.4139878002604362,5.326960551507298,0.058708697429885305,0.06596954357500387,0.7467263831405797,0.0135514267721884,-0.04520229604269085,0.011783286015712843,0.7490022367151242,-0.006530836689638511,-0.06596954357500387,0.7467263831405797,0.06528278005493567,-0.059471425590001195,0.03099710418880603,-0.061749516678885244,-0.061749516678885244,0.014437417545313701,2068.7999999999997,1968.1,2202.7,1191.4,1358.1,-814.1999999999999,-9.6,9.4,-3.0,1.8,5.0,-3.7,tailOff_alfa5_betaSweep_balance,raw_tailOff_alfa5_betaSweep_balance.txt,0,0,50,5.0,-6,inf,inf
5.0,19.0,48.0,27.0,10.0,-6.0,407.23,100851.0,294.63,2290.6,1399.1,1744.9,977.7,1803.1,-591.4,476.557,1.1924651399397765,954.2336050430564,40.005481820085954,432344.3792605914,0.0,0.0,0.0,0.0,0.0,0.0,0.0,0.0,0.0,100851.0,1.5265816161027193e-05,inf,inf,21.12826239987424,14.936790074368107,211.44294022970433,3.235353897824881,1.051354837522684,3.8388112307509465,0.10195531154528538,0.07207810357030549,1.0203267281127186,0.011178899230983915,0.030751411265023072,0.013263984488431054,1.0225300265042874,-0.07677149569106297,-0.07207810357030549,1.0203267281127184,0.10893100308233077,-0.061026020139487394,0.028712590347850654,0.0020150040710699146,0.0020150040710699146,0.01804836375004193,2299.2,1390.0,1747.9,976.4000000000001,1798.1999999999998,-587.0,-8.6,9.1,-3.0,1.3,4.9,-4.4,tailOff_alfa10_betaSweep_balance,raw_tailOff_alfa10_betaSweep_balance.txt,0,0,40,10.0,-6,inf,inf
27.0,14.0,55.0,2.0,-0.0,-4.995,102.83,101037.0,293.4,312.2,40.3,105.4,88.4,160.8,6.0,244.054,1.1996727161460865,239.89122446004126,19.99819447737676,218133.614828304,0.0,0.0,0.0,0.0,0.0,0.0,0.0,0.0,0.0,101037.0,1.5125109625195748e-05,inf,inf,3.0325038755353986,0.5438684617410364,15.910108643042319,0.1932022425281639,-1.190776020260911,-0.08269696337079392,0.05820868450281109,0.010439514341898036,0.30539334240580024,0.0026553988168625084,-0.13854350168306476,-0.001136598705167293,0.30539334240580024,0.05820868450281109,-0.010439514341898036,0.30539334240580024,0.058896581456004286,-0.005331707422462957,0.005597806921835517,-0.15494979219157018,-0.15494979219157018,-0.001136598705167293,329.8,24.199999999999996,110.4,87.0,154.20000000000002,12.8,-17.6,16.1,-5.0,1.4,6.6,-6.8,tailOff_alfa0_balance,raw_tailOff_alfa0_balance.txt,0,0,20,-0.0,-5,inf,inf
27.0,18.0,40.0,45.0,0.0,-5.0,229.88,100881.0,294.64,598.0,706.9,387.7,62.0,285.3,-339.7,358.29,1.1927793768314503,536.99967239499,30.00695641248713,324365.98208525864,0.0,0.0,0.0,0.0,0.0,0.0,0.0,0.0,0.0,100881.0,1.5262194580626467e-05,inf,inf,5.665135414372244,6.954416679013202,34.655114025053855,1.9069505299075935,-2.32679381623429,2.17046445216003,0.04857771198823735,0.059633111261954266,0.29716256097916,0.011708394891499127,-0.1209356439107162,0.013326331493812994,0.29716256097916,0.04857771198823735,-0.059633111261954266,0.29716256097916,0.05359022723249924,-0.05517236270055736,0.028516164310208474,-0.13462741622828234,-0.13462741622828234,0.013326331493812994,616.3,692.6,393.5,59.0,280.3,-332.09999999999997,-18.3,14.3,-5.8,3.0,5.0,-7.6,tailOff_alfa0_V50_balance,raw_tailOff_alfa0_V50_balance.txt,0,0,30,0.0,-5,inf,inf
48.0,15.0,14.0,21.0,-0.0,-4.995,231.28,101028.0,293.28,589.1,735.5,397.2,58.5,279.5,-357.0,358.858,1.2000566744902932,540.281916193653,30.007121392639032,327516.00686410256,0.0,0.0,0.0,0.0,0.0,0.0,0.0,0.0,0.0,101028.0,1.5115487025159998e-05,inf,inf,5.576767333583989,7.1588112124802326,34.889928930093895,1.9509242303073302,-2.3297512814236327,2.2884827324793764,0.047529459484968666,0.06101284258983946,0.297358552781976,0.011905617532478303,-0.12035373400619728,0.013965586012680909,0.297358552781976,0.047529459484968666,-0.06101284258983946,0.297358552781976,0.05266127233882899,-0.05664280073832412,0.029102268321421626,-0.13375005324417932,-0.13375005324417932,0.013965586012680909,606.7,719.4,402.2,57.1,272.9,-350.2,-17.6,16.1,-5.0,1.4,6.6,-6.8,tailOff_alfa0_balance,raw_tailOff_alfa0_balance.txt,0,0,30,-0.0,-5,inf,inf
6.0,14.0,38.0,21.0,-0.0,-5.0,409.32,101058.0,293.76,1046.4,1204.4,705.9,122.5,479.0,-568.4,471.531,1.198451568980376,959.1678970775562,40.00848175252553,435541.73375650716,0.0,0.0,0.0,0.0,0.0,0.0,0.0,0.0,0.0,101058.0,1.5154884660252491e-05,inf,inf,9.78017712480733,12.032388827396911,62.663456555323855,3.1216429823616783,-4.166963643872459,3.670585470889005,0.04695186703426348,0.05776409906682816,0.30082954966430353,0.010730514675242527,-0.12125384462086518,0.012617481077963642,0.30082954966430353,0.04695186703426348,-0.05776409906682816,0.30082954966430353,0.051807673963360605,-0.05345216438566004,0.027011497458949027,-0.13448736771214284,-0.13448736771214284,0.012617481077963642,1064.0,1188.3000000000002,710.9,121.1,472.4,-561.6,-17.6,16.1,-5.0,1.4,6.6,-6.8,tailOff_alfa0_balance,raw_tailOff_alfa0_balance.txt,0,0,40,-0.0,-5,inf,inf
6.0,18.0,31.0,6.0,0.0,-5.0,632.77,100884.0,295.13,1613.7,1725.7,1081.0,231.6,722.9,-803.0,582.529,1.1908344347593764,1489.0442636899363,50.008417258363295,539001.9316031974,0.0,0.0,0.0,0.0,0.0,0.0,0.0,0.0,0.0,100884.0,1.5306754895821067e-05,inf,inf,15.00114641942636,17.494395733917855,98.36290834580217,4.528171213032203,-6.47946630517829,5.198994123794351,0.046389279069219455,0.05409935901946294,0.3041757128244842,0.010026449878021152,-0.12145127237294356,0.011511811622388811,0.3041757128244842,0.046389279069219455,-0.05409935901946294,0.3041757128244842,0.050927823674568315,-0.04985040255254462,0.025274514801295257,-0.13452622837633837,-0.13452622837633837,0.011511811622388811,1632.0,1711.4,1086.8,228.6,717.9,-795.4,-18.3,14.3,-5.8,3.0,5.0,-7.6,tailOff_alfa0_V50_balance,raw_tailOff_alfa0_V50_balance.txt,0,0,50,0.0,-5,inf,inf
27.0,19.0,10.0,25.0,4.995,-5.0,102.76,100872.0,293.92999999999995,393.5,31.1,270.3,250.9,275.5,18.8,244.583,1.1955539147649776,239.72794011270767,20.02579387832885,217381.14806359,0.0,0.0,0.0,0.0,0.0,0.0,0.0,0.0,0.0,100872.0,1.519841166430528e-05,inf,inf,3.80025443313896,0.5550302654080412,38.71700724483641,0.16769823662666997,-0.506247974816532,-0.15960926472001324,0.07299528385309967,0.010661020856189541,0.7436762415523268,0.0023064380697613743,-0.05894067244373273,-0.0021951863766843807,0.7472075947000277,0.007967065757750691,-0.010661020856189541,0.7436762415523267,0.07364668395132937,-0.004258494271888503,0.005482240062743386,-0.07951460987031955,-0.07951460987031955,-0.0017095176099500397,413.5,15.8,274.3,248.4,269.5,24.6,-20.0,15.3,-4.0,2.5,6.0,-5.8,tailOff_alfa5_betaSweep_balance,raw_tailOff_alfa5_betaSweep_balance.txt,0,0,20,5.0,-5,inf,inf
48.0,19.0,18.0,44.0,4.995,-5.0,230.53,100870.0,293.87,772.4,643.6,755.0,448.5,531.0,-281.7,360.331,1.1957743040786482,538.5235487427908,30.01184805462325,325891.8257782782,0.0,0.0,0.0,0.0,0.0,0.0,0.0,0.0,0.0,100870.0,1.519321248219005e-05,inf,inf,7.280066492106002,6.620705265939952,86.87274729568242,1.910346894066438,-0.8592449709263619,1.8041776679899246,0.06224886367854388,0.05661093617787699,0.7428132434852474,0.011696057458871752,-0.044533080836863394,0.011046038673062863,0.7454121960454732,-0.002663402524649021,-0.05661093617787699,0.7428132434852472,0.06694595614902438,-0.050970168525310035,0.026585238372445155,-0.06207810783855114,-0.06207810783855114,0.013318834149031508,792.4,628.3000000000001,759.0,446.0,525.0,-275.9,-20.0,15.3,-4.0,2.5,6.0,-5.8,tailOff_alfa5_betaSweep_balance,raw_tailOff_alfa5_betaSweep_balance.txt,0,0,30,5.0,-5,inf,inf
6.0,18.0,59.0,59.0,4.995,-5.0,407.77,100878.0,294.28999999999996,1352.5,1052.8,1328.1,825.7,910.9,-466.9,472.9,1.1941624399357855,955.5084551624864,40.00373682152329,433327.3099429254,0.0,0.0,0.0,0.0,0.0,0.0,0.0,0.0,0.0,100878.0,1.5230523835868825e-05,inf,inf,12.609453360001767,10.864675765870913,154.5463882563432,3.212088315982674,-1.5481587547157059,3.0147238363084354,0.06076625983114871,0.05235799615741661,0.7447750284354296,0.011083703483116717,-0.04522217015177678,0.010402673213829228,0.74723744217532,-0.004311186164740195,-0.05235799615741661,0.7447750284354296,0.06509832591053444,-0.04686262966514546,0.024837075545409894,-0.06234932085824918,-0.06234932085824918,0.012525701545166398,1372.5,1037.5,1332.1,823.2,904.9,-461.09999999999997,-20.0,15.3,-4.0,2.5,6.0,-5.8,tailOff_alfa5_betaSweep_balance,raw_tailOff_alfa5_betaSweep_balance.txt,0,0,40,5.0,-5,inf,inf
69.0,19.0,28.0,13.0,4.995,-5.0,632.73,100867.0,294.98999999999995,2088.5,1516.8,2072.8,1312.5,1389.7,-645.2,584.987,1.1911988324983092,1488.9489964848703,49.99916815650255,539264.7159768139,0.0,0.0,0.0,0.0,0.0,0.0,0.0,0.0,0.0,100867.0,1.5296466276359256e-05,inf,inf,19.370872628218926,16.067193437880174,241.91226543026627,4.519974525380119,-2.4677468097424047,4.181953146499107,0.05990597558897927,0.04968908300346186,0.7481330627526142,0.01000894081836186,-0.046258465155103824,0.009260433065151327,0.7505078197622881,-0.005460583350821169,-0.04968908300346186,0.7481330627526143,0.06400870420137145,-0.0442788512436088,0.023116463686326087,-0.06314314219433093,-0.06314314219433093,0.011237987658168837,2108.5,1501.5,2076.8,1310.0,1383.7,-639.4000000000001,-20.0,15.3,-4.0,2.5,6.0,-5.8,tailOff_alfa5_betaSweep_balance,raw_tailOff_alfa5_betaSweep_balance.txt,0,0,50,5.0,-5,inf,inf
6.0,19.0,49.0,7.0,10.0,-5.0,407.14,100850.0,294.65999999999997,2314.5,1157.4,1663.6,1035.5,1826.2,-505.3,476.171,1.1923319095459772,954.0211326469042,40.00326248638058,432238.091510322,0.0,0.0,0.0,0.0,0.0,0.0,0.0,0.0,0.0,100850.0,1.5268722948777988e-05,inf,inf,21.451209339429134,12.087801798871048,210.58029801148672,2.457437322107245,0.9968152414889317,3.2545787929004724,0.10353675926566311,0.058343182666179105,1.0163903244947363,0.008492907821232533,0.029162658755181998,0.011247830183249607,1.0189280412170323,-0.07453052440022735,-0.058343182666179105,1.0163903244947363,0.10822771405758812,-0.04909734608636151,0.022605091133030313,-1.948417298583069e-05,-1.948417298583069e-05,0.015002283250274537,2334.2,1142.5,1667.8,1033.5,1820.2,-497.90000000000003,-19.7,14.9,-4.2,2.0,6.0,-7.4,tailOff_alfa10_betaSweep_balance,raw_tailOff_alfa10_betaSweep_balance.txt,0,0,40,10.0,-5,inf,inf
28.0,14.0,55.0,43.0,-0.0,-4.005,102.81,101033.0,293.35999999999996,283.5,114.0,117.5,80.8,149.4,-49.4,243.913,1.1997887921417605,239.84457174310023,19.995282501532014,218145.956792762,0.0,0.0,0.0,0.0,0.0,0.0,0.0,0.0,0.0,101033.0,1.5122051625455935e-05,inf,inf,2.8190429864971973,0.9908653236210299,15.881509287268074,0.3275907631646286,-1.1230060606813017,0.2646095852136789,0.0541218440603255,0.019023285131397075,0.3049036758946877,0.004503329343855594,-0.13068406874369443,0.0036375387945824784,0.3049036758946877,0.0541218440603255,-0.019023285131397075,0.3049036758946877,0.05531832963705215,-0.015196768993673003,0.009865098725136835,-0.1459384711424782,-0.1459384711424782,0.0036375387945824784,306.6,93.4,123.0,78.8,142.1,-40.5,-23.1,20.6,-5.5,2.0,7.3,-8.9,tailOff_alfa0_balance,raw_tailOff_alfa0_balance.txt,0,0,20,-0.0,-4,inf,inf
28.0,18.0,41.0,7.0,0.0,-4.0,230.19,100880.0,294.59999999999997,605.9,513.9,339.6,111.5,294.5,-257.1,357.678,1.1929295039917849,537.7264393143222,30.02536553203596,324639.880048685,0.0,0.0,0.0,0.0,0.0,0.0,0.0,0.0,0.0,100880.0,1.5258673281338502e-05,inf,inf,5.792649957303759,4.8418180223394,35.00980631057456,1.2471059275885152,-2.3539637515650447,1.6186778831978963,0.04960399737180204,0.041461771421565104,0.2997982534793743,0.007646697470206533,-0.12218244774530178,0.009925011020084423,0.2997982534793743,0.04960399737180204,-0.041461771421565104,0.2997982534793743,0.05237539149684585,-0.037900572689973745,0.019332820816742473,-0.13616348164455822,-0.13616348164455822,0.009925011020084423,630.1,495.0,346.40000000000003,108.5,288.5,-247.8,-24.2,18.9,-6.8,3.0,6.0,-9.3,tailOff_alfa0_V50_balance,raw_tailOff_alfa0_V50_balance.txt,0,0,30,0.0,-4,inf,inf
49.0,15.0,15.0,18.0,-0.0,-4.005,231.45,101026.0,293.28999999999996,598.8,537.3,347.5,108.8,290.1,-271.3,357.982,1.1999920013203167,540.6804867198157,30.018996504589254,327619.32125298306,0.0,0.0,0.0,0.0,0.0,0.0,0.0,0.0,0.0,101026.0,1.5116700336804478e-05,inf,inf,5.7171724013314735,5.008004229054995,35.16993238833016,1.2879734241011978,-2.3484463139165968,1.71388653217481,0.048690179274153714,0.042650563355693026,0.29952399417741055,0.007854131375939318,-0.12123007716710829,0.010451372470319194,0.29952399417741055,0.048690179274153714,-0.042650563355693026,0.29952399417741055,0.051550141651859026,-0.03914571506538719,0.019875319257811545,-0.13495354872304766,-0.13495354872304766,0.010451372470319194,621.9,516.6999999999999,353.0,106.8,282.8,-262.40000000000003,-23.1,20.6,-5.5,2.0,7.3,-8.9,tailOff_alfa0_balance,raw_tailOff_alfa0_balance.txt,0,0,30,-0.0,-4,inf,inf
7.0,14.0,39.0,19.0,-0.0,-4.0,409.03,101055.0,293.78,1061.8,871.9,614.9,209.6,493.0,-435.1,470.757,1.1983344058913443,958.4832103912688,39.99615459631169,435342.055581862,0.0,0.0,0.0,0.0,0.0,0.0,0.0,0.0,0.0,101055.0,1.5157164178055205e-05,inf,inf,9.973509631999756,8.326401767664368,62.75539492766047,2.085819759219793,-4.196636801705411,2.7839679655944445,0.04791420456590865,0.0400012565600562,0.3014861308732111,0.007175038289667501,-0.12220453310562644,0.009576607308495156,0.3014861308732111,0.04791420456590865,-0.0400012565600562,0.3014861308732111,0.050587834574709174,-0.03656148955675957,0.018449511187227097,-0.13570929388671388,-0.13570929388671388,0.009576607308495156,1084.8999999999999,851.3,620.4,207.6,485.7,-426.20000000000005,-23.1,20.6,-5.5,2.0,7.3,-8.9,tailOff_alfa0_balance,raw_tailOff_alfa0_balance.txt,0,0,40,-0.0,-4,inf,inf
7.0,18.0,31.0,30.0,0.0,-4.0,632.39,100884.0,295.15999999999997,1634.8,1241.0,946.0,359.8,743.0,-615.2,581.322,1.1907133985991827,1488.139231220449,49.9957583791348,538768.4300324979,0.0,0.0,0.0,0.0,0.0,0.0,0.0,0.0,0.0,100884.0,1.5309512470217875e-05,inf,inf,15.251127110927964,12.026252961281642,98.49204439382193,3.016702693269438,-6.493086669912985,3.957933799918049,0.047190997339550504,0.03721238878757674,0.30476028238105307,0.006683760827119996,-0.12178059035403956,0.008769138220762583,0.30476028238105307,0.047190997339550504,-0.03721238878757674,0.30476028238105307,0.049671847463259367,-0.03382986371190288,0.0171721830647837,-0.1350815130316751,-0.1350815130316751,0.008769138220762583,1659.0,1222.1,952.8,356.8,737.0,-605.9000000000001,-24.2,18.9,-6.8,3.0,6.0,-9.3,tailOff_alfa0_V50_balance,raw_tailOff_alfa0_V50_balance.txt,0,0,50,0.0,-4,inf,inf
28.0,19.0,10.0,45.0,4.995,-4.0,102.83,100870.0,293.90999999999997,349.9,222.2,310.0,219.7,254.4,-101.7,244.494,1.1956115638787126,239.89122446004126,20.032129772715216,217471.84923964774,0.0,0.0,0.0,0.0,0.0,0.0,0.0,0.0,0.0,100870.0,1.5196879418792286e-05,inf,inf,3.45499741586356,2.0792829859500213,38.72311019569686,0.602663289924806,-0.4321357177876024,0.6083351213872559,0.06631841632931888,0.039911681003164126,0.7432871966077705,0.008283089088883182,-0.050277797441286284,0.00836104353888206,0.7462386803347695,0.001349428652877127,-0.039911681003164126,0.7432871966077707,0.06894096612827373,-0.035188319286766384,0.01873015088433816,-0.06896983993728653,-0.06896983993728653,0.009960102716129423,376.0,202.29999999999998,315.0,216.79999999999998,247.20000000000002,-93.10000000000001,-26.1,19.9,-5.0,2.9,7.2,-8.6,tailOff_alfa5_betaSweep_balance,raw_tailOff_alfa5_betaSweep_balance.txt,0,0,20,5.0,-4,inf,inf
49.0,19.0,19.0,12.0,4.995,-4.0,230.58,100877.0,293.87,775.6,477.8,709.9,493.1,538.7,-218.0,359.494,1.1958572863343095,538.6407716199145,30.014072870791875,325938.6018985613,0.0,0.0,0.0,0.0,0.0,0.0,0.0,0.0,0.0,100877.0,1.5192158203341792e-05,inf,inf,7.366163520493105,4.722624005734094,87.04397554655215,1.3420926080543116,-0.8650762638470768,1.368441272691349,0.06297133680959091,0.04037243350120921,0.7441153710664304,0.008215144679662884,-0.044825548603843766,0.008376428700460068,0.7467722834111878,-0.00205704782615454,-0.04037243350120921,0.7441153710664306,0.06563418039556464,-0.035881429879520976,0.01879049621289847,-0.06257420680204093,-0.06257420680204093,0.00998068364530825,801.7,457.90000000000003,714.9,490.20000000000005,531.5,-209.4,-26.1,19.9,-5.0,2.9,7.2,-8.6,tailOff_alfa5_betaSweep_balance,raw_tailOff_alfa5_betaSweep_balance.txt,0,0,30,5.0,-4,inf,inf
7.0,19.0,0.0,21.0,4.995,-4.0,407.82,100876.0,294.28999999999996,1364.9,768.5,1256.1,893.2,926.1,-347.3,472.327,1.1941387645568142,955.6264982053032,40.00660435216075,433349.77979254513,0.0,0.0,0.0,0.0,0.0,0.0,0.0,0.0,0.0,100876.0,1.5230825801129855e-05,inf,inf,12.780509196689222,7.765489975538277,154.65951128114236,2.1861151696669796,-1.5464260813572839,2.213561896401034,0.06158298766711361,0.03741807670046129,0.7452281148779029,0.007542525893926986,-0.04516597847338729,0.007637222481722349,0.7477599194506044,-0.0035370097124992755,-0.03741807670046129,0.7452281148779029,0.06404312768921805,-0.03303111608395912,0.0173552617249252,-0.06252332634472735,-0.06252332634472735,0.009119320553865015,1391.0,748.6,1261.1,890.3000000000001,918.9,-338.7,-26.1,19.9,-5.0,2.9,7.2,-8.6,tailOff_alfa5_betaSweep_balance,raw_tailOff_alfa5_betaSweep_balance.txt,0,0,40,5.0,-4,inf,inf
70.0,19.0,28.0,57.0,4.995,-4.0,632.83,100866.0,295.06,2109.1,1094.5,1953.1,1425.6,1412.6,-495.9,584.001,1.190904425828772,1489.1871647751811,50.00934718945558,539142.390900465,0.0,0.0,0.0,0.0,0.0,0.0,0.0,0.0,0.0,100866.0,1.5303051687954114e-05,inf,inf,19.617991732846065,11.13344620500095,242.09147761000034,3.0738179263160927,-2.4462562396989966,3.1845966189214656,0.0606605081268401,0.03442556777447576,0.7485675519177968,0.0068055120958024524,-0.04584828585050738,0.007050778975804869,0.7510063551166896,-0.004746746754838917,-0.03442556777447576,0.7485675519177968,0.06291414839241641,-0.0301102456791449,0.015831863458202915,-0.06294563012521662,-0.06294563012521662,0.008402463713171555,2135.2,1074.6,1958.1,1422.6999999999998,1405.3999999999999,-487.29999999999995,-26.1,19.9,-5.0,2.9,7.2,-8.6,tailOff_alfa5_betaSweep_balance,raw_tailOff_alfa5_betaSweep_balance.txt,0,0,50,5.0,-4,inf,inf
