run,hr,min,sec,AoA,AoS,dPb,pBar,temp,B1,B2,B3,B4,B5,B6,rpmWT,rho,q,V,V_solid_blockage_corr,Re,rpsM1,rpsM2,iM1,iM2,dPtQ,tM1,tM2,vM1,vM2,pInf,nu,J_M1,J_M2,FX,FY,FZ,MX,MY,MZ,CFX,CFY,CFZ,CMX,CMY,CMZ,CN,CT,CY,CY_solid_blockage_corr,CL,CL_solid_blockage_corr,CD,CD_solid_blockage_corr,CYaw,CYaw_solid_blockage_corr,CMroll,CMroll_solid_blockage_corr,CMpitch,CMpitch_solid_blockage_corr,CMpitch25c,CMyaw,CMyaw_solid_blockage_corr,B1_zeroed,B2_zeroed,B3_zeroed,B4_zeroed,B5_zeroed,B6_zeroed,B1_zero,B2_zero,B3_zero,B4_zero,B5_zero,B6_zero,config,source_file,dR,dE,V_round,AoA_round,AoS_round,J,J_round,CD_modeloff,CY_modeloff,CL_modeloff,CMroll_modeloff,CMpitch_modeloff,CMyaw_modeloff,modeloff_correction_found,CD_uncorrected,CY_uncorrected,CL_uncorrected,CMroll_uncorrected,CMpitch_uncorrected,CMyaw_uncorrected,CMpitch25c_uncorrected,solid_blockage_e,matched_fit_velocity,velocity_match_error,fit_found,fit_match_type,matched_fit_AoS,matched_fit_dR,matched_fit_source_row,CD0_fit,k_fit,CL2_fit,CDi_fit,CDsep_fit,ewb_t_fit,q_ratio_wake,V_wake_corr,CL_solid_blockage_corr_wake_corr,CD_solid_blockage_corr_wake_corr,CYaw_solid_blockage_corr_wake_corr,CMroll_solid_blockage_corr_wake_corr,CMpitch_solid_blockage_corr_wake_corr,CMyaw_solid_blockage_corr_wake_corr
4.0,17.0,20.0,16.0,2.496,0.0,413.22,101106.0,290.81,788.1,1844.2,1294.7,283.5,422.4,-1323.6,0.0,1.2111837665772662,968.376508682172,39.98822250188802,39.70120510108445,443397.0123409999,98.44,98.43,6.44,7.87,0.0,21.129,21.653,28.525,28.589,101106.0,1.4878860687823469e-05,1.9991104588813853,1.9993135585927413,7.352540167190499,13.14918597295706,107.13484671210308,-2.542902906018317,-2.537051679296379,8.644608059925003,0.0349618126538645,0.0625252451647622,0.5094332508597899,-0.0086579981384831,-0.0731232540013728,0.0294328974628212,0.5104725077494743,0.0127430081841154,-0.061044888021905,-0.0601717276119258,0.496628535097516,0.4895249693549186,0.0269118126538644,0.0265268774016005,-0.0625252451647622,-0.0616309103486753,0.0081079636878203,0.0079919907844837,-0.0760898446753434,-0.0750014875315292,-0.0760898446753434,0.0263892008170431,0.0260117407847441,800.3666666666667,1849.4333333333327,1299.8666666666668,285.2333333333333,401.5,-1326.6999999999998,-12.266666666666666,-5.233333333333333,-5.166666666666667,-1.7333333333333336,20.9,3.1,rudder_m20_elevator_0,raw_rudder_m20_elevator_0.txt,-20.0,0.0,39.5,2.5,0.0,1.9991104588813853,2.0,0.00805,-0.0014803571428571,0.0128047157622739,-0.0004333333333333,-0.0068874999999999,0.00335,True,0.0349618126538645,-0.0625252451647622,0.5094332508597899,0.007674630354487,-0.0829773446753433,0.0297392008170431,-0.0829773446753433,0.007229438,39.5,0.0,True,exact_AoS_exact_dR,0.0,-20.0,331.0,0.0463957448567955,0.0617777669659325,0.239634695621934,0.014804096383084005,0.0,0.0012170477998666646,1.0024340955997333,39.749493998316424,0.48833631208647893,0.0264624652314226,-0.06148125908646687,0.007972584751022735,-0.0748193700321591,0.025948579461657153
1.0,17.0,17.0,7.0,2.496,4.0,413.81,101101.0,290.5,809.5,-428.2,696.7,860.7,460.6,-25.3,0.0,1.2124162911880931,969.769728920426,39.99663253237486,39.70955476817077,444308.8042373147,98.44,98.42,6.9,6.8,0.0,20.503,20.594,28.612,28.743,101101.0,1.4851449705370646e-05,1.9995308971718089,1.9999372233041337,7.603355027514802,-7.216187417281273,106.82648115503552,-5.022943558004886,-2.312526063937661,0.1588977406771972,0.0361025125137948,-0.0342641499169136,0.5072371813163812,-0.0170773952470912,-0.066556190140589,0.0005402329311643,0.5083281987643795,0.0139782638606351,0.0281445070597708,0.0277419398650508,0.4982324655541073,0.491105957864683,0.0309547148818611,0.0305119516560962,0.0316623002035607,0.0312094159748812,-0.020599676921507,-0.0203050278046183,-0.072744290456031,-0.071703786713024,-0.072744290456031,0.006525507405891,0.0064321692918165,827.2,-431.7,703.5,860.6,438.8,-26.9,-17.7,3.5,-6.8,0.1,21.8,1.6,rudder_m20_elevator_0,raw_rudder_m20_elevator_0.txt,-20.0,0.0,39.5,2.5,4.0,1.9995308971718089,2.0,0.00745,0.0061196428571428,0.0090047157622739,-0.0061333333333333,-0.0039875,-0.00715,True,0.0384047148818611,0.0342641499169136,0.5072371813163812,-0.0267330102548403,-0.076731790456031,-0.000624492594109,-0.076731790456031,0.007229438,39.5,0.0,True,exact_AoS_exact_dR,4.0,-20.0,349.0,0.0497740818358744,0.0598984398047693,0.24118506185018776,0.014446608909043031,0.0,0.0013056679438106186,1.0026113358876212,39.76136845721195,0.48982685541840826,0.03043248222311758,0.031128129971970855,-0.020252142657695035,-0.07151703172151347,0.006415416484516446
2.0,17.0,18.0,4.0,2.496,8.0,413.45,101104.0,290.63,508.3,-2894.0,101.3,1653.4,181.6,1226.0,0.0,1.211909932667162,968.9196246045556,39.98744921210356,39.700437361624815,443867.2703991036,98.42,98.43,7.98,6.06,0.0,20.618,20.945,28.89,28.665,101104.0,1.4862809760720225e-05,1.9994780330453228,1.999274895990253,4.792262915720875,-31.173048377339043,112.0740194845113,-7.826694062111748,-3.01456195211257,-8.001160292735243,0.0227747524649654,-0.1481468093170123,0.5326206212810651,-0.0266331516102841,-0.0868374181123607,-0.0272268359339839,0.5331071373955024,-0.0004422913531882,0.0898271664598694,0.0885423164415481,0.5234159055187912,0.5159291844932993,0.0403211609895367,0.0397444240570711,0.1435354218284363,0.141482351508686,-0.0473048344472705,-0.0466282059861755,-0.1144690496971241,-0.1128317325424493,-0.1144690496971241,-0.009574847937301,-0.0094378933384585,521.1,-2897.3,110.3,1651.4,156.0,1220.2,-12.8,3.3,-9.0,2.0,25.6,5.8,rudder_m20_elevator_0,raw_rudder_m20_elevator_0.txt,-20.0,0.0,39.5,2.5,8.0,1.9994780330453228,2.0,0.00285,0.0583196428571428,0.0092047157622739,-0.0198333333333333,0.0212125,-0.02055,True,0.0431711609895367,0.1481468093170123,0.5326206212810651,-0.0671381677806038,-0.0932565496971241,-0.030124847937301,-0.0932565496971241,0.007229438,39.5,0.0,True,exact_AoS_exact_dR,8.0,-20.0,374.0,0.0568143549400112,0.0538917364056854,0.26618292341192085,0.014345059944209983,0.0,0.0014903475716147867,1.0029806951432296,39.75956078759305,0.5143959270518388,0.03962631010699108,0.14106188902118574,-0.04648963455823724,-0.11249641502455486,-0.009409845457803883
3.0,17.0,18.0,49.0,2.496,10.0,413.27,101103.0,290.71,330.1,-3931.4,-197.7,2031.0,31.8,1709.0,0.0,1.211564445727421,968.4945769444824,39.98437706931307,39.697387269287766,443611.97787620977,98.43,98.43,7.14,7.02,0.0,20.79,21.22,28.855,28.611,101103.0,1.4870220568739444e-05,1.999121296346392,1.999121296346392,3.065151877192533,-41.8584898958199,113.32130386928944,-8.123402393455388,-3.16332361165506,-11.18160035468108,0.014573222189432,-0.1990156110386959,0.5387845712871872,-0.0276549405316352,-0.0911626352509436,-0.0380661301607249,0.5389080657471974,-0.0089044783516518,0.1370959681815531,0.1351350050990925,0.5297798555249134,0.5222021072344613,0.0426605203826623,0.0420503222370963,0.1934615032454396,0.1906943112501269,-0.0630775268345125,-0.0621752924136461,-0.1122826411828681,-0.1106765974962354,-0.1122826411828681,-0.021451558946504,-0.0211447248673309,333.1,-3942.1,-187.5,2029.8,4.100000000000001,1705.3,-3.0,10.7,-10.2,1.2,27.7,3.7,rudder_m20_elevator_0,raw_rudder_m20_elevator_0.txt,-20.0,0.0,39.5,2.5,10.0,1.999121296346392,2.0,0.00625,0.0619196428571428,0.0090047157622739,-0.0189333333333333,0.0170125,-0.0201499999999999,True,0.0489105203826623,0.1990156110386959,0.5387845712871873,-0.0820108601678459,-0.0952701411828681,-0.041601558946504,-0.0952701411828681,0.007229438,39.5,0.0,True,exact_AoS_exact_dR,10.0,-20.0,392.0,0.0632107721849017,0.0522715180583161,0.27269504080011175,0.014254183749596286,0.0,0.0016581376471691608,1.0033162752943383,39.763156519510346,0.5204760653177536,0.041911332719844686,0.19006400668042964,-0.0619697835514589,-0.11031077659312036,-0.02107483491297674
1.0,12.0,48.0,53.0,-4.996,0.0,414.34,101170.0,290.45,-619.2,925.6,-346.6,-912.5,45.0,-701.9,0.0,1.2134526039979827,971.0212932130448,40.00533998428826,39.71819972192698,444844.7576862209,123.02,123.03,17.46,17.61,0.0,19.691,20.772,34.09,33.511,101170.0,1.48367858629074e-05,1.6003631373030802,1.6002330582055182,-5.863858106526021,6.0197828451074695,-75.94717092998704,-2.828415237606084,6.252893085297141,4.53287020069566,-0.0278070860169263,0.0285464989664102,-0.3601501735592838,-0.0096038721582797,0.1797308758151738,0.0153913418859964,-0.3563602706027733,-0.0590655490404786,-0.0323964989664102,-0.0319331130673444,-0.3838001735592838,-0.3783104572578165,-0.0337070860169263,-0.0332249540317684,-0.0285464989664102,-0.0281381818484881,0.0013883357312066,0.0013684775606778,0.1861183855490805,0.1834562264216466,0.1861183855490805,0.0126512998322206,0.0124703409590663,-638.1,914.8,-337.0,-902.8,7.600000000000001,-695.6999999999999,18.9,10.8,-9.6,-9.7,37.4,-6.2,rudder_m10_elevator_0,raw_rudder_m10_elevator_0.txt,-10.0,0.0,39.5,-5.0,0.0,1.6003631373030802,1.6,0.0059,0.00385,0.02365,-0.0015999999999999,0.00145,0.0026999999999999,True,-0.0278070860169263,-0.0285464989664102,-0.3601501735592838,-0.0002116642687932,0.1875683855490806,0.0153512998322205,0.1875683855490806,0.007229438,39.5,0.0,True,exact_AoS_exact_dR,0.0,-10.0,332.0,0.0439276316525353,0.0621724279768319,0.1431188020706182,0.00889804341386597,0.0,0.0011523045404505637,1.0023046090809011,39.76394084511947,-0.37744060421384446,-0.033148559560386745,-0.028073483443611425,0.0013653310064419182,0.1830344036728249,0.012441667778522363
8.0,12.0,53.0,8.0,-4.995,0.0,413.7,101161.0,290.67999999999995,1533.2,1283.8,-582.9,-1291.7,1682.5,-929.6,0.0,1.2123845995887763,969.5099735513668,39.991798252437086,39.70475518651103,444030.19039940194,82.02,82.03,1.03,0.87,0.0,23.786,23.813,31.732,30.434,101161.0,1.485897230570449e-05,2.39953707351704,2.399244554063971,13.93759241652099,8.934983625828313,-73.44884085980564,-2.124256591667887,6.653740646990737,6.014379200644172,0.0661966878525451,0.0424367641390819,-0.3488457580209146,-0.0072241482378736,0.1915508258418861,0.0204536340264445,-0.3532846132175095,0.0355717083591513,-0.0462867641390819,-0.0456246977275948,-0.3724957580209146,-0.3671677353260031,0.060296687852545,0.0594342293831835,-0.0424367641390819,-0.0418297665087385,0.008099664366782,0.0079838101734438,0.1714430928783923,0.1689908429666212,0.1714430928783923,0.0171100392329712,0.0168653044262489,1514.3,1273.0,-573.3,-1282.0,1645.1,-923.4,18.9,10.8,-9.6,-9.7,37.4,-6.2,rudder_m10_elevator_0,raw_rudder_m10_elevator_0.txt,-10.0,0.0,39.5,-5.0,0.0,2.39953707351704,2.4,0.0059,0.00385,0.02365,-0.0015999999999999,0.00145,0.0026999999999999,True,0.0661966878525451,-0.0424367641390819,-0.3488457580209146,0.0064996643667821,0.1728930928783923,0.0198100392329711,0.1728930928783923,0.007229438,39.5,0.0,True,exact_AoS_exact_dR,0.0,-10.0,332.0,0.0439276316525353,0.0621724279768319,0.13481214586442586,0.008381598429158173,0.007124999301490026,0.002086815318399618,1.0041736306367992,39.78752540469229,-0.3656416819999175,0.05918720385586418,-0.04165591012603274,0.007950627192212612,0.1682884690563476,0.016795207433951163
14.0,12.0,58.0,17.0,2.496,0.0,103.96,101160.0,290.57,268.1,288.8,271.3,103.3,158.7,-204.0,0.0,1.2128315782593753,242.52716310066285,19.99838583806929,19.854846456611696,222189.75821228168,49.21,49.21,0.66,0.72,0.0,22.505,22.863,33.762,32.572,101160.0,1.4849138116813831e-05,1.999944180859678,1.999944180859678,2.5767467469310907,2.137724556013921,26.801435904178973,-0.5173985545754108,-0.9250226123674568,1.3495768238307124,0.0489228930172394,0.0405874849279441,0.5088601675776615,-0.0070339095593826,-0.1064541027068845,0.0183471740272914,0.5105079682031981,0.0267158007438398,-0.0391071277850869,-0.0385477558730984,0.4960554518153877,0.4889600832150866,0.0408728930172394,0.040288264341843,-0.0405874849279441,-0.0400069386098479,0.0040359341099927,0.0039782058055216,-0.1133556653220791,-0.1117342735493467,-0.1133556653220791,0.0151366593781226,0.0149201509670731,280.3666666666667,294.03333333333336,276.4666666666667,105.03333333333332,137.79999999999998,-207.1,-12.266666666666666,-5.233333333333333,-5.166666666666667,-1.7333333333333336,20.9,3.1,rudder_m10_elevator_0,raw_rudder_m10_elevator_0.txt,-10.0,0.0,20.0,2.5,0.0,1.999944180859678,2.0,0.00805,-0.0014803571428571,0.0128047157622739,-0.0004333333333333,-0.0068874999999999,0.00335,True,0.0489228930172394,-0.0405874849279441,0.5088601675776616,0.0036026007766594,-0.120243165322079,0.0184866593781227,-0.120243165322079,0.007229438,20.0,0.0,True,exact_AoS_flipped_dR,0.0,10.0,67.0,0.0498551463625801,0.0630837092467418,0.23908196297770443,0.015082177038625792,0.0,0.0013077944190763766,1.0026155888381527,19.880795557035782,0.48768450107752814,0.040183161712585874,-0.03990256989342106,0.0039678275999394845,-0.11144278504469116,0.01488122779375774
2.0,12.0,49.0,35.0,2.496,0.0,413.86,101166.0,290.54,-771.0,962.8,1381.8,789.4,-903.6,-719.9,0.0,1.213028753275484,969.8877999129204,39.98896818151591,39.70194542856075,444400.6220198101,123.03,123.03,17.58,17.93,0.0,21.089,22.581,34.074,33.579,101166.0,1.4845535922040316e-05,1.5995781781312823,1.5995781781312823,-6.990728382745571,6.523632102842962,110.93256468921332,-2.7001902292649187,-4.624381133196843,4.712499290059566,-0.0331895766717983,0.0309719640074008,0.5266697058691712,-0.0091791997468383,-0.1330768662458155,0.0160199721565789,0.5247246414124537,-0.0560943649090021,-0.0294916068645437,-0.0290697713206477,0.5138649901068972,0.5065148813594674,-0.0412395766717983,-0.040649703107591,-0.0309719640074008,-0.0305289540573971,-0.0007135638442168,-0.0007033573270299,-0.1168347855439352,-0.1151636298984573,-0.1168347855439352,0.0126048264781474,0.0124245323403086,-758.7333333333333,968.0333333333332,1386.9666666666667,791.1333333333333,-924.5,-723.0,-12.266666666666666,-5.233333333333333,-5.166666666666667,-1.7333333333333336,20.9,3.1,rudder_m10_elevator_0,raw_rudder_m10_elevator_0.txt,-10.0,0.0,39.5,2.5,0.0,1.5995781781312823,1.6,0.00805,-0.0014803571428571,0.0128047157622739,-0.0004333333333333,-0.0068874999999999,0.00335,True,-0.0331895766717983,-0.0309719640074008,0.5266697058691712,-0.0011468971775501,-0.1237222855439351,0.0159548264781475,-0.1237222855439351,0.007229438,39.5,0.0,True,exact_AoS_exact_dR,0.0,-10.0,332.0,0.0439276316525353,0.0621724279768319,0.25655732503859535,0.015950791812890722,0.0,0.0011523045404505637,1.0023046090809011,39.74766783263605,0.5053502465921356,-0.04055623683589183,-0.030458758525905325,-0.0007017400904450279,-0.11489883300453012,0.012395964487983066
6.0,12.0,51.0,49.0,2.5,0.0,413.69,101165.0,290.56,1463.3,1116.6,1019.6,387.3,894.7,-788.7,0.0,1.2129332677003728,969.4863594824362,39.98226519445301,39.69529055251164,444267.4437195616,82.02,82.02,0.56,1.3,0.0,24.587,25.399,31.31,30.092,101165.0,1.4847497008520386e-05,2.398965083082591,2.398965083082591,13.564576907358653,8.13735951383032,108.25829926690729,-1.7090309731480768,-2.950725960654127,5.158883014585127,0.064426617431768,0.0386493844874657,0.5141860360494673,-0.0058121951293063,-0.084948871870768,0.0175446994239085,0.51650689445984,0.0419368176834542,-0.0371690273446086,-0.036637377206384,0.5013813202871935,0.4942097727037043,0.056376617431768,0.0555702300013856,-0.0386493844874657,-0.0380965599431335,0.0047444566820065,0.0046765939685864,-0.0962202052320491,-0.0948439118752892,-0.0962202052320491,0.0143660493169695,0.0141605633882069,1475.5666666666666,1121.8333333333333,1024.7666666666669,389.03333333333336,873.8000000000001,-791.8000000000001,-12.266666666666666,-5.233333333333333,-5.166666666666667,-1.7333333333333336,20.9,3.1,rudder_m10_elevator_0,raw_rudder_m10_elevator_0.txt,-10.0,0.0,39.5,2.5,0.0,2.398965083082591,2.4,0.00805,-0.0014803571428571,0.0128047157622739,-0.0004333333333333,-0.0068874999999999,0.00335,True,0.064426617431768,-0.0386493844874657,0.5141860360494674,0.0043111233486732,-0.103107705232049,0.0177160493169695,-0.103107705232049,0.007229438,39.5,0.0,True,exact_AoS_exact_dR,0.0,-10.0,332.0,0.0439276316525353,0.0621724279768319,0.24424329943584708,0.01518519894299899,0.0,0.0011523045404505637,1.0023046090809011,39.74100529255616,0.4930734311966175,0.055442456811949314,-0.0380089641392226,0.004665841028980969,-0.09462583631363294,0.014128003862211042
9.0,12.0,53.0,59.0,2.496,0.0,413.54,101159.0,290.77,1865.9,1091.5,919.7,346.8,1221.5,-810.7,0.0,1.211985376693565,969.1321495590578,39.99058970785869,39.703555316319786,443764.0522338207,70.31,70.3,-1.01,-1.26,0.0,23.067,22.935,28.808,27.539,101159.0,1.4867434357483653e-05,2.7990909288574315,2.7994890925741966,17.268846134261,7.467939246343539,107.68374833889236,-1.4638838402521142,-2.612897888347991,5.299999175943435,0.0820504751084512,0.0354828549909804,0.5116440695557287,-0.0049803007687443,-0.075250584589141,0.0180312052394468,0.514731923286115,0.0596907155866557,-0.0340024978481233,-0.0335161404163473,0.4988393537934548,0.4917041654298405,0.0740004751084512,0.0729420034283792,-0.0354828549909804,-0.0349753231530968,0.0046639647942947,0.004597253402991,-0.0914892545496585,-0.0901806307221792,-0.0914892545496585,0.0148483408716765,0.0146359564473104,1878.1666666666667,1096.7333333333331,924.8666666666668,348.53333333333336,1200.6,-813.8000000000001,-12.266666666666666,-5.233333333333333,-5.166666666666667,-1.7333333333333336,20.9,3.1,rudder_m10_elevator_0,raw_rudder_m10_elevator_0.txt,-10.0,0.0,39.5,2.5,0.0,2.7990909288574315,2.8,0.00805,-0.0014803571428571,0.0128047157622739,-0.0004333333333333,-0.0068874999999999,0.00335,True,0.0820504751084512,-0.0354828549909804,0.5116440695557287,0.0042306314609614,-0.0983767545496584,0.0181983408716766,-0.0983767545496584,0.007229438,39.5,0.0,True,exact_AoS_exact_dR,0.0,-10.0,332.0,0.0439276316525353,0.0621724279768319,0.24177298630105598,0.015031613577545969,0.013982758198297932,0.002986274999792539,1.005972549999585,39.82194454272897,0.4887848733348075,0.0725089401578694,-0.03476767149671353,0.004569959093807178,-0.08964522016253465,0.014549061450351142
10.0,12.0,54.0,31.0,2.496,0.0,413.52,101160.0,290.76,666.6,1017.6,1128.5,547.2,255.6,-757.8,0.0,1.2120390414597149,969.0849217266068,39.98872997496133,39.70170893174523,443774.89473037096,98.43,98.43,7.41,6.7,0.0,22.707,22.598,30.171,28.596,101160.0,1.4866379727834744e-05,1.9993389310082328,1.9993389310082328,6.235263793043559,6.93631427386736,109.03741205687894,-2.125878060142752,-3.519665468083564,4.957148835961805,0.0296274160721898,0.0329585204123379,0.518101059019845,-0.0072328335232335,-0.1013701273480528,0.0168656109457166,0.5188997813973568,0.0070361926050199,-0.0314781632694807,-0.03102791285808,0.5052963432575711,0.4980687968317109,0.0215774160721897,0.0212687817856115,-0.0329585204123379,-0.0324870955948295,0.0017535141334841,0.0017284326046401,-0.1028332025113387,-0.1013623196221432,-0.1028332025113387,0.0135571033387254,0.0133631882330883,678.8666666666667,1022.8333333333334,1133.6666666666667,548.9333333333334,234.7,-760.9,-12.266666666666666,-5.233333333333333,-5.166666666666667,-1.7333333333333336,20.9,3.1,rudder_m10_elevator_0,raw_rudder_m10_elevator_0.txt,-10.0,0.0,39.5,2.5,0.0,1.9993389310082328,2.0,0.00805,-0.0014803571428571,0.0128047157622739,-0.0004333333333333,-0.0068874999999999,0.00335,True,0.0296274160721898,-0.0329585204123379,0.518101059019845,0.0013201808001508,-0.1097207025113386,0.0169071033387255,-0.1097207025113386,0.007229438,39.5,0.0,True,exact_AoS_exact_dR,0.0,-10.0,332.0,0.0439276316525353,0.0621724279768319,0.2480725263773881,0.015423271279228894,0.0,0.0011523045404505637,1.0023046090809011,39.74743106346101,0.49692358223158606,0.02121987826147449,-0.03241239768878215,0.001724458402146876,-0.10112925621991402,0.013332462119816202
3.0,12.0,50.0,6.0,5.0,0.0,413.63,101164.0,290.54,-491.3,1047.4,1891.8,1217.9,-920.9,-726.5,0.0,1.2130047723183783,969.3446752632036,39.97816513643388,39.69121992285722,444271.7837110666,123.03,123.04,18.03,17.84,0.0,22.172,23.819,34.14,33.543,101164.0,1.484582941648344e-05,1.5991460510733362,1.5990160814658043,-4.364830890246677,7.858146113947765,168.10040129620748,-2.60576746799696,-8.232339981058223,4.798590615121405,-0.0207343284701183,0.0373286816350332,0.7985301204274832,-0.0088631762239995,-0.2370366549851055,0.0163217765096072,0.7936843564382348,-0.0902519138426588,-0.0355786816350332,-0.0350697791331264,0.7916801204274834,0.7803562608722531,-0.0285343284701183,-0.0281261854338577,-0.0373286816350332,-0.0367947478689702,0.0008291776632762,0.0008173174546351,-0.2265426229598995,-0.2233022525382117,-0.2265426229598995,0.012979641371773,0.0127939860392987,-472.7,1061.8000000000002,1906.8,1228.9,-990.0,-735.9,-18.6,-14.4,-15.0,-11.0,69.1,9.4,rudder_m10_elevator_0,raw_rudder_m10_elevator_0.txt,-10.0,0.0,39.5,5.0,0.0,1.5991460510733362,1.6,0.0078,-0.00175,0.0068499999999999,-0.0006,-0.00465,0.0033,True,-0.0207343284701183,-0.0373286816350332,0.7985301204274833,0.0002291776632762,-0.2311926229598995,0.0162796413717731,-0.2311926229598995,0.007229438,39.5,0.0,True,exact_AoS_exact_dR,0.0,-10.0,332.0,0.0439276316525353,0.0621724279768319,0.6089558938825239,0.03786026645347851,0.0,0.0011523045404505637,1.0023046090809011,39.7369299749961,0.7785619798634155,-0.02806151461245799,-0.036710145334670714,0.000815438188381243,-0.22278881142028933,0.012764568698362667
7.0,12.0,52.0,23.0,5.0,0.0,414.28,101164.0,290.61,1713.7,1084.2,1474.8,845.3,887.8,-748.0,0.0,1.2127125926478155,970.879605384417,40.01462427267264,39.727417371882495,444486.8103838272,82.03,82.03,0.92,1.24,0.0,24.354,24.736,31.294,30.089,101164.0,1.4852180033961034e-05,2.4006139649715625,2.4006139649715625,15.921340567297715,8.188957535811644,164.133727791848,-1.6021323411107302,-6.145487512571767,4.93542251791976,0.0755118369157709,0.0388386407124846,0.7784545046949632,-0.005440827596385,-0.176669428196451,0.0167606522546704,0.7820735405153924,0.0073777110267096,-0.0370886407124846,-0.0365581403908448,0.7716045046949634,0.760567798305733,0.0677118369157709,0.0667433152721469,-0.0388386407124846,-0.0382831091266886,0.0046242196426752,0.0045580767493082,-0.1933026635736599,-0.1905377435542231,-0.1933026635736599,0.0137476067645991,0.0135509667780616,1732.3,1098.6,1489.8,856.3,818.6999999999999,-757.4,-18.6,-14.4,-15.0,-11.0,69.1,9.4,rudder_m10_elevator_0,raw_rudder_m10_elevator_0.txt,-10.0,0.0,39.5,5.0,0.0,2.4006139649715625,2.4,0.0078,-0.00175,0.0068499999999999,-0.0006,-0.00465,0.0033,True,0.0755118369157709,-0.0388386407124846,0.7784545046949634,0.0040242196426752,-0.1979526635736599,0.0170476067645992,-0.1979526635736599,0.007229438,39.5,0.0,True,exact_AoS_exact_dR,0.0,-10.0,332.0,0.0439276316525353,0.0621724279768319,0.57846337581963,0.03596447257038099,0.0,0.0011523045404505637,1.0023046090809011,39.7731691105023,0.758819017108145,0.06658985169523421,-0.038195084388361396,0.0045475963175385286,-0.19009963820174733,0.013519808903690108
4.0,12.0,50.0,33.0,7.0,0.0,414.06,101163.0,290.53,-141.4,1127.5,2249.5,1517.9,-865.5,-747.6,0.0,1.213034532873517,970.3600861966114,39.998608010003394,39.71151606671309,444521.7309905815,123.03,123.02,17.53,17.67,0.0,23.143,24.81,33.986,33.596,101163.0,1.4845069010817224e-05,1.5999637759596514,1.600093833167907,-1.046251206337523,8.943031340698054,209.65657465396708,-2.436251313562471,-11.60317390775628,4.965696098499293,-0.0049648236664727,0.04243777534626,0.9948929256840732,-0.0082779179511931,-0.333744654313394,0.0168724895683398,0.9868720848825472,-0.1261747642352794,-0.0379877753462599,-0.0374444141808887,0.9879429256840728,0.97381180548746,-0.0109648236664727,-0.0108079874392601,-0.04243777534626,-0.0418307632520343,0.0009996010509159,0.000985303177798,-0.3302953040258658,-0.3255708988803616,-0.3302953040258658,0.0133416669194494,0.0131508333257664,-111.55,1149.55,2273.85,1535.2,-980.85,-761.35,-29.85,-22.05,-24.35,-17.3,115.35,13.75,rudder_m10_elevator_0,raw_rudder_m10_elevator_0.txt,-10.0,0.0,39.5,7.0,0.0,1.5999637759596514,1.6,0.006,-0.00445,0.00695,0.0006,-0.0020499999999999,0.0036,True,-0.0049648236664727,-0.04243777534626,0.994892925684073,0.001599601050916,-0.3323453040258657,0.0169416669194494,-0.3323453040258657,0.007229438,39.5,0.0,True,exact_AoS_exact_dR,0.0,-10.0,332.0,0.0439276316525353,0.0621724279768319,0.9483094325067467,0.05895869989227604,0.0,0.0011523045404505637,1.0023046090809011,39.757249492731525,0.9715727101967848,-0.010783136524904209,-0.041734581356851694,0.0009830376602792525,-0.324822310434056,0.013120595482271128
5.0,12.0,51.0,18.0,7.0,0.0,413.96,101166.0,290.53,2015.5,1043.1,1781.3,1170.6,937.9,-713.9,0.0,1.2130705055473072,970.1239425920228,39.99314775350808,39.706095001472825,444474.2293538968,82.02,82.03,1.08,1.11,0.0,24.435,25.753,31.534,30.336,101166.0,1.4844628791701782e-05,2.3996180445659068,2.3993255152419315,18.797838346099773,8.021141840044894,203.97392290823905,-1.5138079582111554,-9.123164580056397,4.741668226266762,0.0892239546702947,0.0380723561275151,0.9681623874195604,-0.0051448831613968,-0.2624754733317163,0.0161152072704637,0.9718195165688388,-0.029430421622161,-0.033622356127515,-0.0331414360830678,0.9612123874195604,0.9474636096025688,0.0832239546702947,0.0820335542168787,-0.0380723561275151,-0.0375277851542135,0.002980337068645,0.0029377075803936,-0.2855735097998466,-0.2814887863942348,-0.2855735097998466,0.0128314202869259,0.0126478850465249,2045.35,1065.15,1805.65,1187.9,822.55,-727.65,-29.85,-22.05,-24.35,-17.3,115.35,13.75,rudder_m10_elevator_0,raw_rudder_m10_elevator_0.txt,-10.0,0.0,39.5,7.0,0.0,2.3996180445659068,2.4,0.006,-0.00445,0.00695,0.0006,-0.0020499999999999,0.0036,True,0.0892239546702947,-0.0380723561275151,0.9681623874195604,0.003580337068645,-0.2876235097998465,0.0164314202869259,-0.2876235097998465,0.007229438,39.5,0.0,True,exact_AoS_exact_dR,0.0,-10.0,332.0,0.0439276316525353,0.0621724279768319,0.8976872915211289,0.05581139847781469,0.0,0.0011523045404505637,1.0023046090809011,39.75182218436809,0.945285096984019,0.08184493363958716,-0.037441497139902344,0.0029309528797711857,-0.2808415563930769,0.012618803637072793
16.0,12.0,59.0,28.0,2.496,4.0,104.27,101161.0,290.38,251.5,-323.8,109.2,268.3,155.2,140.9,0.0,1.2136371492818565,243.25031736688445,20.02153057898999,19.877825075035176,222707.5819986702,49.21,49.21,0.53,0.55,0.0,22.222,22.274,33.817,32.539,101161.0,1.4831757361445155e-05,2.0022587771624334,2.0022587771624334,2.475133974909163,-3.503507577049044,26.876405087964507,-1.2189768256855698,-0.8734758533057256,-0.9127058359163172,0.0468539356873264,-0.0663209023669683,0.5087665428471353,-0.0165224326108418,-0.1002231224954376,-0.0123711299096832,0.5103243299497895,0.0246528836308535,0.0602012595098255,0.0593401660073523,0.4997618270848614,0.4926134440511704,0.0439161141395108,0.0432879565088016,0.0628909826474973,0.0619914164762435,-0.0285096743174806,-0.0281018839238527,-0.1094415433458905,-0.107876137528087,-0.1094415433458905,-0.0067180835080361,-0.0066219908663713,269.2,-327.3,116.0,268.2,133.39999999999998,139.3,-17.7,3.5,-6.8,0.1,21.8,1.6,rudder_m10_elevator_0,raw_rudder_m10_elevator_0.txt,-10.0,0.0,20.0,2.5,4.0,2.0022587771624334,2.0,0.00745,0.0061196428571428,0.0090047157622739,-0.0061333333333333,-0.0039875,-0.00715,True,0.0513661141395108,0.0663209023669683,0.5087665428471353,-0.0346430076508139,-0.1134290433458905,-0.0138680835080361,-0.1134290433458905,0.007229438,20.0,0.0,True,exact_AoS_flipped_dR,4.0,10.0,84.0,0.0552347823007011,0.0618977769103309,0.2426680052599556,0.015020610052855737,0.0,0.0014489124052792608,1.0028978248105584,19.90660546732582,0.49119006130482157,0.04316287804989351,0.061812295273402665,-0.028020684887975485,-0.10756443464065163,-0.00660285694369928
11.0,12.0,55.0,43.0,2.496,3.995,413.52,101162.0,290.77,672.2,-1333.6,511.3,1154.4,265.1,596.1,0.0,1.212021319675703,969.0849217266068,39.98902232503535,39.70199918346246,443759.81931502215,98.43,98.44,7.72,6.66,0.0,22.373,22.495,30.201,28.654,101162.0,1.4866993457708316e-05,1.9993535477986348,1.9991504440249863,6.340779573675689,-14.00086109713548,108.68821264708312,-4.408266726533726,-3.5150867360559093,-3.8941736768773074,0.0301287837831209,-0.0665263493032253,0.5164418066530524,-0.0149981600341117,-0.1012382549718441,-0.0132490712630621,0.517263937606016,0.0076093444946642,0.0604067064460825,0.0595426743170199,0.5074370908907785,0.5001789241109191,0.0272404270152093,0.0268507914012972,0.0642656443005688,0.0633464155470501,-0.027006464733616,-0.0266201756178028,-0.1057426421126703,-0.1042301438227848,-0.1057426421126703,-0.0075297276901318,-0.0074220256313682,689.9000000000001,-1337.1,518.1,1154.3000000000002,243.3,594.5,-17.7,3.5,-6.8,0.1,21.8,1.6,rudder_m10_elevator_0,raw_rudder_m10_elevator_0.txt,-10.0,0.0,39.5,2.5,4.0,1.9993535477986348,2.0,0.00745,0.0061196428571428,0.0090047157622739,-0.0061333333333333,-0.0039875,-0.00715,True,0.0346904270152093,0.0665263493032253,0.5164418066530524,-0.0331397980669493,-0.1097301421126703,-0.0146797276901318,-0.1097301421126703,0.007229438,39.5,0.0,True,exact_AoS_exact_dR,4.0,-10.0,350.0,0.0469417118130806,0.0606769432434604,0.2501789561247566,0.015180094321490027,0.0,0.0012313695417634188,1.0024627390835268,39.75085695351676,0.4989501401001633,0.026784827360111934,0.06319079311113625,-0.026554778127852955,-0.10397408278543525,-0.007403792023385904
15.0,12.0,59.0,1.0,2.496,8.0,103.89,101163.0,290.42,170.3,-953.6,-43.8,475.5,76.0,466.9,0.0,1.2134939840084806,242.363871432735,19.986195193269104,19.84274331075409,222264.5655347002,49.21,49.21,0.94,0.89,0.0,22.399,22.546,33.945,32.565,101163.0,1.4835091647499656e-05,1.9987250520096569,1.9987250520096569,1.684274144551488,-9.579769714061449,28.199184847037422,-1.8496369835160125,-1.114657255373969,-3.016480855092828,0.031999683419864,-0.182006948854992,0.5357589741091229,-0.0251623138482347,-0.1283641966584538,-0.0410359647160353,0.5366442551834179,0.0086372134433541,0.1236873059978491,0.121918134781161,0.526554258346849,0.5190226476421258,0.0541687361689597,0.0533939293437859,0.1757821745688958,0.1732678602571301,-0.0547685360276957,-0.0539851499175476,-0.1585959024153051,-0.1563274133139036,-0.1585959024153051,-0.0236959170275428,-0.0233569805940911,183.1,-956.9,-34.8,473.5,50.4,461.1,-12.8,3.3,-9.0,2.0,25.6,5.8,rudder_m10_elevator_0,raw_rudder_m10_elevator_0.txt,-10.0,0.0,20.0,2.5,8.0,1.9987250520096569,2.0,0.00285,0.0583196428571428,0.0092047157622739,-0.0198333333333333,0.0212125,-0.02055,True,0.0570187361689597,0.182006948854992,0.5357589741091229,-0.074601869361029,-0.1373834024153051,-0.0442459170275428,-0.1373834024153051,0.007229438,20.0,0.0,True,exact_AoS_flipped_dR,8.0,10.0,108.0,0.0634874777150074,0.0619801461768895,0.2693845087654423,0.016696491231071683,0.0,0.001665396154553093,1.0033307923091062,19.875761867527423,0.5172996300129751,0.053216675649815304,0.1726926568837426,-0.053805933527968364,-0.15580844773449576,-0.02327944160901949
12.0,12.0,56.0,44.0,2.496,8.0,413.7,101158.0,290.82,371.0,-3870.9,-104.7,1968.5,-14.2,1896.0,0.0,1.2117650239582876,969.5099735513668,40.002020851990096,39.71490441286139,443751.0461959339,98.41,98.43,6.55,6.35,0.0,22.319,22.624,30.385,28.659,101158.0,1.48721200307355e-05,2.0004099058889744,2.000003442431514,3.529735491688512,-38.499242528611845,113.97959030959562,-7.09915120807301,-4.222219297459297,-12.37521527562076,0.01676450218679,-0.1828524083689695,0.5413468220193964,-0.02414271462843,-0.1215511148123358,-0.0420854947454765,0.5415633150370034,-0.0068268623980856,0.1245327655118266,0.1227515011977512,0.5321421062571225,0.5245305693254811,0.0391994878946521,0.0386387949024922,0.178739733544897,0.1761831155531394,-0.0539422666768808,-0.0531706991760953,-0.1474887395159128,-0.1453791226022604,-0.1474887395159128,-0.0247084675972208,-0.0243550480661798,383.8,-3874.2,-95.7,1966.5,-39.8,1890.2,-12.8,3.3,-9.0,2.0,25.6,5.8,rudder_m10_elevator_0,raw_rudder_m10_elevator_0.txt,-10.0,0.0,39.5,2.5,8.0,2.0004099058889744,2.0,0.00285,0.0583196428571428,0.0092047157622739,-0.0198333333333333,0.0212125,-0.02055,True,0.0420494878946521,0.1828524083689695,0.5413468220193964,-0.0737756000102141,-0.1262762395159128,-0.0452584675972208,-0.1262762395159128,0.007229438,39.5,0.0,True,exact_AoS_exact_dR,8.0,-10.0,375.0,0.053991859189901,0.0550158346542764,0.27513231815691336,0.015136634123768514,0.0,0.00141630819034378,1.0028326163806875,39.771113180938585,0.5230489722388156,0.03852965517011509,0.17568546602423044,-0.05302051240414687,-0.14496848250403607,-0.024286254424072624
17.0,13.0,0.0,17.0,2.496,9.995,103.97,101163.0,290.31,312.0,-599.3,-14.8,428.2,136.3,244.5,0.0,1.2139537833203915,242.55049051881485,19.990101533520384,19.846621613059312,222457.5841877914,49.21,49.21,0.64,0.94,0.0,21.864,21.785,34.037,32.643,101163.0,1.4825116789482283e-05,1.9991157066613503,1.9991157066613503,2.897264657653516,-6.760642079788343,28.62581442528408,-0.1279650639005697,-1.6349854652786002,-1.579016739304423,0.0550030525480862,-0.1283472500833133,0.5434460986870463,-0.0017394871153176,-0.1881404507115604,-0.0214642902458533,0.5453258751688899,0.0312839869432064,0.0664276072261705,0.0654774546640309,0.5344413829247724,0.5267969581064817,0.0701945016296991,0.0691904689939233,0.1168528586049268,0.1151814444499839,-0.0180104741916981,-0.017752859941943,-0.2206557243383189,-0.2174995576391784,-0.2206557243383189,-0.0029028158463359,-0.0028612951890521,315.0,-610.0,-4.600000000000001,427.0,108.6,240.8,-3.0,10.7,-10.2,1.2,27.7,3.7,rudder_m10_elevator_0,raw_rudder_m10_elevator_0.txt,-10.0,0.0,20.0,2.5,10.0,1.9991157066613503,2.0,0.00625,0.0619196428571428,0.0090047157622739,-0.0189333333333333,0.0170125,-0.0201499999999999,True,0.0764445016296992,0.1283472500833133,0.5434460986870463,-0.0369438075250314,-0.203643224338319,-0.0230528158463358,-0.203643224338319,0.007229438,20.0,0.0,True,exact_AoS_flipped_dR,10.0,10.0,125.0,0.0861303461556051,0.0584458421151627,0.2775150350702423,0.016219599924299218,0.0,0.0022593612542267426,1.0045187225084535,19.891411759429946,0.5244272170368118,0.06887922289904459,0.1146633127577317,-0.017673000556536266,-0.21652115860622798,-0.0028484239516282594
13.0,12.0,57.0,10.0,2.496,10.0,413.36,101159.0,290.83,187.5,-4911.8,-404.0,2351.7,-173.6,2382.8,0.0,1.211735336730007,968.7071003996972,39.98594394612135,39.69894289976198,443550.0120281531,98.44,98.43,7.75,7.42,0.0,22.321,22.69,30.477,28.669,101159.0,1.4872880806731036e-05,1.9989965482252148,1.999199636363813,1.7538493366361534,-49.19371136392037,115.31625675164946,-7.308366752168292,-4.444354183717343,-15.582024057900789,0.0083368229974088,-0.2338395069973475,0.5481492629840952,-0.0248748119232505,-0.1280520748943163,-0.0530350940186262,0.5479922798842379,-0.0155427898065926,0.1719198641402047,0.1694607946927784,0.5391445472218214,0.5314328503190224,0.0425659721799614,0.041957126412131,0.2288392853305085,0.2255660644159771,-0.0694540492344766,-0.068460607718415,-0.1474143332024063,-0.1453057805653758,-0.1474143332024063,-0.03668401647321,-0.0361593037265515,190.5,-4922.5,-393.8,2350.5,-201.3,2379.1000000000004,-3.0,10.7,-10.2,1.2,27.7,3.7,rudder_m10_elevator_0,raw_rudder_m10_elevator_0.txt,-10.0,0.0,39.5,2.5,10.0,1.9989965482252148,2.0,0.00625,0.0619196428571428,0.0090047157622739,-0.0189333333333333,0.0170125,-0.0201499999999999,True,0.0488159721799614,0.2338395069973475,0.5481492629840953,-0.08838738256781,-0.1304018332024064,-0.05683401647321,-0.1304018332024064,0.007229438,39.5,0.0,True,exact_AoS_exact_dR,10.0,-10.0,393.0,0.0607879218121203,0.052788881735282,0.2824208743982005,0.014908682138181539,0.0,0.0015945817171005472,1.0031891634342012,39.76219571754887,0.5297434119999632,0.04182374365817495,0.22484898425716687,-0.06824296973469582,-0.14484384985574691,-0.0360443523958811
7.0,17.0,28.0,49.0,2.496,0.0,413.42,101102.0,290.77,633.9,505.2,985.7,680.5,249.8,-408.5,0.0,1.2113024600329465,968.8487831196423,39.99601266937408,39.708939354266654,443574.14790770254,98.43,98.43,6.58,6.93,0.0,20.695,20.891,28.512,28.858,101102.0,1.4875816424686836e-05,1.9997030479599631,1.9997030479599631,5.934854788693804,3.067854914387187,108.32557596267218,-1.7334155781907177,-3.277768489029369,2.6799739045648447,0.0282068689168418,0.0145807411481846,0.5148441588396436,-0.0058990034843988,-0.0944262448156166,0.0091202453699113,0.5155841068364693,0.0057588300055021,-0.0131003840053275,-0.012913001620993,0.5020394430773697,0.4948584819822187,0.0201568689168418,0.019868553539459,-0.0145807411481846,-0.0143721843577424,-0.0017515307387681,-0.0017264775795681,-0.0954889345465441,-0.0941231009781834,-0.0954889345465441,0.0056664426230778,0.0055853922104353,646.1666666666666,510.4333333333333,990.8666666666668,682.2333333333333,228.9,-411.6,-12.266666666666666,-5.233333333333333,-5.166666666666667,-1.7333333333333336,20.9,3.1,rudder_m5_elevator_0,raw_rudder_m5_elevator_0.txt,-5.0,0.0,39.5,2.5,0.0,1.9997030479599631,2.0,0.00805,-0.0014803571428571,0.0128047157622739,-0.0004333333333333,-0.0068874999999999,0.00335,True,0.0282068689168418,-0.0145807411481846,0.5148441588396436,-0.0021848640721014,-0.102376434546544,0.0090164426230779,-0.102376434546544,0.007229438,39.5,0.0,True,exact_AoS_zero_dR,0.0,0.0,333.0,0.0406664980558067,0.0701937377654597,0.2448849171897459,0.017189387659933338,0.0,0.0010667588620436252,1.0021335177240873,39.7512766474157,0.4938049403896555,0.01982625387541355,-0.014341586329117698,-0.001722801951070399,-0.09392271520060849,0.005573501047165952
8.0,17.0,29.0,34.0,2.496,4.0,413.08,101104.0,290.83,627.8,-1835.1,382.4,1291.8,234.1,937.5,0.0,1.211076518003842,968.0459187785996,39.98316648035563,39.69618536939111,443278.0618370876,98.44,98.43,6.62,6.84,0.0,20.888,21.001,28.637,28.774,101104.0,1.4880971569157546e-05,1.9988576958203303,1.9990607698522125,5.932703060890534,-17.792944279978673,108.4607517965905,-4.09078674376746,-3.487492871643484,-6.121743855621287,0.0282200276324897,-0.0846355150579503,0.5159141425630291,-0.0139329422547457,-0.1005513281399908,-0.0208502444593735,0.5166536484854932,0.0057253788304749,0.0785158722008075,0.0773928141793704,0.5069094268007552,0.4996588075061662,0.026605160147471,0.0262246111237166,0.082460817580431,0.0812813327190629,-0.0307105088629618,-0.0302712386574069,-0.1045177266939827,-0.1030227490791911,-0.1045177266939827,-0.0152849991728488,-0.0150663689717497,645.5,-1838.6,389.2,1291.7,212.3,935.9,-17.7,3.5,-6.8,0.1,21.8,1.6,rudder_m5_elevator_0,raw_rudder_m5_elevator_0.txt,-5.0,0.0,39.5,2.5,4.0,1.9988576958203303,2.0,0.00745,0.0061196428571428,0.0090047157622739,-0.0061333333333333,-0.0039875,-0.00715,True,0.034055160147471,0.0846355150579503,0.5159141425630291,-0.0368438421962951,-0.1085052266939827,-0.0224349991728489,-0.1085052266939827,0.007229438,39.5,0.0,True,exact_AoS_zero_dR,4.0,0.0,351.0,0.0469119632682526,0.0606272339058633,0.24965892391848404,0.015136129977092062,0.0,0.0012305891813845973,1.0024611783627693,39.745005045626016,0.4984320772622981,0.026160226141172797,0.0810817760063412,-0.030196918654591915,-0.10276981423604752,-0.01502937898937519
5.0,17.0,27.0,28.0,2.496,8.0,413.6,101103.0,290.59,316.8,-4388.7,-237.1,2112.7,-48.2,2249.3,0.0,1.21206476484882,969.273833278528,39.99220306840241,39.70515709689018,444024.1348092035,98.44,98.43,6.69,5.99,0.0,20.627,20.687,28.738,28.8,101103.0,1.4859325363624548e-05,1.999309457277746,1.999512577206353,3.0314849949309,-42.40469060551149,113.8814294677028,-6.732263081787941,-4.139748418222957,-14.682518425976724,0.0144015658804061,-0.201450426577959,0.5410123790077764,-0.0229005833788073,-0.119205941288257,-0.0499443104555055,0.541126284296638,-0.0091729920296329,0.1431307837208162,0.1410835011744142,0.5318076632455025,0.524200910046072,0.0394478913878267,0.0388836453365496,0.1974856142922642,0.1946608631046046,-0.057595998735445,-0.0567721697876229,-0.1444775653799535,-0.1424110190349969,-0.1444775653799535,-0.032718946086422,-0.0322509480393348,329.6,-4392.0,-228.1,2110.7,-73.80000000000001,2243.5,-12.8,3.3,-9.0,2.0,25.6,5.8,rudder_m5_elevator_0,raw_rudder_m5_elevator_0.txt,-5.0,0.0,39.5,2.5,8.0,1.999309457277746,2.0,0.00285,0.0583196428571428,0.0092047157622739,-0.0198333333333333,0.0212125,-0.02055,True,0.0422978913878267,0.201450426577959,0.5410123790077764,-0.0774293320687783,-0.1232650653799535,-0.053268946086422,-0.1232650653799535,0.007229438,39.5,0.0,True,exact_AoS_zero_dR,8.0,0.0,376.0,0.056241004609539,0.054089180387424,0.2747865940931301,0.014862981655949174,0.0,0.0014753075122212406,1.0029506150244425,39.76369126728198,0.5226587452995349,0.03876925219852623,0.1940881835940253,-0.05660514978221468,-0.1419920551437383,-0.03215606786237309
6.0,17.0,28.0,4.0,2.496,9.995,413.18,101103.0,290.69,139.5,-5411.7,-530.7,2494.5,-212.4,2729.6,0.0,1.2116478035619338,968.2820542389112,39.978614543068126,39.69166610385361,443602.2211441562,98.43,98.43,7.47,5.58,0.0,20.581,20.759,28.844,28.75,101103.0,1.4868404494148588e-05,1.9988331840940223,1.9988331840940223,1.3125724684712332,-52.89379091530388,115.3634578482057,-6.839575068285243,-4.484204325729975,-17.84739052685116,0.0062419773554415,-0.2515379935717619,0.5486143499357741,-0.0232894478983835,-0.1292569641720157,-0.0607721777518867,0.5483656958166624,-0.0176559023633918,0.189618350714619,0.1869061295571301,0.5396096341735003,0.5318912848625053,0.0435547389421536,0.0429317502703156,0.2466370054763021,0.243109213456429,-0.0725168804158208,-0.0714796294504071,-0.1480287840177673,-0.1459114425346395,-0.1480287840177673,-0.044547144956313,-0.0439099613261374,142.5,-5422.4,-520.5,2493.3,-240.1,2725.9,-3.0,10.7,-10.2,1.2,27.7,3.7,rudder_m5_elevator_0,raw_rudder_m5_elevator_0.txt,-5.0,0.0,39.5,2.5,10.0,1.9988331840940223,2.0,0.00625,0.0619196428571428,0.0090047157622739,-0.0189333333333333,0.0170125,-0.0201499999999999,True,0.0498047389421536,0.2515379935717619,0.5486143499357742,-0.0914502137491541,-0.1310162840177673,-0.064697144956313,-0.1310162840177673,0.007229438,39.5,0.0,True,exact_AoS_zero_dR,10.0,0.0,394.0,0.0725371418130175,0.0565015068886501,0.2829083389126867,0.01598474745993172,0.0,0.0019027858939356767,1.0038055717878713,39.76711912891351,0.529874808241159,0.042768989809301564,0.2421875513436619,-0.07120863985950508,-0.14535827119863223,-0.04374349232583922
28.0,8.0,10.0,41.0,2.496,-9.995,104.26,101189.0,289.29,330.2,896.7,533.5,-88.4,83.8,-457.2,0.0,1.2185471305276716,243.22698967108667,19.98019463460076,19.83678582138577,223798.9645853479,49.21,49.21,0.59,0.58,0.0,19.603,19.399,45.032,44.352,101189.0,1.4728956569678325e-05,1.9981249644581995,1.9981249644581995,2.6138409208311546,8.520802655369632,29.33895051356545,-1.0460446418331577,-1.9136533810016108,2.840559422068558,0.0494843840843911,0.1613130577095466,0.5554354453156867,-0.0141798099486113,-0.2195947502517445,0.0385056154793571,0.5570635110491933,0.025248422501061,-0.1502327005666895,-0.1480838351879535,0.5424307295534128,0.5346720284803238,0.0485812098266065,0.0478863246287786,-0.1502761734086956,-0.1481266862127071,0.0235134989555778,0.0231771717535239,-0.1929545707908949,-0.190194629744256,-0.1929545707908949,0.0323072894092517,0.0318451795261804,284.6,870.2,536.1,-83.60000000000001,64.8,-434.7,45.6,26.5,-2.6,-4.8,19.0,-22.5,rudder_0_elevator_0,raw_rudder_0_elevator_0.txt,0.0,0.0,20.0,2.5,-10.0,1.9981249644581995,2.0,0.0281499999999999,-0.0110803571428571,0.0130047157622739,0.0060666666666666,-0.0405875,0.00745,True,0.0767312098266064,-0.1613130577095466,0.5554354453156867,0.0295801656222444,-0.2335420707908949,0.0397572894092517,-0.2335420707908949,0.007229438,20.0,0.0,True,exact_AoS_exact_dR,-10.0,0.0,9.0,0.0788707161734926,0.0647035863113874,0.2858741780392642,0.018497084552960456,0.0,0.0020689274822321977,1.0041378549644644,19.877784325047898,0.5324687500196329,0.04768899448619359,-0.14751628521957197,0.023081663178950784,-0.18941087501475265,0.031713951793309665
20.0,8.0,3.0,34.0,2.496,-10.0,414.92,101193.0,289.89,683.6,4276.0,2362.5,-391.9,-76.4,-2171.3,0.0,1.2160731113350067,972.3909594001356,39.99038738198461,39.703354442649456,446306.3469309787,98.42,98.43,6.88,6.75,0.0,21.406,21.947,30.325,30.385,101193.0,1.4782670205155337e-05,1.9996249492965537,1.9994217973155213,5.8498046751061,41.28985933234436,118.92845611132644,-1.009739290275658,-7.416589613684414,14.027813347794028,0.0277013690964369,0.1955254400497548,0.5631779592281009,-0.0034237362310375,-0.2128794685405792,0.0475642903704021,0.5638500368901675,0.0031488901381546,-0.1844450829068977,-0.1818068579968637,0.550173243465827,0.5423037967293237,0.0330831594073885,0.0326099518061034,-0.1877446770096469,-0.1850592560929876,0.0434985789564655,0.0428763935734485,-0.1800996816466455,-0.1775236115290744,-0.1800996816466455,0.0422277130626462,0.0416237056109979,638.0,4249.5,2365.1,-387.1,-95.4,-2148.8,45.6,26.5,-2.6,-4.8,19.0,-22.5,rudder_0_elevator_0,raw_rudder_0_elevator_0.txt,0.0,0.0,39.5,2.5,-10.0,1.9996249492965537,2.0,0.0281499999999999,-0.0110803571428571,0.0130047157622739,0.0060666666666666,-0.0405875,0.00745,True,0.0612331594073884,-0.1955254400497548,0.5631779592281009,0.0495652456231321,-0.2206871816466455,0.0496777130626462,-0.2206871816466455,0.007229438,39.5,0.0,True,exact_AoS_exact_dR,-10.0,0.0,273.0,0.0708415063897904,0.0587826928065635,0.29409340794703964,0.017287602455786193,0.0,0.0018583061821089949,1.003716612364218,39.777067004925556,0.5402957269502064,0.032489202036112406,-0.18437400937012213,0.04271762870642812,-0.17686626816998074,0.041469579259981335
26.0,8.0,9.0,3.0,2.496,-8.0,104.24,101190.0,289.33,328.7,671.0,453.6,-22.7,105.8,-350.6,0.0,1.2183907064735384,243.1803343072557,19.97956068255744,19.836156419563903,223739.1232565005,49.21,49.21,0.6,0.58,0.0,20.185,19.959,44.909,44.134,101190.0,1.4732428520159189e-05,1.998061565906424,1.998061565906424,2.700872105082296,6.304538068544964,29.06200962874485,-1.016482703594064,-1.717570605278078,2.1996451419946084,0.0511418400243831,0.1193783580949441,0.5502980479614616,-0.0137817223898718,-0.1971317552616021,0.0298233296011954,0.5520031693373514,0.0271280377615881,-0.060398000952087,-0.05953409334275,0.5388933321991878,0.5311852285704411,0.0510083874364307,0.0502787849106567,-0.1110990076552229,-0.1095098941648729,0.0020811132065836,0.0020513458383475,-0.2022587346772815,-0.1993657107826466,-0.2022587346772815,0.0084527842915635,0.0083318792193019,294.0,655.5,456.3,-17.299999999999997,86.9,-336.70000000000005,34.7,15.5,-2.7,-5.4,18.9,-13.9,rudder_0_elevator_0,raw_rudder_0_elevator_0.txt,0.0,0.0,20.0,2.5,-8.0,1.998061565906424,2.0,0.01625,-0.0589803571428571,0.0114047157622739,0.0164666666666666,-0.0092874999999999,0.02215,True,0.0672583874364307,-0.1193783580949441,0.5502980479614616,0.0185477798732502,-0.2115462346772814,0.0306027842915635,-0.2115462346772814,0.007229438,20.0,0.0,True,exact_AoS_exact_dR,-8.0,0.0,26.0,0.0702110640584425,0.0602721745325014,0.2821577470514318,0.01700626097598128,0.0,0.0018417684919678399,1.0036835369839356,19.872656446055984,0.5292357690419535,0.050094260848139664,-0.10910799084535114,0.0020438173615079753,-0.1986340349685715,0.00830130106979652
25.0,8.0,8.0,10.0,2.496,-4.0,104.33,101191.0,289.37,249.6,428.2,323.7,74.6,129.6,-246.9,0.0,1.2182343256648152,243.3902837360233,19.98946635397758,19.845990992548398,223797.30524426769,49.21,49.21,0.56,0.58,0.0,20.549,20.332,44.893,43.941,101191.0,1.4735900733930148e-05,1.9990521853531449,1.9990521853531449,2.32990646140856,3.712117485203861,27.612775519369457,-0.1648759289195914,-1.070392192010539,1.5605708355783914,0.0440794360874635,0.0702294483269843,0.5224053385249141,-0.0022335000883574,-0.1227467880436264,0.021140351547934,0.5238293575557128,0.0212870516485512,-0.0426490911841272,-0.0420390565170112,0.5107006227626402,0.5033957757951426,0.0403210194648648,0.0397442845567085,-0.0669835468944885,-0.066025442405096,0.0085568963766782,0.0084345021289284,-0.1298832079462847,-0.1280254131533924,-0.1298832079462847,0.0079942451378315,0.0078798988168173,253.6,417.5,329.7,77.6,106.6,-239.1,-4.0,10.7,-6.0,-3.0,23.0,-7.8,rudder_0_elevator_0,raw_rudder_0_elevator_0.txt,0.0,0.0,20.0,2.5,-4.0,1.9990521853531449,2.0,0.00855,-0.0275803571428571,0.0117047157622739,0.0080666666666666,-0.0052874999999999,0.01385,True,0.0488710194648648,-0.0702294483269843,0.5224053385249141,0.0166235630433448,-0.1351707079462846,0.0218442451378315,-0.1351707079462846,0.007229438,20.0,0.0,True,exact_AoS_exact_dR,-4.0,0.0,49.0,0.0517933566172933,0.0653816393764916,0.2534073070883935,0.016568185167421205,0.0,0.0013586373257579837,1.002717274651516,19.87293620470968,0.5020316180052773,0.039636581079667964,-0.06584651932723753,0.00841164537816477,-0.12767847566791574,0.007858544991713517
15.0,7.0,59.0,55.0,2.496,-3.995,415.08,101192.0,289.75,605.0,2336.1,1540.5,210.3,155.2,-1304.0,0.0,1.2166486644737404,972.7688038271756,39.98869424008703,39.70167345335972,446666.043676063,98.44,98.42,6.41,7.57,0.0,21.335,21.615,30.295,30.305,101192.0,1.4770140458672609e-05,1.9991340422443984,1.999540287731544,5.588414801971608,21.11283129232872,111.21177813921176,0.6874384260027631,-4.17427049379646,8.459759605888756,0.0264532953498403,0.0999396039195734,0.5264315763496248,0.0023300010965375,-0.1197681647070839,0.0286734759253701,0.5270841634519289,0.0035022922489533,-0.0723592467767163,-0.0713242505365942,0.5147268605873508,0.5073644240069698,0.0248017515826384,0.0244469977566943,-0.0978537783268335,-0.0964541190274142,0.0211539540761023,0.0208513768118579,-0.1219366045230031,-0.1201924746040725,-0.1219366045230031,0.0160688199062692,0.0158389782629819,609.0,2325.4,1546.5,213.3,132.2,-1296.2,-4.0,10.7,-6.0,-3.0,23.0,-7.8,rudder_0_elevator_0,raw_rudder_0_elevator_0.txt,0.0,0.0,39.5,2.5,-4.0,1.9991340422443984,2.0,0.00855,-0.0275803571428571,0.0117047157622739,0.0080666666666666,-0.0052874999999999,0.01385,True,0.0333517515826384,-0.0999396039195734,0.5264315763496248,0.0292206207427689,-0.127224104523003,0.0299188199062692,-0.127224104523003,0.007229438,39.5,0.0,True,exact_AoS_exact_dR,-4.0,0.0,315.0,0.0471440292597019,0.0615420317563179,0.25741865874792424,0.015842067271333516,0.0,0.0012366767095660935,1.0024733534191321,39.750741266476986,0.5061126286065398,0.024386680876167945,-0.09621614250238024,0.020799931230830414,-0.11989592959666456,0.015799899527463704
1.0,7.0,50.0,35.0,-5.003,0.0,416.15,101202.0,289.04999999999995,-712.5,-304.7,-677.2,-537.7,-44.9,145.1,0.0,1.2197155774698278,975.2956993346116,39.99022680162341,39.70319501486156,448650.62717508303,123.03,123.03,17.61,17.79,0.0,17.271,17.78,34.089,33.593,101202.0,1.4705369044506352e-05,1.5996285235477827,1.5996285235477827,-6.721431338813684,-3.1663429218524537,-75.4105237120606,-1.0934200877537406,5.995030416326419,-0.988469440303608,-0.0317341038408047,-0.0149493537927588,-0.3560380623616357,-0.0036964317736716,0.1715637470253607,-0.0033416340959565,-0.3519141401326313,-0.0626625340336449,0.0110993537927587,0.0109405933031873,-0.3796880623616357,-0.3742571639696702,-0.0376341038408047,-0.0370958014439349,0.0149493537927588,0.0147355245220437,-0.0065712325562685,-0.0064772404088696,0.1790580983895318,0.1764969266409033,0.1790580983895318,-0.0053163068570774,-0.0052402646392059,-731.4,-315.5,-667.6,-528.0,-82.3,151.29999999999998,18.9,10.8,-9.6,-9.7,37.4,-6.2,rudder_0_elevator_0,raw_rudder_0_elevator_0.txt,0.0,0.0,39.5,-5.0,0.0,1.5996285235477827,1.6,0.0059,0.00385,0.02365,-0.0015999999999999,0.00145,0.0026999999999999,True,-0.0317341038408047,0.0149493537927588,-0.3560380623616357,-0.0081712325562684,0.1805080983895318,-0.0026163068570775,0.1805080983895318,0.007229438,39.5,0.0,True,exact_AoS_exact_dR,0.0,0.0,333.0,0.0406664980558067,0.0701937377654597,0.1400684247826206,0.009831926278412288,0.0,0.0010667588620436252,1.0021335177240873,39.745526183450615,-0.3734603796304842,-0.037016825390874024,0.014704152951104827,-0.006463450522620827,0.17612116900524363,-0.005229108244085972
7.0,7.0,54.0,18.0,-5.0,0.0,415.49,101197.0,289.33,1459.2,52.1,-922.2,-925.5,1613.0,-82.3,0.0,1.218474990839042,973.7370409857692,39.97859556381135,39.69164726082138,447727.296587814,82.03,82.02,0.83,0.83,0.0,23.481,24.357,30.965,30.78,101197.0,1.4731409448451123e-05,2.398452479684511,2.3987449025666967,13.257633833432498,-0.2696693397625085,-73.4722255451341,-0.4063086231071196,6.469241607603115,0.4903263071331226,0.0626938744929595,-0.0012752362868127,-0.3474419753115519,-0.0013757714861863,0.1854309064635704,0.0016602575331091,-0.3515839848970535,0.0321737419527237,-0.0025747637131873,-0.002537935375676,-0.3710919753115519,-0.3657840317342495,0.0567938744929595,0.055981518793023,0.0012752362868127,0.0012569958431802,1.6103321756399903e-05,1.587298661315582e-05,0.1663104518429098,0.1639316170703262,0.1663104518429098,-0.0009080145566218,-0.0008950266982078,1440.3,41.3,-912.6,-915.8,1575.6,-76.1,18.9,10.8,-9.6,-9.7,37.4,-6.2,rudder_0_elevator_0,raw_rudder_0_elevator_0.txt,0.0,0.0,39.5,-5.0,0.0,2.398452479684511,2.4,0.0059,0.00385,0.02365,-0.0015999999999999,0.00145,0.0026999999999999,True,0.0626938744929595,0.0012752362868127,-0.3474419753115519,-0.0015838966782435,0.1677604518429098,0.0017919854433781,0.1677604518429098,0.007229438,39.5,0.0,True,exact_AoS_exact_dR,0.0,0.0,333.0,0.0406664980558067,0.0701937377654597,0.13379795787176244,0.009391778768404517,0.0059232419688117835,0.0018436478449095186,1.003687295689819,39.76475734813894,-0.3644402328345221,0.05577585671695461,0.0012523779553434379,1.5814673236694262e-05,0.16332937337585654,-0.0008917385943324726
21.0,8.0,6.0,9.0,2.496,0.0,104.48,101192.0,289.45,-113.3,-50.8,254.6,245.6,-130.7,25.6,0.0,1.2179096580800357,243.7402011165107,20.006496532749907,19.862898936389016,223880.23999536084,61.52,61.52,1.82,1.43,0.0,21.349,21.333,38.423,39.307,101192.0,1.474299164301762e-05,1.6004091023428386,1.6004091023428386,-0.9319082618249624,-0.4510785254429526,27.39931818282415,-0.6615314907139259,-0.9836431997653596,-0.1467786235802315,-0.0176054357190671,-0.0085216907170516,0.5176227690795846,-0.0089486044791795,-0.112636946836741,-0.0019854895297582,0.5163649715108269,-0.0401310183411548,0.0100020478599087,0.0098589827730032,0.5048180533173107,0.4975973481496436,-0.0256554357190671,-0.0252884711541945,0.0085216907170516,0.0083998000362537,-0.010819899020287,-0.0106651357342752,-0.1007873025209408,-0.0993456833249435,-0.1007873025209408,-0.0058236800489331,-0.0057403805782667,-101.03333333333332,-45.56666666666666,259.76666666666665,247.3333333333333,-151.6,22.5,-12.266666666666666,-5.233333333333333,-5.166666666666667,-1.7333333333333336,20.9,3.1,rudder_0_elevator_0,raw_rudder_0_elevator_0.txt,0.0,0.0,20.0,2.5,0.0,1.6004091023428386,1.6,0.00805,-0.0014803571428571,0.0128047157622739,-0.0004333333333333,-0.0068874999999999,0.00335,True,-0.0176054357190671,0.0085216907170516,0.5176227690795846,-0.0112532323536203,-0.1076748025209407,-0.0024736800489331,-0.1076748025209407,0.007229438,20.0,0.0,True,exact_AoS_exact_dR,0.0,0.0,66.0,0.0468021256220992,0.0729286274000417,0.24760312088555764,0.018057355746150316,0.0,0.001227707932985501,1.002455415865971,19.88726982399139,0.4963785324255984,-0.02522652953333496,0.008379225552886593,-0.010639012534100704,-0.09910234585258212,-0.005726320081085972
22.0,8.0,6.0,43.0,2.496,0.0,104.43,101192.0,289.41,402.7,-22.7,167.0,158.0,281.8,12.1,0.0,1.2180779880835713,243.62356175831005,20.000326911601103,19.85677359799437,223866.1439813953,41.01,41.01,0.2,0.11,0.0,21.186,21.102,34.335,33.595,101192.0,1.4739373210956738e-05,2.40006841422405,2.40006841422405,3.815258420395117,-0.1672607373749526,26.79357289407993,-0.3765608943918384,-0.6325710064314363,-0.0596149826675442,0.072111653242117,-0.0031613712534193,0.5064214857181766,-0.0050962166701485,-0.0724703627598654,-0.0008068040866315,0.5090814621803817,0.0499887646836889,0.0046417283962764,0.00457533506506,0.4936167699559028,0.4865562832354976,0.064061653242117,0.0631453422909238,0.0031613712534193,0.0031161523283105,-0.0055131088549692,-0.0054342516640716,-0.0859077462758578,-0.0846789579958023,-0.0859077462758578,-0.0044150040626027,-0.0043518537009216,414.9666666666666,-17.466666666666665,172.16666666666666,159.73333333333332,260.90000000000003,9.0,-12.266666666666666,-5.233333333333333,-5.166666666666667,-1.7333333333333336,20.9,3.1,rudder_0_elevator_0,raw_rudder_0_elevator_0.txt,0.0,0.0,20.0,2.5,0.0,2.40006841422405,2.4,0.00805,-0.0014803571428571,0.0128047157622739,-0.0004333333333333,-0.0068874999999999,0.00335,True,0.072111653242117,0.0031613712534193,0.5064214857181767,-0.0059464421883026,-0.0927952462758577,-0.0010650040626027,-0.0927952462758577,0.007229438,20.0,0.0,True,exact_AoS_exact_dR,0.0,0.0,66.0,0.0468021256220992,0.0729286274000417,0.23673701675594178,0.017264905686791506,0.0,0.001227707932985501,1.002455415865971,19.881136970080803,0.4853645115131489,0.06299067399059907,0.0031085196199160756,-0.005420940999532854,-0.08447154522343758,-0.004341194263649373
23.0,8.0,7.0,7.0,2.496,0.0,104.31,101191.0,289.41,493.9,-21.9,150.0,143.4,354.5,10.9,0.0,1.2180659507882503,243.34362824262425,19.988931776445074,19.84546025197198,223736.3857873665,35.15,35.15,-0.16,-0.09,0.0,21.031,20.886,26.85,26.17,101191.0,1.4739518869890942e-05,2.798598214688046,2.798598214688046,4.654314004575608,-0.1689258464752604,26.642614314089883,-0.3418919219886683,-0.5732011392690834,-0.0520163324197567,0.0880717207641083,-0.0031965161710154,0.5041475254977595,-0.0046323441423646,-0.0657442093673462,-0.00070477696984,0.5075047145505892,0.0660327204709162,0.0046768733138725,0.0046099772845326,0.4913428097354856,0.4843148487859135,0.0800217207641083,0.0788771237180042,0.0031965161710154,0.0031507945477832,-0.0050640159653037,-0.0049915824102643,-0.083679985288831,-0.0824830619652002,-0.083679985288831,-0.0042935159086616,-0.0042321032624509,506.1666666666666,-16.666666666666664,155.16666666666666,145.13333333333333,333.6,7.800000000000001,-12.266666666666666,-5.233333333333333,-5.166666666666667,-1.7333333333333336,20.9,3.1,rudder_0_elevator_0,raw_rudder_0_elevator_0.txt,0.0,0.0,20.0,2.5,0.0,2.798598214688046,2.8,0.00805,-0.0014803571428571,0.0128047157622739,-0.0004333333333333,-0.0068874999999999,0.00335,True,0.0880717207641083,0.0031965161710154,0.5041475254977595,-0.0054973492986371,-0.0905674852888309,-0.0009435159086616,-0.0905674852888309,0.007229438,20.0,0.0,True,exact_AoS_exact_dR,0.0,0.0,66.0,0.0468021256220992,0.0729286274000417,0.23456087275452228,0.01710620249174315,0.014968795604161856,0.003191006486864701,1.0063820129737295,19.908686527083017,0.4812435462303478,0.07837692119012783,0.003130813654422347,-0.004959928084877844,-0.0819599922314523,-0.004205265205352368
24.0,8.0,7.0,32.0,2.496,0.0,104.52,101192.0,289.39,232.4,-28.3,198.6,185.0,143.7,14.5,0.0,1.218162170535493,243.83351276965868,20.00825165955574,19.864641465687324,223982.337972026,49.21,49.21,0.56,0.54,0.0,20.844,20.649,44.904,43.815,101192.0,1.4737564119370352e-05,2.0009308151026115,2.0009308151026115,2.24850780270859,-0.2276828277309029,26.99276102797617,-0.5098789872201681,-0.77383137595471,-0.0749581612321228,0.0424621308940779,-0.0042996951230488,0.5097470200378204,-0.0068945460190078,-0.0885774922277964,-0.0010135787217525,0.5111126154067658,0.0202225460701507,0.0057800522659059,0.0056973768287032,0.4969423042755465,0.4898342505105609,0.0344121308940779,0.033919914243456,0.0042996951230488,0.0042381940919537,-0.007621262672887,-0.0075122513362189,-0.0936580698610366,-0.0923184242112915,-0.0936580698610366,-0.0047133918642211,-0.0046459734888924,244.66666666666669,-23.066666666666663,203.76666666666665,186.7333333333333,122.79999999999998,11.4,-12.266666666666666,-5.233333333333333,-5.166666666666667,-1.7333333333333336,20.9,3.1,rudder_0_elevator_0,raw_rudder_0_elevator_0.txt,0.0,0.0,20.0,2.5,0.0,2.0009308151026115,2.0,0.00805,-0.0014803571428571,0.0128047157622739,-0.0004333333333333,-0.0068874999999999,0.00335,True,0.0424621308940779,0.0042996951230488,0.5097470200378204,-0.0080545960062204,-0.1005455698610365,-0.0013633918642211,-0.1005455698610365,0.007229438,20.0,0.0,True,exact_AoS_exact_dR,0.0,0.0,66.0,0.0468021256220992,0.0729286274000417,0.23993759297324294,0.017498319317208497,0.0,0.001227707932985501,1.002455415865971,19.88901449129512,0.4886344497300337,0.03383683075237245,0.0042278130527057265,-0.0074938508160280045,-0.09209229931841131,-0.004634593634150777
